	latitude	longitude	radius	station	records
0	-80.017	-119.533	5.0	BYRD STN	7679
1	-79.25	-147.5	5.0	LITTLE ROCKFORD	309
2	-78.45	106.867	5.0	VOSTOK	7319
3	-78.4	87.583	5.0	SOVIETSKAVA	273
4	-78.2	-162.25	5.0	LITTLE AMERICA	1612
5	-76.2667	-147.5	5.0	LITTLE ROCKFORD	389
6	-72.3	170.2167	5.0	ADARE HALLETT	4373
7	-70.4333	24.3167	5.0	BASE ROI BAUDOUIN	1097
8	-70.317	-2.367	5.0	SANAE	9815
9	-69.73	95.05	5.0	PIONERSKAVA	121
10	-69.5	159.4	5.0	LENINGRADSKAJA	2575
11	-67.667	45.85	5.0	MOLODEZNAJA	13014
12	-66.27	100.73	5.0	BUNGER OASIS	548
13	-65.25	-64.2667	5.0	FARADAY	10141
14	-63.4667	-56.2833	5.0	PETREL NAS	1654
15	-62.183	-58.883	5.0	BELLINGSHAUSEN AWS	6342
16	-60.75	-44.7167	5.0	ISLAS ORCADAS (MET)	8699
17	-59.45	-27.267	5.0	CORBETA URUGUAY DN	275
18	-52.55	169.15	5.0	CAMPBELL ISLAND	18775
19	-51.6333	-69.2167	5.0	RIO GALLEGOS B. A.	4526
20	-49.3522	70.2433	5.0	PORT-AUX-FRANCAIS	15904
21	-43.95	-176.5667	5.0	CHATHAM ISL/TUUTA	16837
22	-43.2333	-65.3	5.0	ALMIRANTE ZAR	1150
23	-42.7167	170.9833	5.0	HOKITIKA AERODROME	26036
24	-42.417	173.7	5.0	KAIKOURA	5055
25	-41.3	174.63	5.0	OUTLOOK HILL	11385
26	-39.467	175.683	5.0	WAIOURU	2309
27	-39.0167	174.1833	5.0	NEW PLYMOUTH AERO	31454
28	-38.7333	-62.1667	5.0	COMANDANTE ESPORA	13733
29	-38.6667	177.9833	5.0	GISBORNE AERODROME	28600
30	-38.1	147.1333	5.0	EAST SALE (AUS-AFB)	45308
31	-37.7953	77.5692	5.0	MARTIN DE VIVIES	16637
32	-35.367	-57.283	5.0	PUNTA INDIO B.A.	151
33	-35.1	173.267	5.0	KAITAIA	14537
34	-34.58	-58.48	5.0	BUENOS AIRES	107
35	-34.2358	142.0867	5.0	MILDURA AIRPORT	75371
36	-34.017	22.383	5.0	GEORGE AIRPORT	4491
37	-33.033	27.833	5.0	EAST LONDON	3098
38	-32.8833	-68.85	5.0	OBSERV MENDOZA	3075
39	-32.78	-71.51	5.0	QUINTERO (MIL)	28938
40	-31.35	-54.117	5.0	BAGE (AEROPORTO)	1012
41	-30.3108	153.1186	5.0	COFFS HARBOUR MO	67021
42	-30.01	131.583	5.0	MARALINGA	7453
43	-29.2447	-177.9289	5.0	RAOUL ISLAND	25267
44	-28.8	24.767	5.0	KIMBERLEY	9829
45	-28.567	16.533	5.0	KORTDOORN/ALEXANDER	11144
46	-28.25	28.3333	5.0	BETHLEHEM AIRPORT	11390
47	-27.4667	-58.9833	5.0	RESISTENCIA	1200
48	-26.5333	18.1167	5.0	KEETMANSHOOP	6019
49	-26.05	22.45	5.0	TSABONG	836
50	-25.733	28.183	5.0	PRETORIA-EENDRACHT	3937
51	-25.55	45.533	5.0	FAUX-CAP	549
52	-25.2333	-57.5167	5.0	AEROPUERTO SILVIO PETTIROSSI	5464
53	-25.0333	46.95	5.0	TAOLAGNARO	29889
54	-24.8878	113.67	5.0	CARNARVON AIRPORT	71908
55	-24.85	-65.4833	5.0	SALTA AERO	19838
56	-23.867	35.383	5.0	INHAMBANE	4808
57	-23.8667	29.45	5.0	PIETERSBURG (SAAF)	13740
58	-23.85	151.25	5.0	GLADSTONE	46725
59	-23.617	-46.65	5.0	SAO PAULO	16840
60	-23.4372	144.2769	5.0	LONGREACH AERO	47067
61	-23.383	43.733	5.0	TOLIARA	5308
62	-23.35	-149.4833	5.0	TUBUAI ISLAND	19527
63	-22.9833	14.65	5.0	WALVIS BAY AIRPORT	1174
64	-22.8	47.833	5.0	FARAFANGANA	2385
65	-22.55	45.4	5.0	RANOHIRA	1639
66	-22.333	40.333	5.0	ILE EUROPA	7597
67	-22.2761	166.4528	5.0	NOUMEA (NLLE-CALEDONIE)	41494
68	-22.217	30.0	5.0	BEITBRIDGE	3367
69	-22.0167	-60.6167	5.0	MARISCAL ESTIGARRIBIA	708
70	-21.75	43.367	5.0	MOROMBE	1328
71	-21.6333	115.1167	5.0	ONSLOW	25950
72	-21.45	47.1	5.0	FIANARANTSOA	1453
73	-21.417	25.6	5.0	LETLHAKANE	693
74	-21.233	-175.15	5.0	FUAAMOTU	5436
75	-21.217	27.5	5.0	FRANCISTOWN	613
76	-21.2	-159.8167	5.0	RAROTONGA	23629
77	-21.2	48.367	5.0	MANANJARY	4840
78	-21.1172	149.2169	5.0	MACKAY M.O	66046
79	-20.767	167.233	5.0	OUANAHAM	7206
80	-20.567	164.283	5.0	KOUMAC	11482
81	-20.5	-29.3167	5.0	TRINDADE (ILHA)	9829
82	-20.283	44.317	5.0	MORONDAVA	3268
83	-20.233	169.767	5.0	ANEITYUM	125
84	-20.15	28.617	5.0	BULAWAYO	14661
85	-19.9833	23.4167	5.0	MAUN	1796
86	-19.9061	-144.9494	5.0	HEREHERETUE	7607
87	-19.833	48.8	5.0	MAHANORO	1069
88	-19.783	-47.967	5.0	UBERABA	134
89	-19.683	63.417	5.0	RODRIGUES	10891
90	-19.6422	134.1833	5.0	TENNANT CREEK AIRPORT	46728
91	-19.6	18.117	5.0	GROOTFONTEIN	4094
92	-19.28	121.5	5.0	TALGARNO	297
93	-18.9	47.5333	5.0	TANANARIVE/SCM	4211
94	-18.3167	-59.7667	5.0	ROBORE	144
95	-18.2292	127.6636	5.0	HALLS CREEK AIRPORT	52731
96	-18.067	-140.95	5.0	HAO	18186
97	-17.883	36.883	5.0	QUELIMANE	2266
98	-17.7333	-39.25	5.0	CARAVELAS	5524
99	-17.7333	139.5333	5.0	BURKETOWN	145
100	-17.6833	141.0667	5.0	NORMANTON AIRPORT	229
101	-17.5553	-149.6145	5.0	TAHITI-FAAA	40183
102	-17.3167	123.6333	5.0	DERBY	7081
103	-17.083	49.817	5.0	SAINTE-MARIE AERODR	681
104	-17.05	42.717	5.0	ILE JUAN DE NOVA	5730
105	-16.45	-151.75	5.0	BORA-BORA	11160
106	-16.45	59.617	5.0	ST. BRANDON	5725
107	-16.333	-71.567	5.0	AREQUIPA	3138
108	-16.183	33.583	5.0	TETE	2074
109	-15.8878	54.5206	5.0	SERGE-FROLOW (ILE TROMELIN)	20680
110	-15.683	34.967	5.0	CHILEKA	10079
111	-15.6667	46.35	5.0	MAHAJANGA	36011
112	-15.6	-56.1	5.0	CUIABA	443
113	-15.517	167.217	5.0	PEKOA AIRPORT	661
114	-15.25	23.15	5.0	MONGU	5748
115	-15.2167	12.1667	5.0	MOCAMEDES	1595
116	-15.1	39.283	5.0	NAMPULA	4237
117	-15.03	40.67	5.0	LUMBO	2531
118	-14.95	-147.659	5.0	RANGIROA	5720
119	-14.95	-40.883	5.0	VITORIA DA CONQUIST	123
120	-14.933	13.567	5.0	LUBANGO	236
121	-14.633	47.767	5.0	ANALALAVA	1607
122	-14.4833	-145.0333	5.0	TAKAROA ATOLL	17249
123	-13.733	-76.217	5.0	PISCO	1501
124	-13.367	50.0	5.0	VOHEMAR	807
125	-13.317	48.317	5.0	FASCENE (NOSSI-BE)	786
126	-13.2667	-43.4167	5.0	BOM JESUS DA LAPA	6605
127	-13.0167	-38.5167	5.0	SALVADOR	7952
128	-13.0	28.65	5.0	NDOLA	2372
129	-12.983	40.533	5.0	PEMBA	3898
130	-12.8	15.75	5.0	HUAMBO	301
131	-12.5	177.05	5.0	ROTUMA	6835
132	-12.37	13.53	5.0	LOBITO	100
133	-12.35	49.3	5.0	ANTSIRANANA	8157
134	-12.15	-77.0	5.0	LAS PALMAS	389
135	-12.15	-45.0	5.0	BARREIRAS	1194
136	-11.783	19.917	5.0	LUENA (LUSO)	1995
137	-11.75	24.4333	5.0	MWINLUNGA	2872
138	-11.7	43.233	5.0	MORONI AIRPORT	5231
139	-11.583	47.283	5.0	ILES GLORIEUSES	7379
140	-11.3	-41.867	5.0	IRECE	347
141	-11.0333	-68.7833	5.0	COBIJA	222
142	-10.917	-37.05	5.0	ARACAJU	417
143	-10.7	-48.4	5.0	PORTO NACIONAL	1005
144	-10.7	152.833	5.0	MISIMA ISLAND	2055
145	-10.7	165.8	5.0	SANTA CRUZ ISLAND	151
146	-10.583	142.217	5.0	THURSDAY IL/HORN IL	21187
147	-10.45	105.7	5.0	CHRISTMAS ISL (PVT)	3447
148	-10.433	56.75	5.0	AGALEGA	2514
149	-10.217	31.133	5.0	KASAMA	3135
150	-9.517	-35.783	5.0	MACEIO (AEROPORTO)	133
151	-9.4167	159.9667	5.0	HONIARA	24636
152	-9.3833	-40.4833	5.0	PETROLINA	9393
153	-9.35	46.533	5.0	ALDABRA	143
154	-9.333	-54.967	5.0	CACHIMBO AERO	2176
155	-9.2	124.367	5.0	OE-CUSSIE	498
156	-9.1	-44.117	5.0	BOM JESUS	376
157	-9.0	-158.05	5.0	PENRHYN	8316
158	-8.367	-74.567	5.0	PUCALLPA	328
159	-8.05	-34.9167	5.0	RECIFE	14978
160	-7.967	112.7	5.0	MALANG/ABDUL (AFB)	586
161	-7.633	35.767	5.0	IRINGA	677
162	-7.4	20.817	5.0	DUNDO	6240
163	-7.3333	-47.4667	5.0	CAROLINA	5666
164	-7.317	-39.3	5.0	BARBALHA	334
165	-7.3	72.4	5.0	DIEGO GARCIA	16326
166	-7.017	-37.267	5.0	PATOS	137
167	-6.8667	39.2	5.0	DAR ES SALAAM INT	10437
168	-6.833	37.65	5.0	MOROGORO	142
169	-6.783	-79.817	5.0	CHICLAYO	1504
170	-6.7667	-43.0167	5.0	FLORIANO	7626
171	-6.267	-57.733	5.0	JACAREACANGA	287
172	-6.167	35.767	5.0	DODOMA	1096
173	-5.5	-45.267	5.0	BARRA DO CORDA	161
174	-5.217	145.783	5.0	MADANG	18232
175	-5.2	-39.3	5.0	QUIXERAMOBIM	334
176	-5.083	32.833	5.0	TABORA AIRPORT	1062
177	-5.05	-42.817	5.0	TERESINA	313
178	-4.883	29.667	5.0	KIGOMA	112
179	-4.45	105.183	5.0	MENGGALA/ASTRA KSET	181
180	-4.217	152.183	5.0	RABAUL	27818
181	-4.1	122.433	5.0	KENDARI/WOLTER MONG	1064
182	-4.05	-154.9833	5.0	MALDEN ISLAND AF	274
183	-3.7667	-38.6	5.0	FORTALEZA	9728
184	-3.417	37.067	5.0	KILIMANJARO AIRPORT	696
185	-3.4	38.567	5.0	VOI	4508
186	-3.2944	-60.6283	5.0	MANACAPURU	2770
187	-3.083	-41.783	5.0	PARNAIBA	665
188	-2.533	14.767	5.0	DJAMBALA	1376
189	-2.467	32.917	5.0	MWANZA	383
190	-2.283	37.833	5.0	MAKINDU	5723
191	-2.1581	-79.8839	5.0	GUAYAQUIL AEROPUERTO	5607
192	-2.05	147.4167	5.0	MOMOTE W.O.	23951
193	-1.333	31.817	5.0	BUKOBA	1433
194	-0.9	-89.6	5.0	SAN CRISTOBAL RADIOSONDA	3825
195	-0.7	8.75	5.0	PORT-GENTIL	10586
196	-0.5167	166.9167	5.0	NAURU ARC-2	6251
197	-0.467	39.633	5.0	GARISSA	7179
198	0.05	32.45	5.0	ENTEBBE AIRPORT	6316
199	0.383	6.717	5.0	S. TOME	5381
200	1.083	154.767	5.0	KAPINGAMARANGI ATOL	487
201	1.617	18.067	5.0	IMPFONDO	986
202	1.683	31.717	5.0	MASINDI	632
203	1.717	33.617	5.0	SOROTI	112
204	1.75	40.067	5.0	WAJIR	3181
205	1.85	-78.767	5.0	TUMACO	344
206	2.0	-157.4	5.0	CHRISTMAS ISLAND	29424
207	2.033	-56.117	5.0	SIPALIWINI	331
208	2.083	11.483	5.0	BITAM	483
209	2.333	37.983	5.0	MARSABIT	1160
210	3.117	35.617	5.0	LODWAR	8644
211	3.367	-57.333	5.0	COEROENI	254
212	3.533	39.05	5.0	MOYALE	3218
213	3.55	-76.3833	5.0	CALI/ALFONSO BONILLA ARAGON	1230
214	3.783	-56.15	5.0	TAFELBERG	228
215	3.833	11.517	5.0	YAOUNDE	7131
216	3.85	-159.367	5.0	FANNING ISLAND	103
217	3.933	41.867	5.0	MANDERA	3516
218	4.1917	73.5292	5.0	MALE	4090
219	4.2167	100.7	5.0	SITIAWAN	52733
220	4.25	15.8	5.0	BERBERATI	2543
221	4.317	21.183	5.0	MOBAYE	150
222	4.4	18.5167	5.0	BANGUI	34559
223	4.467	14.367	5.0	BATOURI	4064
224	4.55	-70.917	5.0	LAS GAVIOTAS	3770
225	4.6	-61.1167	5.0	SANTA ELENA DE UAIREN	813
226	4.733	22.833	5.0	BANGASSOU	2199
227	4.883	-1.767	5.0	TAKORADI	135
228	5.3333	163.0167	5.0	KUSAIE/CAROLINES	1652
229	5.467	100.383	5.0	BUTTERWORTH AB	24729
230	5.55	12.367	5.0	YOKO	1316
231	5.6	-0.1667	5.0	ACCRA/KOTOKA INTL	3276
232	5.65	10.75	5.0	KOUNDJA	5780
233	5.8833	-162.05	5.0	PALMYRA ISLAND	631
234	5.9	43.583	5.0	GODE	237
235	5.9	118.0667	5.0	SANDAKAN	47253
236	5.917	169.65	5.0	JALUIT ATOLL	130
237	5.95	-57.033	5.0	NICKERIE	382
238	5.967	15.633	5.0	BOUAR	2424
239	6.25	-10.35	5.0	ROBERTS FIELD	1457
240	6.467	7.55	5.0	ENUGU	469
241	6.483	17.433	5.0	BOSSANGOA	3181
242	6.8833	81.8333	5.0	POTTUVIL	151
243	7.233	-70.8	5.0	GUASDUALITO	356
244	7.3	-61.45	5.0	TUMEREMO	451
245	7.383	143.917	5.0	WOLEAI ATOLL	106
246	7.7	28.017	5.0	WAU	717
247	7.85	-72.45	5.0	SAN ANTONIO DEL TACHIRA	3694
248	7.9	-67.4167	5.0	SAN FERNANDO DE APURE	1404
249	8.15	-63.55	5.0	CIUDAD BOLIVAR	641
250	8.4	20.65	5.0	NDELE	2173
251	8.4089	124.6119	5.0	LUMBIA AIRPORT	3518
252	8.617	-13.2	5.0	LUNGI	1194
253	8.983	1.15	5.0	SOKODE	5401
254	9.15	18.3833	5.0	SARH	17203
255	9.333	13.383	5.0	GAROUA	10956
256	9.417	-5.617	5.0	KORHOGO	11845
257	9.467	170.25	5.0	WOTJE ATOLL	299
258	9.5	-7.567	5.0	ODIENNE	140
259	9.5	-0.85	5.0	TAMALE	1562
260	9.6	105.967	5.0	BA-XUYEN/SOC TRANG	170
261	9.8	125.5	5.0	SURIGAO	347
262	9.9333	76.2333	5.0	COCHIN (IN-NAVY)	17051
263	9.983	98.617	5.0	RANONG	194
264	10.067	-69.317	5.0	BARQUISIMETO	741
265	10.717	115.833	5.0	NENSHA ISL	436
266	10.85	121.033	5.0	CUYO	270
267	11.1167	72.7333	5.0	AMINIDIVI	26613
268	11.233	169.85	5.0	UTIRIK ATOLL M.ISL	577
269	11.3	167.48	5.0	RONGERIK	145
270	11.3167	-12.3	5.0	LABE	3485
271	11.52	165.55	5.0	BIKINI	294
272	11.5333	-72.9333	5.0	RIOHACHA/ALMIRANTE PADILLA	2967
273	11.55	43.15	5.0	DJIBOUTI	2487
274	11.783	34.383	5.0	DAMAZINE	1808
275	11.85	13.083	5.0	MAIDUGURI	593
276	11.87	-15.5	5.0	BISSAU	2569
277	12.7	28.433	5.0	EN NAHUD	198
278	12.917	74.883	5.0	MANGALORE/BAJPE	2209
279	13.0667	-9.4833	5.0	KITA	4283
280	13.167	32.667	5.0	AROMA	298
281	13.467	7.083	5.0	MARADI	18936
282	13.683	44.15	5.0	TAIZ (CIV/MIL)	449
283	13.8	5.25	5.0	BIRNI-N'KONNI	30210
284	13.85	20.85	5.0	ABECHE	4728
285	14.033	35.4	5.0	GEDAREF	238
286	14.067	-83.367	5.0	PUERTO CABEZAS	4028
287	14.117	93.367	5.0	COCO ISLAND	985
288	14.4	33.483	5.0	WAD MEDANI	269
289	14.482	-11.44	5.0	KAYES/DAG-DAG	16115
290	14.6833	77.6167	5.0	ANANTAPUR	10993
291	14.75	42.967	5.0	HODEIDAH (CIV/MIL)	542
292	14.9	-23.517	5.0	PRAIA	123
293	15.117	105.783	5.0	PAKSE	590
294	15.117	145.733	5.0	SAIPAN/ISLEY (CGS)	7992
295	15.167	-7.283	5.0	NARA	9645
296	15.283	38.917	5.0	ASMARA	2299
297	15.383	73.817	5.0	GOA/DABOLIM AIRPORT	1902
298	15.4167	75.6333	5.0	GADAG	12739
299	15.4167	108.7	5.0	CHU LAI	822
300	15.6	32.55	5.0	KHARTOUM	10644
301	15.717	-88.6	5.0	PUERTO BARRIOS	639
302	16.1667	-95.1667	5.0	SALINA CRUZ	556
303	16.2639	-61.5164	5.0	LE RAIZET AERO	40752
304	16.433	101.15	5.0	PHETCHABUN	401
305	16.533	80.8	5.0	VIJAYAWADA/GANNAVA	8012
306	16.55	111.617	5.0	HOANG SA (PATTLE)	417
307	16.633	-11.4	5.0	KIFFA	4608
308	16.7167	-3.0	5.0	TOMBOUCTOU	28543
309	16.7333	-9.6333	5.0	AIOUN ELATROUSS	4231
310	16.7419	-22.9489	5.0	SAL	17887
311	16.767	94.767	5.0	PATHEIN	2065
312	16.883	42.583	5.0	GIZAN	1629
313	16.9	96.183	5.0	MINGALADON	945
314	17.7	33.967	5.0	ATBARA	361
315	17.9	-62.85	5.0	ST. BARTHELEMY	4048
316	18.0	19.167	5.0	FAYA	2999
317	18.2167	109.5833	5.0	SANYA	23144
318	18.3	42.8	5.0	KHAMIS MUSHAIT	11138
319	18.433	1.35	5.0	KIDAL	5839
320	18.633	-91.833	5.0	CUIDAD DEL CARMEN	185
321	18.683	12.917	5.0	BILMA	21154
322	18.717	-110.95	5.0	ISLA SOCORRO	9477
323	19.05	-69.3833	5.0	SABANA DE LA MAR	4059
324	19.0833	82.0333	5.0	JAGDALPUR	26956
325	19.1	108.617	5.0	DONGFANG	6890
326	19.167	30.483	5.0	DONGOLA	1444
327	19.2667	84.8833	5.0	GOPALPUR	9005
328	19.883	102.133	5.0	LUANG-PRABANG	472
329	20.45	121.967	5.0	BASCO	867
330	20.667	58.9	5.0	MASIRAH	514
331	20.7167	116.7167	5.0	DONGSHA (=597920)	9110
332	20.883	95.9	5.0	MEIKTILA	5141
333	20.899	-156.43	5.0	KAHULUI ARPT/MAUI	19540
334	21.2	72.8333	5.0	SURAT	2307
335	21.217	110.4	5.0	ZHANJIANG	5208
336	21.3	99.617	5.0	KENGTUNG	231
337	21.3333	0.95	5.0	BORDJ-BADJ-MOKHTAR	231
338	21.45	-71.15	5.0	TURKS ISLAND	10548
339	21.4833	109.1	5.0	BEIHAI	9881
340	21.5167	86.9333	5.0	BALASORE	1408
341	21.8333	111.9667	5.0	YANGJIANG	25007
342	21.9167	84.0833	5.0	JHARSIGUDA	8456
343	22.283	-97.85	5.0	TAMPICO	165
344	22.367	106.75	5.0	LONGZHOU	4011
345	22.37	-73.03	5.0	MAYAGUAN	1160
346	22.5	103.95	5.0	HEKOU	13535
347	22.75	-12.483	5.0	ZOUERATE	2072
348	22.767	81.9	5.0	PENDRA ROAD	5308
349	22.783	115.367	5.0	SHANWEI	2322
350	23.217	113.483	5.0	GUANGZHOU	28004
351	23.2833	77.35	5.0	BHOPAL/BAIRAGHAR	35992
352	23.3833	87.0833	5.0	BANKURA	1420
353	23.8167	5.15	5.0	IN AMGUEL	144
354	23.8833	91.25	5.0	AGARTALA	37876
355	23.8833	100.0833	5.0	LINCANG	2076
356	24.067	105.067	5.0	GUANGNAN	5390
357	24.217	23.3	5.0	KUFRA	6321
358	24.267	9.467	5.0	DJANET	6261
359	24.35	109.4	5.0	LIUZHOU	4445
360	24.583	73.7	5.0	UDAIPUR	1174
361	24.7	46.733	5.0	RIYADH OBS.	11578
362	24.7	108.0333	5.0	HECHI	22855
363	24.7667	93.9	5.0	IMPHAL/TULIHAL	19897
364	24.8333	113.5	5.0	CHU CHIANG	1393
365	25.0167	102.8333	5.0	KAN-HAI-TZU	598
366	25.15	75.85	5.0	KOTA AERODROME	1768
367	25.233	-11.617	5.0	BIR MOGHREIN	5175
368	25.2667	63.4833	5.0	PASNI	119
369	25.3667	97.4	5.0	MYITKYINA	3942
370	25.3833	68.4167	5.0	HYDERABAD	934
371	25.433	105.183	5.0	XINGREN	4750
372	25.433	106.767	5.0	LUODIAN	3236
373	25.5	28.967	5.0	DAKHLA	4922
374	25.533	-103.45	5.0	TORREON AIRPORT	1530
375	25.5667	91.8833	5.0	SHILLONG S06 03Z	280
376	25.617	-109.05	5.0	TOPOLOBAMPO	251
377	25.75	71.3833	5.0	BARMER	2587
378	25.8	21.133	5.0	TAZERBO	3989
379	25.85	116.367	5.0	CHANGTING	5057
380	25.9	-81.7167	5.0	DELTA SEVEN	436
381	25.967	108.533	5.0	RONGJIANG	2499
382	26.2	36.483	5.0	AL-WEJH	5395
383	26.2003	32.7467	5.0	SOUTH OF VALLEY UNIVERSITY	4197
384	26.267	50.167	5.0	DHAHRAN	17304
385	26.5	8.417	5.0	ILLIZI	502
386	26.6167	-78.3667	5.0	GOLD ROCK CREEK	13583
387	26.717	92.8	5.0	TEZPUR/BINDUKURI	424
388	26.867	100.233	5.0	LIJING	20204
389	26.9667	64.1	5.0	PANJGUR	8843
390	27.0167	14.45	5.0	SEBHA	3998
391	27.117	114.967	5.0	JIAN	4747
392	27.3	105.233	5.0	BIJIE	1335
393	27.333	120.2	5.0	FUDING	4348
394	27.5667	81.6	5.0	BAHRAICH	9170
395	27.75	89.167	5.0	PAGRI	5820
396	27.8333	66.6333	5.0	KHUZDAR	1098
397	27.883	-0.283	5.0	ADRAR	22304
398	28.05	9.633	5.0	IN-AMENAS	12360
399	28.083	30.733	5.0	MINYA	2596
400	28.2	113.0833	5.0	CHANGSHA	43728
401	28.333	28.867	5.0	BAHARIA	5180
402	28.417	92.467	5.0	LHUNZE	9321
403	28.45	121.883	5.0	DACHEN DAO	18781
404	28.467	-16.25	5.0	STA. CRUZ DE TENERI	22725
405	28.633	87.083	5.0	TINGRI	4882
406	28.8167	62.75	5.0	NOKKUNDI	1323
407	28.817	104.533	5.0	YIBIN	27926
408	28.883	-118.3	5.0	ISLA GUADALUPE	13025
409	29.0	135.0	5.0	OCEAN WEATHER SHIP T	5347
410	29.033	21.567	5.0	JALO	3469
411	29.0333	66.5833	5.0	KALAT	172
412	29.05	111.683	5.0	CHANGDE	4719
413	29.117	15.933	5.0	HON	3794
414	29.217	88.917	5.0	XIGAZE	11663
415	29.2425	47.9714	5.0	KUWAIT INTERNATIONAL AIRPORT	36208
416	29.25	0.283	5.0	TIMIMOUN	9666
417	29.3	117.2	5.0	JINGDEZHEN	5385
418	29.383	113.083	5.0	YUEYANG	4823
419	29.5667	94.4667	5.0	NYINGCHI	6509
420	29.6833	-85.35	5.0	CAPE SAN BLAS SITE D 3	2507
421	29.75	24.533	5.0	GIARABUB	2551
422	29.8833	69.7167	5.0	BARKHAN	1029
423	29.95	73.25	5.0	BAHAWALNAGAR	1115
424	29.967	99.067	5.0	BATANG	19656
425	30.033	122.117	5.0	DINGHAI	3697
426	30.133	-2.167	5.0	BENI-ABBES	7838
427	30.133	9.5	5.0	GHADAMES	5808
428	30.3333	76.4667	5.0	PATIALA	23763
429	30.383	13.583	5.0	GARIAT EL-SHARGHIA	688
430	30.483	140.3	5.0	TORISHIMA	6556
431	30.517	47.783	5.0	BASRAH-HUSSEN	2290
432	30.567	2.867	5.0	EL-GOLEA	31528
433	30.667	104.017	5.0	CHENGDU	34761
434	30.717	20.167	5.0	AGEDABIA	3757
435	30.8	106.083	5.0	NANCHONG	8082
436	30.933	-6.9	5.0	OUARZAZATE	8186
437	30.95	88.633	5.0	XAINZA	12076
438	31.017	46.233	5.0	NASIRIYA	750
439	31.1	-97.717	5.0	FT HOOD AAF/KILLEEN	2923
440	31.2	16.583	5.0	SIRTE	2738
441	31.283	32.233	5.0	PORT SAID/EL GAMIL	1814
442	31.367	90.017	5.0	BAINGOIN	11427
443	31.367	130.833	5.0	KANOYA AB	464
444	31.417	95.6	5.0	DENGQEN	6863
445	31.5	65.85	5.0	KANDAHAR AIRPORT	5934
446	31.617	-8.033	5.0	MARRAKECH	9944
447	31.867	-81.633	5.0	FORT STEWART RESERV	3618
448	31.867	93.767	5.0	SOG XIAN	7101
449	31.867	117.233	5.0	HEFEI	9149
450	31.9	54.2833	5.0	YAZD	1516
451	31.9	102.233	5.0	BARKAM	6148
452	31.9333	5.4	5.0	OUARGLA	2887
453	32.05	72.667	5.0	SARGODHA	19138
454	32.1	20.2667	5.0	BENINA	16181
455	32.1	23.933	5.0	TOBRUK	7553
456	32.2167	-98.1833	5.0	STEPHENVILLE	15234
457	32.283	-9.233	5.0	SAFI	1179
458	32.35	-94.65	5.0	LONGVIEW WSMO	14445
459	32.367	-6.4	5.0	BENI-MELLAL	2448
460	32.383	3.817	5.0	GHARDAIA	31999
461	32.383	111.667	5.0	GUANGHUA	3239
462	32.417	15.05	5.0	MISURATA	1073
463	32.43	109.02	5.0	ANKANG	23991
464	32.5	74.5333	5.0	SIALKOT	942
465	32.5	80.067	5.0	SHIQUANHE	10631
466	32.717	133.017	5.0	SHIMIZU	5015
467	32.8	21.883	5.0	SHAHAT	1530
468	32.817	-115.683	5.0	EL CENTRO NAF	1361
469	32.9	-87.25	5.0	CENTREVILLE WSMO	14447
470	33.033	40.283	5.0	RUTBAH	2392
471	33.3	44.4	5.0	BAGHDAD INT. AIRPORT	14024
472	33.383	104.917	5.0	WUDU	27511
473	33.4	-117.5	5.0	CAMP PENDLETON	207
474	33.5	6.783	5.0	EL-OUED	28456
475	33.583	102.967	5.0	RUOERGAI	2991
476	33.6167	73.1	5.0	ISLAMABAD AIRPORT	7050
477	33.65	-101.8167	5.0	LUBBOCK/MUNI (TEX)	693
478	33.783	114.517	5.0	XIHUA	6675
479	33.8	99.8	5.0	DARLAG	12064
480	33.85	-80.483	5.0	POINSETT RANGE	3637
481	33.8667	70.0833	5.0	PARACHINAR	2376
482	33.883	-5.533	5.0	MEKNES	2167
483	33.95	-83.3167	5.0	ATHENS BEN EPPS AP	28581
484	33.95	92.617	5.0	TUOTUOHE	11291
485	34.0	164.0	5.0	OCEAN WEATHER SHIP V	12375
486	34.0803	111.0728	5.0	LUSHI	26483
487	34.217	62.217	5.0	HERAT	1107
488	34.3	-103.8	5.0	MELROSE GUNNERY RAN	151
489	34.3	108.933	5.0	XIAN	36675
490	34.583	105.75	5.0	TIANSHUI	6899
491	34.6	-86.6333	5.0	REDSTONE ARSENAL	2583
492	34.65	-120.567	5.0	SOUTH VANDENBERG AF	6218
493	34.6833	3.25	5.0	DJELFA	9814
494	34.783	-1.95	5.0	OUJDA	7639
495	34.8	5.733	5.0	BISKRA	19871
496	34.85	119.133	5.0	GANYU	7452
497	34.917	98.217	5.0	MADOI	6085
498	35.133	-78.933	5.0	FORT BRAGG/SIMMONS	159
499	35.217	93.083	5.0	WUDAOLIANG	5083
500	35.3333	-94.3667	5.0	FT SMITH CAMP CHAFFEE	5244
501	35.633	-0.6	5.0	ORAN-SENIA	38241
502	35.667	-75.9	5.0	DARE COUNTY GUNNERY	5845
503	35.9	62.9667	5.0	TAGTABAZAR	13721
504	35.9167	74.3333	5.0	GILGIT	521
505	35.933	39.017	5.0	RAQQA	252
506	35.967	-89.95	5.0	BLYTHEVILLE AFB	1375
507	36.05	103.883	5.0	LANZHOU	30960
508	36.2969	-99.775	5.0	GAGE	586
509	36.317	43.15	5.0	MOSUL	884
510	36.333	37.217	5.0	ALEPPO INT. AEROPOR	18332
511	36.6667	68.9167	5.0	KUNDUZ	4540
512	36.7	119.1167	5.0	WEI HSIEN	254
513	36.867	30.733	5.0	ANTALYA	1476
514	36.8833	-93.9	5.0	MONETT	18071
515	37.017	-7.967	5.0	FARO/AEROPORTO	1831
516	37.05	41.217	5.0	KAMISHLI	136
517	37.0667	-88.7667	5.0	PADUCAH BARKLEY FLD	4390
518	37.1	-113.6	5.0	ST. GEORGE	591
519	37.3167	-121.8667	5.0	SAN JOSE/EMSU	188
520	37.317	97.217	5.0	DELINGHA	10750
521	37.4	122.683	5.0	CHENGSHANTOU	15581
522	37.433	-105.867	5.0	ALAMOSA MUNI(AWOS)	921
523	37.467	53.967	5.0	ESENGYLY	36098
524	37.4833	116.3667	5.0	TE HSIEN/TECHOW	498
525	37.5	71.5	5.0	KHOROG	28898
526	37.617	120.317	5.0	LONGKOU	8328
527	37.783	-0.8	5.0	MURCIA/SAN JAVIER	1000
528	37.85	95.367	5.0	DA-QAIDAM	5439
529	37.917	139.05	5.0	NIIGATA	2033
530	37.93	83.65	5.0	ANDIR	14362
531	37.966	124.63	5.0	BAENGNYEONGDO	8261
532	38.0	-71.0	5.0	OCEAN WEATHER SHIP H	3274
533	38.2	15.55	5.0	MESSINA	5442
534	38.267	140.9	5.0	SENDAI	57672
535	38.417	-113.017	5.0	MILFORD MUNICIPAL	774
536	38.433	77.267	5.0	SHACHE	15714
537	38.65	-88.9667	5.0	SALEM LECKRONE AP	15223
538	38.733	48.833	5.0	LANKARAN	33653
539	38.733	115.483	5.0	BAODING	9153
540	38.817	35.433	5.0	KAYSERI/ERKILET	1942
541	38.833	93.383	5.0	LENGHU	15645
542	39.0333	125.7833	5.0	PYONGYANG	29160
543	39.0833	-28.0333	5.0	GRACIOSA/AERODROME	2173
544	39.1	107.983	5.0	OTOG QI	9443
545	39.2	45.417	5.0	NAXCIVAN	914
546	39.55	2.617	5.0	PALMA DE MALLORCA	9948
547	39.783	105.75	5.0	JARTAI	9470
548	39.867	4.233	5.0	MENORCA/MAHON	165
549	39.9333	127.55	5.0	HAMHEUNG	11836
550	40.0333	52.9833	5.0	TURKMENBASHI	35133
551	40.083	124.333	5.0	DANDONG	24594
552	40.1	113.333	5.0	DATONG	8658
553	40.267	97.033	5.0	YUMENZHEN	2942
554	40.433	-80.0	5.0	PITTSBURGH/EMSU	544
555	40.633	87.7	5.0	TIKANLIK	16175
556	40.65	-73.7833	5.0	NEW YORK JFK AP	24923
557	40.6667	-89.6833	5.0	PEORIA GTR PEORIA AP	29195
558	40.783	43.833	5.0	GUMRI	147
559	40.7833	114.8833	5.0	ZHANGJIAKOU	23066
560	40.85	35.583	5.0	MERZIFON	1796
561	40.917	72.95	5.0	DZHALAL-ABAD	30741
562	40.967	117.917	5.0	CHENGDE	6676
563	41.117	121.067	5.0	JINZHOU	26088
564	41.25	-76.917	5.0	WILLIAMSPORT/LYCOMI	463
565	41.26	80.3	5.0	WEN-SU	9162
566	41.433	76.0	5.0	NARYN	13926
567	41.45	31.8	5.0	ZONGULDAK	304
568	41.5667	108.5167	5.0	HALIUT	23054
569	41.65	-70.5167	5.0	FALMOUTH OTIS AFB	383
570	41.65	25.367	5.0	KURDJALI	9983
571	41.7	-86.3167	5.0	SOUTH BEND ST JOSEPH	612
572	41.733	64.617	5.0	TAMDY	24209
573	41.75	86.133	5.0	KORLA	21640
574	41.7833	95.1333	5.0	XING-XING-XIA	122
575	41.8	12.233	5.0	ROMA FIUMICINO	25186
576	41.8667	-103.5833	5.0	SCOTTSBLUFF AAF	987
577	41.9181	8.7928	5.0	AJACCIO	47208
578	41.95	21.633	5.0	SKOPJE- AIRPORT	2454
579	42.217	-75.983	5.0	BINGHAMTON/BROOME C	109
580	42.4	112.9	5.0	JURH	11935
581	42.583	-5.65	5.0	LEON/VIRGEN DEL CAM	200
582	42.7	-68.3	5.0	ENVIRONM BUOY 44005	574
583	42.833	74.583	5.0	BISHKEK	24813
584	42.917	-106.467	5.0	CASPER/NATRONA COUN	1420
585	42.9667	-83.75	5.0	FLINT BISHOP AP	29048
586	43.2	107.167	5.0	HANBOGD	2539
587	43.483	91.633	5.0	SHISANJIANFANG	15467
588	43.517	16.433	5.0	SPLIT/MARJAN	4568
589	43.583	-118.95	5.0	BURNS MUNI (AMOS)	1705
590	43.5833	39.7667	5.0	SOCHI	194
591	43.88	-69.93	5.0	BRUNSWICK	965
592	43.9322	-60.0094	5.0	SABLE ISLAND	44361
593	44.117	-77.533	5.0	TRENTON ARPT	142
594	44.167	80.067	5.0	ZHARKENT	23543
595	44.55	50.25	5.0	FORT SHEVCHENKO	1177
596	44.567	129.6	5.0	MUDANJIANG	4789
597	44.617	82.9	5.0	JINGHE	10505
598	44.617	114.15	5.0	NARAN BULAG	14093
599	44.9	110.117	5.0	SAINSHAND	17817
600	45.0	-16.0	5.0	OCEAN WEATHER SHIP K	2558
601	45.0	136.6	5.0	TERNEJ	35417
602	45.367	90.533	5.0	BAYTIK SHAN	19772
603	45.417	-91.767	5.0	RICE LAKE RGNL CARLS	581
604	45.6	84.85	5.0	KARAMAY	20097
605	45.767	106.283	5.0	MANDALGOBI	3030
606	45.95	-77.317	5.0	PETAWAWA	1273
607	46.0	18.233	5.0	PECS/POGANY	127
608	46.18	45.35	5.0	YASHKUL	3336
609	46.2667	102.7833	5.0	ARVAIHEER	13261
610	46.374	-117.015	5.0	LEWISTON NEZ PERCE	432
611	46.4	96.25	5.0	ALTAI	14794
612	46.733	83.0	5.0	TACHENG	22028
613	46.767	-56.167	5.0	SAINT-PIERRE	690
614	46.8	75.083	5.0	BALHASH	36009
615	46.81	85.7489	5.0	HOBOKSAR	26741
616	46.817	130.333	5.0	CHIAMUSSU	2815
617	46.9	-71.483	5.0	VALCARTIER AIRPORT	2371
618	46.9667	-122.9	5.0	OLYMPIA MUN I AP	1217
619	47.15	-1.6	5.0	NANTES	256
620	47.2603	11.3439	5.0	INNSBRUCK-FLUGHAFEN	7542
621	47.383	123.917	5.0	QIQIHAR	17927
622	47.45	101.467	5.0	TSETSERLEG	2069
623	47.567	-59.15	5.0	PORT-AUX-BASQUES	2303
624	47.6667	-52.75	5.0	SAINT JOHN'S ARPT	30095
625	47.75	96.85	5.0	ULIASTAI	1923
626	47.95	-97.4	5.0	GRAND FORKS AFB	517
627	48.017	91.567	5.0	HOVD	3097
628	48.0833	114.55	5.0	CHOIBALSAN	11826
629	48.183	-103.633	5.0	WILLISTON/SLOULIN F	460
630	48.2353	14.1881	5.0	LINZ/HOERSCHING-FLUGHAFEN	10855
631	48.55	-109.767	5.0	HAVRE (AMOS)	690
632	48.633	22.267	5.0	UZHHOROD	40708
633	48.65	144.75	5.0	M. TERPENIYA (FL)	7763
634	48.667	116.817	5.0	XIN BARAG YOUQI	12550
635	48.7	-8.9167	5.0	ENVIRONM BUOY 62027	215
636	48.8	103.55	5.0	BULGAN	2639
637	48.917	106.067	5.0	BARUUNHARAA	2895
638	49.067	20.25	5.0	POPRAD/TATRY	15541
639	49.08	16.62	5.0	BRNO REBESOVICE	4516
640	49.2	-123.167	5.0	VANCOUVER INT. AIRP	14056
641	49.633	-112.8	5.0	LETHBRIDGE AWOS	9936
642	49.7167	-124.9	5.0	COMOX A	104
643	50.0	88.667	5.0	KOS-AGAC	10486
644	50.017	155.4	5.0	M. VASILYEV	34757
645	50.133	65.233	5.0	AMANGELDY	15887
646	50.28	21.43	5.0	MIELEC	738
647	50.383	-102.683	5.0	BROADVIEW	8722
648	51.1	-100.05	5.0	DAUPHIN AIRPORT	2648
649	51.117	-114.017	5.0	CALGARY INTL	15534
650	51.1333	71.3667	5.0	CELINOGRAD	167
651	51.1833	40.7	5.0	KAMENNAYA STEP NO2	6225
652	51.25	51.4	5.0	URALSK	34602
653	51.517	-109.183	5.0	KINDERSLEY ARPT	914
654	51.717	126.65	5.0	HUMA	6620
655	51.85	10.7667	5.0	WERNIGERODE	9806
656	52.05	29.25	5.0	MOZYR (AMOS)	6912
657	52.417	16.85	5.0	POZNAN	31288
658	52.433	-114.917	5.0	ROCKY MTN HOUSE	1475
659	52.5	-20.0	5.0	OCEAN WEATHER SHIP J	2559
660	52.767	-108.25	5.0	NORTH BATTLEFORD	2182
661	53.05	158.33	5.0	NIKOLAEVKA	127
662	53.067	132.983	5.0	EKIMCHAN	29232
663	53.167	-0.517	5.0	WADDINGTON	992
664	53.2	-70.9	5.0	NITCHEQUON	15444
665	53.217	-105.667	5.0	PRINCE ALBERT ARPT	9605
666	53.6167	109.6333	5.0	BARGUZIN	6508
667	53.7333	87.1833	5.0	ABAGUR	181
668	53.833	-89.867	5.0	TROUT LAKE	15743
669	53.85	-94.65	5.0	ISLAND LAKE ARPT	4067
670	53.883	-122.667	5.0	PRINCE GEORGE	30854
671	53.9	-166.53	5.0	DUTCH HARBOR	2953
672	54.2	16.1833	5.0	KOSZALIN	1537
673	54.383	10.15	5.0	KEIL/HOLTENAU	15248
674	54.4667	113.5833	5.0	BAGDARIN	52127
675	54.48	-6.1	5.0	LONG KESH	48477
676	54.8	105.167	5.0	ZHIGALOVO	35584
677	55.283	-114.783	5.0	SLAVE LAKE AIRPORT	13183
678	55.767	12.533	5.0	JAEGERSBORG	40587
679	56.0	92.883	5.0	KRASNOYARSK	40900
680	56.45	138.15	5.0	AYAN	39966
681	56.483	21.017	5.0	LIEPAJA	26905
682	56.5422	3.2236	5.0	EKOFISK	15135
683	56.65	-111.217	5.0	FORT MCMURRAY ARPT	11470
684	57.58	39.58	5.0	JAROSLAVL	529
685	57.65	18.35	5.0	VISBY AEROLOGISKA STATION	28914
686	58.183	12.15	5.0	TORPABRON	288
687	59.0	-19.0	5.0	OCEAN WEATHER SHIP I	2647
688	59.933	30.317	5.0	LENINGRAD/CHOSSEYNOR	254
689	59.9428	10.7194	5.0	OSLO-BLINDERN	934
690	60.35	166.0	5.0	KORF	42069
691	60.3667	120.4167	5.0	OLEKMINSK	49772
692	60.8139	23.4975	5.0	JOKIOINEN OBSERVATORY	60413
693	61.2667	-149.65	5.0	FT. RICHARDSON/BRYANT AHP	972
694	61.267	108.2	5.0	ERBOGACEN	35974
695	61.95	160.8667	5.0	GIZIGA	28015
696	62.1	42.9	5.0	SENKURSK	255
697	62.3975	25.6708	5.0	JYVASKYLA AIRPORT	54064
698	63.7056	9.6117	5.0	ORLAND III	40241
699	64.0	-145.733	5.0	FT GREELY/ALLEN AAF	1398
700	64.2	-83.3667	5.0	CORAL HARBOUR UA	45390
701	64.683	170.417	5.0	MARKOVO	33706
702	64.917	77.817	5.0	TARKO-SALE	33211
703	65.7333	150.9	5.0	ZYRYANKA	35043
704	66.0	2.0	5.0	OCEAN WEATHER SHIP M	2031
705	66.567	-145.267	5.0	FORT YUKON	133
706	67.47	86.57	5.0	IGARKA	13709
707	68.1	-165.7667	5.0	CAPE THOMPSON	100
708	68.23	-135.0	5.0	AKLAVIK	7053
709	68.47	73.6	5.0	MYS KAMENNY	29022
710	68.5	112.4333	5.0	OLENEK	41890
711	68.65	43.3	5.0	KANIN NOS	4393
712	69.3153	16.1308	5.0	ANDOYA	3633
713	69.4	86.17	5.0	DUDINKA	5076
714	69.9333	167.9667	5.0	AJON ISLAND	9137
715	70.1333	-143.6333	5.0	BARTER ISLAND WSO AP	25677
716	70.45	-68.55	5.0	CLYDE RIVER	13851
717	70.967	-178.65	5.0	OSTROV VRANGELYA	29474
718	71.317	-156.617	5.0	SANDIA LAB. D	523
719	72.0	-125.27	5.0	SACHS HARBOUR	22298
720	73.2	143.533	5.0	MYS SHALAUROVA	27652
721	73.33	70.03	5.0	IM POPOVA	11828
722	74.5039	19.0011	5.0	BJORNOYA	46944
723	74.67	112.93	5.0	OSTROV PREOBRAZHENIA	28488
724	76.15	152.83	5.0	OSTROV ZOHOVA	20328
725	76.1833	62.5667	5.0	RUSSKAJA GAVAN	246
726	77.23	-62.33	5.0	THULE	119
727	77.5	82.23	5.0	OSTROV UEDINENIA	24206
728	78.0667	13.6333	5.0	ISFJORD RADIO	1297
729	79.5	76.98	5.0	OSTROV VIZE	26148
730	80.05	18.3	5.0	KINNVIKA STATION	259
731	81.6	-16.67	5.0	NORD	10981
732	-77.85	-39.95835	5.6	GENERAL BELGRANO,ELLSWORTH IGY	3920
733	-54.3	-68.03335	5.6	USHUAIA,RIO GRANDE AIRPORT	5210
734	-43.6315	172.285	5.6	RAKAIA,CHRISTCHURCH	44077
735	-36.658500000000004	174.75	5.6	AUCKLAND AIRPORT,MT TAMAHUNGA	37823
736	-31.24985	128.48335000000003	5.6	EUCLA,FORREST AIRPORT	66350
737	-24.906603773584905	25.81542452830189	5.9	SERETSE KHAMA INTERNATIONAL AI,MAFIKENG WO,GABORONE	7620
738	-22.52485	17.283499999999997	5.6	WINDHOEK,HOSEA KUTAKO INTL A	20028
739	-21.29185	-138.675	5.6	MURUROA,TUREIA	7178
740	-21.11275	55.5058	5.6	ST. PIERRE/FONDS,SAINT-DENIS/GILLOT (REUNION)	30468
741	-20.542	31.225	5.6	BUFFALO RANGE,MASVINGO	14717
742	-18.569113207547172	29.42616981132075	5.9	GOKWE,GWERU,KADOMA	8311
743	-18.107301886792452	26.098584905660378	5.9	LIVINGSTONE,HWANGE NATIONAL PAR,VICTORIA FALLS	16268
744	-17.725	168.3	5.6	VILA (EFATE),BAUERFIELD (EFATE)	20259
745	-17.7543478449022	31.745965120304653	6.2	MUTOKO,HARARE (BELVEDERE),RUSAPE,HARARE (KUTSAGA)	26267
746	-16.675	29.25	5.6	KAROI,KARIBA	7161
747	-14.91685	28.400149999999996	5.6	LUSAKA CITY AIRPORT,KABWE	21613
748	-14.641499999999999	50.25	5.6	ANTALAHA,SAMBAVA	7417
749	-14.083350000000001	-171.28315	5.6	LEONE BAY AMERICAN S,APIA	10855
750	-12.4585	44.85815	5.6	DZAOUDZI/PAMANZI,OUANI (ANJOUAN)	18388
751	-11.6665	33.81699999999999	5.6	MZIMBA,MZUZU	8106
752	-9.4415	33.675	5.6	KARONGA,MBEYA	3362
753	-8.526415094339622	126.21958490566038	5.9	BAU CAU,DILLI/DILLI AIRPORT,KOMORO	14115
754	-7.613537735849056	110.8688679245283	5.9	SURAKARTA/ADISUMARM,ADISUCIPTO/JOGYAKAR,MADIUN/ISWAHYUD AFB	10057
755	-6.849283018867924	107.79881132075472	5.9	KALIJATI,CIBEUREM/TASIK(AFB),BANDUNG/HUSEIN	4143
756	-4.983	38.675	5.6	TANGA,MOMBO	889
757	-4.897003773584906	-80.89858490566037	5.9	TALARA,PIURA,PIURA GRUP7	3259
758	-4.375	15.3415	5.6	KINSHASA/NDJILI,KINSHASA/BINZA	1037
759	-3.625	39.8585	5.6	MOMBASA,MALINDI	5442
760	-3.7581499999999997	-73.275	5.6	IQUITOS,MORONA	1396
761	-0.217	30.375	5.6	MBARARA,KASESE	533
762	3.1085000000000003	101.6	5.6	PETALING JAYA,KUALA LUMPUR SUBANG	34224
763	3.9915	-54.225	5.6	MARIPASOULA,STOELMANSEILAND	1482
764	4.3526	-52.08265	5.6	SAINT GEORGES,CAYENNE MATOURY	30189
765	5.475	-54.616499999999995	5.6	ZANDERIJ,SAINT-LAURENT	5590
766	6.541499999999999	3.3581499999999997	5.6	LAGOS/OSHODI,LAGOS/IKEJA	4663
767	8.1833	80.125	5.6	PUTTALAM,ANURADHAPURA	6988
768	9.4335	6.766499999999999	5.6	ABUJA,MINNA	1412
769	10.425	-67.31649999999999	5.6	MARACAY - B.A. SUCRE,CARACAS/MAIQUETIA A	6132
770	10.355679245283017	-71.49975471698114	5.9	MARACAIBO-LA CHINIT,MENE GRANDE,LA CANADA	2267
771	10.807311320754717	106.94964716981131	5.9	BIEN HOA (VVBH),BARIA (PHUOC LE),AN LOC	1812
772	13.633500000000002	-89.475	5.6	ACAJUTLA,SAN SALVADOR/ILOPAN	874
773	14.175	-60.989999999999995	5.6	VIEUX FORT,LAMENTIN AERO	10049
774	14.22515	-90.69185	5.6	SAN JOSE,GUATEMALA CITY	6840
775	13.983350000000002	108.33335	5.6	AN KHE (VVAK),PLEIKU AB	922
776	14.001273584905661	-87.40535283018868	5.9	SOTO CANO AB,CHOLUTECA,TEGUCIGALPA	6558
777	14.284905660377358	100.59930188679247	5.9	LOP BURI,BANGKOK METROPOLIS,DON MUANG	60090
778	15.0585	120.325	5.6	SUBIC BAY WEATHER,CROW VALLEY GUNNERY	4499
779	15.45	44.1915	5.6	SANAA,SANA'A (CIV/MIL)	2841
780	16.9835	104.7165	5.6	SAVANNAKHET,NAKHON PHANOM	3036
781	16.68459811320755	107.26820566037736	5.9	DONG HA,HUE/PHU BAI,QUANG TRI	2118
782	17.66345	102.68820000000001	5.6	UDON THANI,VIENTIANE	50356
783	21.37485	-157.91685	5.6	BARBERS POINT NAS,KANEOHE BAY (MCAF)	1761
784	22.85	69.94149999999999	5.6	JAMNAGAR,BHUJ-RUDRAMATA	13334
785	24.0835	114.60815	5.6	HEYUAN,LIANPING	23767
786	24.3665	118.258	5.6	CHIANGYANG,CHINMEM/SHATOU(AFB)	10508
787	25.158350000000002	-76.88335	5.6	NASSAU AIRPORT NEW PROVIDENCE,ELEUTHERA ISLAND	20754
788	24.771837735849058	121.40488301886792	5.9	TAOYUAN AB,HUA-LIEN CITY,TAIBEI	65253
789	25.833499999999997	119.8665	5.6	PINGTAN,MAZU (=588490)	7243
790	26.458499999999997	127.73299999999999	5.6	NAHA,IEJIMA AUXILIARY AB	47138
791	26.6	88.54169999999999	5.6	JALPAIGURI,SILIGURI	21141
792	27.341499999999996	85.1085	5.6	RAXAUL,KATHMANDU AIRPORT	1791
793	27.8	-80.94985	5.6	AVON PARK GUNNERY R,VALKARIA	11949
794	28.058349999999997	98.63315	5.6	LA WANG/TZUKEI,DEQEN	7026
795	28.391499999999997	108.5085	5.6	SINAN,YOUYANG	3313
796	29.541500000000003	101.7335	5.6	JIULONG,KANGDING	5153
797	29.85	-89.49165	5.6	BOOTHVILLE WSCMO CIT,NASA MISS. TEST	26957
798	29.858500000000003	35.3665	5.6	EILAT,MAAN	6787
799	30.357999999999997	-9.492	5.6	AGADIR AL MASSIRA,AGADIR INEZGANNE	17056
800	30.5	-86.5	5.6	HURLBURT FIELD (AF),EGLIN AFB RANGE NO.	777
801	30.32695849056603	-95.96547169811322	5.9	HOUSTON/INTERCONTIN,BRYAN,COLLEGE STATION (BRYAN AFB)	4447
802	31.108000000000004	-92.833	5.6	FORT POLK (ARMY),CLAIBORNE RNG (AFS)	4525
803	31.641999999999996	107.7665	5.6	DA XIAN,WANYUAN	27139
804	31.956499999999995	-84.4765	5.6	ALBANY,FORT BENNING	4448
805	31.87485	-110.60815	5.6	FORT HUACHUCA,TUCSON (DAVIS-MONTHAN AFB)	9487
806	31.937264150943395	10.384433962264152	5.9	NALUT,EL BORMA,REMADA	13503
807	32.308	-4.5665	5.6	ERRACHIDIA,MIDELT	9564
808	32.26649999999999	35.9165	5.6	AMMAN AIRPORT,IRBED	2006
809	32.55	114.05	5.6	XINYANG,ZHUMADIAN	14510
810	32.78315	12.62485	5.6	TRIPOLI INTL ARPT,ZUARA	21005
811	33.033500000000004	130.1085	5.6	NAGASAKI AIRPORT,SAGA AIRPORT	1005
812	33.1915	-112.325	5.6	GILA BEND (AAF),WFO PHOENIX	24108
813	33.26345	126.2064	5.6	MOESULPO AB,GOSAN	38973
814	33.617000000000004	36.0	5.6	DAMASCUS INT. AIRPO,RAFIC HARIRI INTL	22184
815	33.60815	0.35835	5.6	MECHERIA,EL-BAYADH	17895
816	33.28939622641509	-106.55662830188682	5.9	STALLION SITE,FRYE SITE,WHITE SANDS MISSILE	2304
817	34.291999999999994	10.725	5.6	DJERBA MELLITA,SFAX EL-MAOU	58346
818	34.315	-98.88335	5.6	WICHITA FALLS,ALTUS AFB (OKLA)	2788
819	34.066500000000005	134.6165	5.6	KOMATSUSHIMA AB,TOKUSHIMA AB	5729
820	34.1	131.635	5.6	OZUKI AB,IWAKUNI	3037
821	34.7	-3.925	5.6	TAZA,AL HOCEIMA	6481
822	34.632999999999996	32.9	5.6	AKROTIRI,EPISKOPI	21901
823	34.796777358490566	137.3104716981132	5.9	YOKKAICHI,OMAEZAKI,HAMAMATSU AB	46373
824	35.325	36.258500000000005	5.6	HAMA,LATTAKIA	1199
825	35.9415	-5.625	5.6	TANGER (AERODROME),GIBRALTAR	52989
826	36.3	10.9165	5.6	MONASTIR-SKANES,KELIBIA	41042
827	36.6154	114.37944999999999	5.6	ANYANG,XINGTAI	33494
828	36.433	117.56649999999999	5.6	YIYUAN,JINAN	39492
829	36.0271320754717	1.7929245283018869	5.9	MILIANA,TIARET,CHLEF	18481
830	36.966499999999996	67.2335	5.6	MAZAR-I-SHARIF,TERMEZ	22278
831	36.461301886792455	5.5247735849056605	5.9	BEJAIA-AEROPORT,SETIF,CONSTANTINE	39232
832	36.7641320754717	7.6441132075471705	5.9	SKIKDA,JENDOUBA,ANNABA	50535
833	37.091499999999996	9.2835	5.6	TABARKA,BIZERTE	12146
834	38.077999999999996	-81.3585	5.6	BECKLEY,YEAGER	1733
835	38.05	91.25	5.6	MANGYA,MANGNAI	16222
836	38.96	-97.5372641509434	5.9	FT RILEY/MARSHALL A,SALINA,RUSSELL	5057
837	39.55	118.50835	5.6	LETING,TANG SHAN	20829
838	39.475	-75.4167	5.6	ATLANTIC CITY U-A,ABERDEEN PRVGR	15593
839	40.366499999999995	78.5085	5.6	BACHU,AKQI	14711
840	39.56899056603774	110.22985849056604	5.9	DONGSHENG,CHASAKOCHI,HEQU	35798
841	40.67	-103.13499999999999	5.6	AKRON,SYDNEY	891
842	40.716499999999996	-8.55	5.6	COIMBRA,PORTO/PEDRAS RUBRAS	2073
843	40.3835	70.3415	5.6	KHUDJAND,KOKAND	7798
844	41.25	104.23335	5.6	BAYAN MOD,PANG-TING-TO-TO-KAI	21531
845	41.3335	-5.175	5.6	SALAMANCA/MATACAN,VALLADOLID/VILLANUB	379
846	41.21	106.77649999999998	5.6	XAMBA,HAILS	5832
847	41.425	123.23335	5.6	AN SHAN,SHENYANG	45721
848	42.03632075471699	42.548811320754716	5.9	SAKARA,BATUMI,KUTAISI	8125
849	42.1801962264151	-1.7669509433962267	5.9	LOGRONO/AGONCILLO,ZARAGOZA/BASE AEREA,BARDENAS REALES	24946
850	42.48945660377358	-92.23224150943396	5.9	WAVERLY,CEDAR RAPIDS ECHO SI,WATERLOO	2858
851	43.475	89.3835	5.6	TURPAN,QITAI	20816
852	43.316500000000005	1.2335	5.6	SAINT GIRONS,TOULOUSE BLAGNAC	2095
853	43.67515	145.72514999999999	5.6	NEMURO,JUZHNO-KURILSK	95036
854	43.533500000000004	6.975	5.6	SAINT-RAPHAEL,NICE	667
855	44.033500000000004	24.375	5.6	TR. MAGURELE,CRAIOVA	766
856	43.736320754716985	-0.9226415094339623	5.9	MONT-DE-MARSAN,BIARRITZ,DAX	1549
857	45.154700000000005	4.9054	5.6	MONTELIMAR,LYON-ST EXUPERY	35561
858	44.16484905660377	118.19883018867925	5.9	XI UJIMQIN QI,LINXI,LINDONG	16394
859	44.864850000000004	34.3661	5.6	SIMFEROPOL,KRYMSKA	44073
860	45.1835	-83.18350000000001	5.6	ALPENA/PHELPS COLLI,ENVIRONM BUOY 45003	685
861	44.802358490566036	28.79175471698113	5.9	CONSTANTA,SULINA,GALATI	35139
862	45.641999999999996	-73.583	5.6	MONTREAL/TRUDEAU INT,LASSOMPTION CDA	17931
863	45.766999999999996	0.433	5.6	COGNAC,LIMOGES	546
864	46.0318	12.89125	5.6	AVIANO,UDINE/CAMPOFORMIDO	59580
865	46.525	151.18335000000002	5.6	URUP,SIMUSIR	34152
866	46.36	121.705	5.6	ULANHOT,TE-PO-SU-K/-MIAO	13962
867	46.875	27.308	5.6	BACAU,IASI	2600
868	46.9585	2.04185	5.6	CHATEAUROUX,BOURGES	8557
869	47.13005	16.036099999999998	5.6	GRAZ-THALERHOF-FLUGHAFEN,SZOMBATHELY	10881
870	47.99985	26.075	5.6	SUCEAVA,CHERNIVTSI	44653
871	48.0415	9.075	5.6	NEUHAUSEN OB ECK,SIGMARINGEN	21411
872	49.6665	4.716500000000001	5.6	REIMS,ST-HUBERT	26536
873	49.5415	11.5585	5.6	FEUCHT(USA-AF),GRAFENWOEHR	4679
874	49.8	6.935	5.6	BAUMHOLDER (USA-AF),BITBURG	5102
875	50.0869	-119.34164999999999	5.6	KELOWNA UA,VERNON AUTO	32630
876	50.608000000000004	2.2415	5.6	ABBEVILLE,KOKSIJDE	427
877	50.3165	-104.68350000000001	5.6	BRATT'S LAKE UA,REGINA INTL	6506
878	51.29984999999999	6.700149999999999	5.6	KOLN/BONN,KALKAR	4811
879	51.33	12.868349999999998	5.6	WAHNSDORF,OPPIN	43865
880	51.65	-106.65	5.6	ELBOW CS,SASKATOON DIEFENBAKE	2474
881	52.7085	4.675	5.6	VALKENBURG,VLIELAND	7386
882	52.8282	7.329949999999999	5.6	NORDHORN,EMDEN-FLUGPLATZ	51741
883	53.492000000000004	-113.525	5.6	EDMONTON INTL ARPT,EDMONTON NAMAO ARPT	10372
884	54.85850000000001	-1.5665	5.6	LEEMING,BOULMER	13904
885	54.5835	-110.1665	5.6	COLD LAKE,PRIMROSE LAKE	6241
886	55.875	-3.0335	5.6	ESKDALEMUIR,SHANWELL	35294
887	56.69665	9.490450000000001	5.6	FLYVESTATION KARUP,FLYVESTATION AALBOR	10499
888	57.425	-2.8920000000000003	5.6	ABERDEEN/DYCE AIRPO,KINLOSS	1188
889	62.81665	148.94665	5.6	SUSUMAN,SHTURMOVOY	15468
890	-13.648249999999997	34.32075000000001	6.2	LILONGWE INTL AIRPO,LILONGWE,SALIMA,LICHINGA	19348
891	0.52075	34.80425	6.2	KISUMU,ELDORET,TORORO,KITALE	20604
892	-0.32320505223764223	36.72066139092468	7.1	MERU,EMBU,NYERI,NAROK,KERICHO,NAKURU,NANUYKI	21134
893	10.362675000000001	-63.77074999999999	6.2	MATURIN,CARUPANO,BARCELONA,PORLAMAR	3541
894	31.526500000000006	34.533775	6.2	EL ARISH,BEER-SHEVA,ASHDOD NORTH,BEER-YA AQOV TO 401790	19732
895	35.262750000000004	8.92925	6.2	GAFSA,TEBESSA,THALA,KAIROUAN	60402
896	35.61575	139.64675	6.2	TATEYAMA AB,YOKOSUKA,SHIMOFUSA AB,MAEBASHI	7589
897	35.53375	128.771	6.2	SACHEON AB,GIMHAE INTL AIRPORT,DAEGU AB,POHANG AB	20565
898	38.5	-104.401	6.2	LA JUNTA,PUEBLO MEMORIAL(AW),FORT CARSON/BUTTS,AIR FORCE ACADEMY	11604
899	40.71675	46.746	6.2	KHANKANDY,EVLAKH AIRPORT,GANDJA,ZAKATALA	2063
900	45.193809375	22.005845089285717	6.5	DROBETA TURNU SEVER,BEOGRAD/SELENO BRD,TIMISOARA,DEVA,ARAD	18646
901	45.84160593220339	25.13810169491525	6.8	FAGARAS,TG. MURES,BUZAU,PREDEAL,BRASOV-GHIMBAV,SIBIU	4289
902	47.298700000000004	22.9636	6.2	CLUJ-NAPOCA,BAIA MARE,ORADEA,SATU MARE	41638
903	47.955074999999994	4.969924999999999	6.2	DIJON,AUXERRE,CHAUMONT,NANCY/ESSEY	37509
904	50.266000000000005	9.27425	6.2	KITZINGEN AAF,LANGEN,HANAU,FRITZLAR/KASSELER	23117
905	49.846525	-98.07087499999999	6.2	SHILO,PORTAGE SOUTHPORT,WINNIPEG UA,WINNIPEG INT.AIRPOR	23711
906	51.85617499999999	0.8142249999999999	6.2	CRAWLEY,SHOEBURYNESS,WATTISHAM,HEMSBY	98999
907	52.091674999999995	-2.9	6.2	CARDIFF-WALES ARPT,BRIZE NORTON,CAPEL DEWI,SHAWBURY	9018
908	23.0000375	120.4999625	7.4	467590,DONGGANG (=595530),PINGTUNG SOUTH(AFB),LU-TAO,TAINAN (TW-AFB),CHIAYI (TW-AFB),MAKUNG AB (=593450),TAICHUNG (TW-AFB)	81187
909	35.98123840665836	-116.43449535859389	7.699999999999999	BAKER,CUDDLEBACK GUNNERY,BICYCLE LAKE (AAF),SUPERIOR VALLEY GUN,MERCURY DESERT ROCK AP,JACKASS FLATS,YUCCA FLATS TEST 21,SHOSHONE,INDIAN SPRINGS GUNN	50346
910	37.3863250068294	127.82243067172062	8.3	SV RI SAN,SEOUL AB,GANGNEUNG AB,CHUNCHEON,SOKCHO,SANGDONG,WONJU AB,YECHEON AB,CHEONGJU,CHEONGJU INTL AIRPO,SEOSAN	43651
