	latitude	longitude	radius	station	records
0	-80.017	-119.533	5.0	BYRD STN	7679
1	-79.25	-147.5	5.0	LITTLE ROCKFORD	309
2	-78.45	106.867	5.0	VOSTOK	7319
3	-78.4	87.583	5.0	SOVIETSKAVA	273
4	-78.2	-162.25	5.0	LITTLE AMERICA	1612
5	-77.9667	-38.8	5.0	GENERAL BELGRANO	1782
6	-77.7333	-41.1167	5.0	ELLSWORTH IGY	2138
7	-76.2667	-147.5	5.0	LITTLE ROCKFORD	389
8	-72.3	170.2167	5.0	ADARE HALLETT	4373
9	-70.4333	24.3167	5.0	BASE ROI BAUDOUIN	1097
10	-70.317	-2.367	5.0	SANAE	9815
11	-69.73	95.05	5.0	PIONERSKAVA	121
12	-69.5	159.4	5.0	LENINGRADSKAJA	2575
13	-67.667	45.85	5.0	MOLODEZNAJA	13014
14	-66.27	100.73	5.0	BUNGER OASIS	548
15	-65.25	-64.2667	5.0	FARADAY	10141
16	-63.4667	-56.2833	5.0	PETREL NAS	1654
17	-62.183	-58.883	5.0	BELLINGSHAUSEN AWS	6342
18	-60.75	-44.7167	5.0	ISLAS ORCADAS (MET)	8699
19	-59.45	-27.267	5.0	CORBETA URUGUAY DN	275
20	-54.8	-68.3167	5.0	USHUAIA	1943
21	-53.8	-67.75	5.0	RIO GRANDE AIRPORT	3267
22	-52.55	169.15	5.0	CAMPBELL ISLAND	18775
23	-51.6333	-69.2167	5.0	RIO GALLEGOS B. A.	4526
24	-49.3522	70.2433	5.0	PORT-AUX-FRANCAIS	15904
25	-43.95	-176.5667	5.0	CHATHAM ISL/TUUTA	16837
26	-43.78	172.02	5.0	RAKAIA	12147
27	-43.483	172.55	5.0	CHRISTCHURCH	31930
28	-43.2333	-65.3	5.0	ALMIRANTE ZAR	1150
29	-42.7167	170.9833	5.0	HOKITIKA AERODROME	26036
30	-42.417	173.7	5.0	KAIKOURA	5055
31	-41.3	174.63	5.0	OUTLOOK HILL	11385
32	-39.467	175.683	5.0	WAIOURU	2309
33	-39.0167	174.1833	5.0	NEW PLYMOUTH AERO	31454
34	-38.7333	-62.1667	5.0	COMANDANTE ESPORA	13733
35	-38.6667	177.9833	5.0	GISBORNE AERODROME	28600
36	-38.1	147.1333	5.0	EAST SALE (AUS-AFB)	45308
37	-37.7953	77.5692	5.0	MARTIN DE VIVIES	16637
38	-37.017	174.8	5.0	AUCKLAND AIRPORT	23125
39	-36.3	174.7	5.0	MT TAMAHUNGA	14698
40	-35.367	-57.283	5.0	PUNTA INDIO B.A.	151
41	-35.1	173.267	5.0	KAITAIA	14537
42	-34.58	-58.48	5.0	BUENOS AIRES	107
43	-34.2358	142.0867	5.0	MILDURA AIRPORT	75371
44	-34.017	22.383	5.0	GEORGE AIRPORT	4491
45	-33.033	27.833	5.0	EAST LONDON	3098
46	-32.8833	-68.85	5.0	OBSERV MENDOZA	3075
47	-32.78	-71.51	5.0	QUINTERO (MIL)	28938
48	-31.6667	128.8667	5.0	EUCLA	12086
49	-31.35	-54.117	5.0	BAGE (AEROPORTO)	1012
50	-30.833	128.1	5.0	FORREST AIRPORT	54264
51	-30.3108	153.1186	5.0	COFFS HARBOUR MO	67021
52	-30.01	131.583	5.0	MARALINGA	7453
53	-29.2447	-177.9289	5.0	RAOUL ISLAND	25267
54	-28.8	24.767	5.0	KIMBERLEY	9829
55	-28.567	16.533	5.0	KORTDOORN/ALEXANDER	11144
56	-28.25	28.3333	5.0	BETHLEHEM AIRPORT	11390
57	-27.4667	-58.9833	5.0	RESISTENCIA	1200
58	-26.5333	18.1167	5.0	KEETMANSHOOP	6019
59	-26.05	22.45	5.0	TSABONG	836
60	-25.783	25.533	5.0	MAFIKENG WO	1154
61	-25.733	28.183	5.0	PRETORIA-EENDRACHT	3937
62	-25.55	45.533	5.0	FAUX-CAP	549
63	-25.2333	-57.5167	5.0	AEROPUERTO SILVIO PETTIROSSI	5464
64	-25.0333	46.95	5.0	TAOLAGNARO	29889
65	-24.8878	113.67	5.0	CARNARVON AIRPORT	71908
66	-24.85	-65.4833	5.0	SALTA AERO	19838
67	-23.867	35.383	5.0	INHAMBANE	4808
68	-23.8667	29.45	5.0	PIETERSBURG (SAAF)	13740
69	-23.85	151.25	5.0	GLADSTONE	46725
70	-23.617	-46.65	5.0	SAO PAULO	16840
71	-23.4372	144.2769	5.0	LONGREACH AERO	47067
72	-23.383	43.733	5.0	TOLIARA	5308
73	-23.35	-149.4833	5.0	TUBUAI ISLAND	19527
74	-22.9833	14.65	5.0	WALVIS BAY AIRPORT	1174
75	-22.8	47.833	5.0	FARAFANGANA	2385
76	-22.55	45.4	5.0	RANOHIRA	1639
77	-22.333	40.333	5.0	ILE EUROPA	7597
78	-22.2761	166.4528	5.0	NOUMEA (NLLE-CALEDONIE)	41494
79	-22.217	30.0	5.0	BEITBRIDGE	3367
80	-22.0167	-60.6167	5.0	MARISCAL ESTIGARRIBIA	708
81	-21.817	-138.8	5.0	MURUROA	6907
82	-21.75	43.367	5.0	MOROMBE	1328
83	-21.6333	115.1167	5.0	ONSLOW	25950
84	-21.45	47.1	5.0	FIANARANTSOA	1453
85	-21.417	25.6	5.0	LETLHAKANE	693
86	-21.333	55.483	5.0	ST. PIERRE/FONDS	5723
87	-21.233	-175.15	5.0	FUAAMOTU	5436
88	-21.217	27.5	5.0	FRANCISTOWN	613
89	-21.2	-159.8167	5.0	RAROTONGA	23629
90	-21.2	48.367	5.0	MANANJARY	4840
91	-21.1172	149.2169	5.0	MACKAY M.O	66046
92	-21.017	31.583	5.0	BUFFALO RANGE	6492
93	-20.8925	55.5286	5.0	SAINT-DENIS/GILLOT (REUNION)	24745
94	-20.767	167.233	5.0	OUANAHAM	7206
95	-20.7667	-138.55	5.0	TUREIA	271
96	-20.567	164.283	5.0	KOUMAC	11482
97	-20.5	-29.3167	5.0	TRINDADE (ILHA)	9829
98	-20.283	44.317	5.0	MORONDAVA	3268
99	-20.233	169.767	5.0	ANEITYUM	125
100	-20.15	28.617	5.0	BULAWAYO	14661
101	-20.067	30.867	5.0	MASVINGO	8225
102	-19.9833	23.4167	5.0	MAUN	1796
103	-19.9061	-144.9494	5.0	HEREHERETUE	7607
104	-19.833	48.8	5.0	MAHANORO	1069
105	-19.783	-47.967	5.0	UBERABA	134
106	-19.683	63.417	5.0	RODRIGUES	10891
107	-19.6422	134.1833	5.0	TENNANT CREEK AIRPORT	46728
108	-19.6	18.117	5.0	GROOTFONTEIN	4094
109	-19.45	29.85	5.0	GWERU	5186
110	-19.28	121.5	5.0	TALGARNO	297
111	-18.9	47.5333	5.0	TANANARIVE/SCM	4211
112	-18.633	26.85	5.0	HWANGE NATIONAL PAR	2189
113	-18.533	32.15	5.0	RUSAPE	2604
114	-18.317	29.883	5.0	KADOMA	1432
115	-18.3167	-59.7667	5.0	ROBORE	144
116	-18.2292	127.6636	5.0	HALLS CREEK AIRPORT	52731
117	-18.217	28.933	5.0	GOKWE	1693
118	-18.067	-140.95	5.0	HAO	18186
119	-17.883	36.883	5.0	QUELIMANE	2266
120	-17.7333	-39.25	5.0	CARAVELAS	5524
121	-17.7333	139.5333	5.0	BURKETOWN	145
122	-17.6833	141.0667	5.0	NORMANTON AIRPORT	229
123	-17.5553	-149.6145	5.0	TAHITI-FAAA	40183
124	-17.417	32.217	5.0	MUTOKO	4155
125	-17.3167	123.6333	5.0	DERBY	7081
126	-17.083	49.817	5.0	SAINTE-MARIE AERODR	681
127	-17.05	42.717	5.0	ILE JUAN DE NOVA	5730
128	-16.833	29.617	5.0	KAROI	4958
129	-16.517	28.883	5.0	KARIBA	2203
130	-16.45	-151.75	5.0	BORA-BORA	11160
131	-16.45	59.617	5.0	ST. BRANDON	5725
132	-16.333	-71.567	5.0	AREQUIPA	3138
133	-16.183	33.583	5.0	TETE	2074
134	-15.8878	54.5206	5.0	SERGE-FROLOW (ILE TROMELIN)	20680
135	-15.683	34.967	5.0	CHILEKA	10079
136	-15.6667	46.35	5.0	MAHAJANGA	36011
137	-15.6	-56.1	5.0	CUIABA	443
138	-15.517	167.217	5.0	PEKOA AIRPORT	661
139	-15.417	28.317	5.0	LUSAKA CITY AIRPORT	9588
140	-15.25	23.15	5.0	MONGU	5748
141	-15.2167	12.1667	5.0	MOCAMEDES	1595
142	-15.1	39.283	5.0	NAMPULA	4237
143	-15.03	40.67	5.0	LUMBO	2531
144	-15.0	50.333	5.0	ANTALAHA	4654
145	-14.95	-147.659	5.0	RANGIROA	5720
146	-14.95	-40.883	5.0	VITORIA DA CONQUIST	123
147	-14.933	13.567	5.0	LUBANGO	236
148	-14.633	47.767	5.0	ANALALAVA	1607
149	-14.4833	-145.0333	5.0	TAKAROA ATOLL	17249
150	-14.4167	28.4833	5.0	KABWE	12025
151	-14.3667	-170.7833	5.0	LEONE BAY AMERICAN S	359
152	-14.283	50.167	5.0	SAMBAVA	2763
153	-13.8	-171.783	5.0	APIA	10496
154	-13.75	34.583	5.0	SALIMA	2342
155	-13.733	-76.217	5.0	PISCO	1501
156	-13.367	50.0	5.0	VOHEMAR	807
157	-13.317	48.317	5.0	FASCENE (NOSSI-BE)	786
158	-13.3	35.233	5.0	LICHINGA	1908
159	-13.2667	-43.4167	5.0	BOM JESUS DA LAPA	6605
160	-13.0167	-38.5167	5.0	SALVADOR	7952
161	-13.0	28.65	5.0	NDOLA	2372
162	-12.983	40.533	5.0	PEMBA	3898
163	-12.8	15.75	5.0	HUAMBO	301
164	-12.8	45.2833	5.0	DZAOUDZI/PAMANZI	15117
165	-12.5	177.05	5.0	ROTUMA	6835
166	-12.37	13.53	5.0	LOBITO	100
167	-12.35	49.3	5.0	ANTSIRANANA	8157
168	-12.15	-77.0	5.0	LAS PALMAS	389
169	-12.15	-45.0	5.0	BARREIRAS	1194
170	-12.117	44.433	5.0	OUANI (ANJOUAN)	3271
171	-11.883	33.617	5.0	MZIMBA	4451
172	-11.783	19.917	5.0	LUENA (LUSO)	1995
173	-11.75	24.4333	5.0	MWINLUNGA	2872
174	-11.7	43.233	5.0	MORONI AIRPORT	5231
175	-11.583	47.283	5.0	ILES GLORIEUSES	7379
176	-11.45	34.017	5.0	MZUZU	3655
177	-11.3	-41.867	5.0	IRECE	347
178	-11.0333	-68.7833	5.0	COBIJA	222
179	-10.917	-37.05	5.0	ARACAJU	417
180	-10.7	-48.4	5.0	PORTO NACIONAL	1005
181	-10.7	152.833	5.0	MISIMA ISLAND	2055
182	-10.7	165.8	5.0	SANTA CRUZ ISLAND	151
183	-10.583	142.217	5.0	THURSDAY IL/HORN IL	21187
184	-10.45	105.7	5.0	CHRISTMAS ISL (PVT)	3447
185	-10.433	56.75	5.0	AGALEGA	2514
186	-10.217	31.133	5.0	KASAMA	3135
187	-9.95	33.883	5.0	KARONGA	2595
188	-9.517	-35.783	5.0	MACEIO (AEROPORTO)	133
189	-9.4167	159.9667	5.0	HONIARA	24636
190	-9.3833	-40.4833	5.0	PETROLINA	9393
191	-9.35	46.533	5.0	ALDABRA	143
192	-9.333	-54.967	5.0	CACHIMBO AERO	2176
193	-9.2	124.367	5.0	OE-CUSSIE	498
194	-9.1	-44.117	5.0	BOM JESUS	376
195	-9.0	-158.05	5.0	PENRHYN	8316
196	-8.933	33.467	5.0	MBEYA	767
197	-8.55	125.55	5.0	DILLI/DILLI AIRPORT	7176
198	-8.367	-74.567	5.0	PUCALLPA	328
199	-8.05	-34.9167	5.0	RECIFE	14978
200	-7.967	112.7	5.0	MALANG/ABDUL (AFB)	586
201	-7.783	110.433	5.0	ADISUCIPTO/JOGYAKAR	3047
202	-7.633	35.767	5.0	IRINGA	677
203	-7.617	111.517	5.0	MADIUN/ISWAHYUD AFB	3443
204	-7.5167	110.75	5.0	SURAKARTA/ADISUMARM	3567
205	-7.4	20.817	5.0	DUNDO	6240
206	-7.3333	-47.4667	5.0	CAROLINA	5666
207	-7.333	108.25	5.0	CIBEUREM/TASIK(AFB)	625
208	-7.317	-39.3	5.0	BARBALHA	334
209	-7.3	72.4	5.0	DIEGO GARCIA	16326
210	-7.017	-37.267	5.0	PATOS	137
211	-6.9	107.583	5.0	BANDUNG/HUSEIN	2478
212	-6.8667	39.2	5.0	DAR ES SALAAM INT	10437
213	-6.833	37.65	5.0	MOROGORO	142
214	-6.783	-79.817	5.0	CHICLAYO	1504
215	-6.7667	-43.0167	5.0	FLORIANO	7626
216	-6.55	107.667	5.0	KALIJATI	1040
217	-6.267	-57.733	5.0	JACAREACANGA	287
218	-6.167	35.767	5.0	DODOMA	1096
219	-5.5	-45.267	5.0	BARRA DO CORDA	161
220	-5.217	145.783	5.0	MADANG	18232
221	-5.2	-39.3	5.0	QUIXERAMOBIM	334
222	-5.083	32.833	5.0	TABORA AIRPORT	1062
223	-5.083	39.067	5.0	TANGA	776
224	-5.05	-42.817	5.0	TERESINA	313
225	-4.883	29.667	5.0	KIGOMA	112
226	-4.883	38.283	5.0	MOMBO	113
227	-4.567	-81.233	5.0	TALARA	1823
228	-4.45	105.183	5.0	MENGGALA/ASTRA KSET	181
229	-4.217	152.183	5.0	RABAUL	27818
230	-4.1	122.433	5.0	KENDARI/WOLTER MONG	1064
231	-4.05	-154.9833	5.0	MALDEN ISLAND AF	274
232	-4.033	39.617	5.0	MOMBASA	3673
233	-3.7667	-38.6	5.0	FORTALEZA	9728
234	-3.417	37.067	5.0	KILIMANJARO AIRPORT	696
235	-3.4	38.567	5.0	VOI	4508
236	-3.2944	-60.6283	5.0	MANACAPURU	2770
237	-3.217	40.1	5.0	MALINDI	1769
238	-3.083	-41.783	5.0	PARNAIBA	665
239	-2.533	14.767	5.0	DJAMBALA	1376
240	-2.467	32.917	5.0	MWANZA	383
241	-2.283	37.833	5.0	MAKINDU	5723
242	-2.1581	-79.8839	5.0	GUAYAQUIL AEROPUERTO	5607
243	-2.05	147.4167	5.0	MOMOTE W.O.	23951
244	-1.333	31.817	5.0	BUKOBA	1433
245	-1.133	35.833	5.0	NAROK	4802
246	-0.9	-89.6	5.0	SAN CRISTOBAL RADIOSONDA	3825
247	-0.7	8.75	5.0	PORT-GENTIL	10586
248	-0.617	30.65	5.0	MBARARA	114
249	-0.5167	166.9167	5.0	NAURU ARC-2	6251
250	-0.5	37.45	5.0	EMBU	862
251	-0.467	39.633	5.0	GARISSA	7179
252	-0.433	36.967	5.0	NYERI	426
253	-0.367	35.267	5.0	KERICHO	1787
254	-0.267	36.1	5.0	NAKURU	7184
255	-0.1	34.75	5.0	KISUMU	9077
256	0.033	37.033	5.0	NANUYKI	3435
257	0.05	32.45	5.0	ENTEBBE AIRPORT	6316
258	0.083	37.65	5.0	MERU	2638
259	0.183	30.1	5.0	KASESE	419
260	0.383	6.717	5.0	S. TOME	5381
261	0.483	35.3	5.0	ELDORET	1687
262	0.683	34.167	5.0	TORORO	264
263	1.017	35.0	5.0	KITALE	9576
264	1.083	154.767	5.0	KAPINGAMARANGI ATOL	487
265	1.617	18.067	5.0	IMPFONDO	986
266	1.683	31.717	5.0	MASINDI	632
267	1.717	33.617	5.0	SOROTI	112
268	1.75	40.067	5.0	WAJIR	3181
269	1.85	-78.767	5.0	TUMACO	344
270	2.0	-157.4	5.0	CHRISTMAS ISLAND	29424
271	2.033	-56.117	5.0	SIPALIWINI	331
272	2.083	11.483	5.0	BITAM	483
273	2.333	37.983	5.0	MARSABIT	1160
274	3.117	35.617	5.0	LODWAR	8644
275	3.367	-57.333	5.0	COEROENI	254
276	3.533	39.05	5.0	MOYALE	3218
277	3.55	-76.3833	5.0	CALI/ALFONSO BONILLA ARAGON	1230
278	3.633	-54.033	5.0	MARIPASOULA	1329
279	3.783	-56.15	5.0	TAFELBERG	228
280	3.833	11.517	5.0	YAOUNDE	7131
281	3.85	-159.367	5.0	FANNING ISLAND	103
282	3.883	-51.8	5.0	SAINT GEORGES	2681
283	3.933	41.867	5.0	MANDERA	3516
284	4.1917	73.5292	5.0	MALE	4090
285	4.2167	100.7	5.0	SITIAWAN	52733
286	4.25	15.8	5.0	BERBERATI	2543
287	4.317	21.183	5.0	MOBAYE	150
288	4.35	-54.417	5.0	STOELMANSEILAND	153
289	4.4	18.5167	5.0	BANGUI	34559
290	4.467	14.367	5.0	BATOURI	4064
291	4.55	-70.917	5.0	LAS GAVIOTAS	3770
292	4.6	-61.1167	5.0	SANTA ELENA DE UAIREN	813
293	4.733	22.833	5.0	BANGASSOU	2199
294	4.8222	-52.3653	5.0	CAYENNE MATOURY	27508
295	4.883	-1.767	5.0	TAKORADI	135
296	5.3333	163.0167	5.0	KUSAIE/CAROLINES	1652
297	5.45	-55.2	5.0	ZANDERIJ	2383
298	5.467	100.383	5.0	BUTTERWORTH AB	24729
299	5.5	-54.033	5.0	SAINT-LAURENT	3207
300	5.55	12.367	5.0	YOKO	1316
301	5.6	-0.1667	5.0	ACCRA/KOTOKA INTL	3276
302	5.65	10.75	5.0	KOUNDJA	5780
303	5.8833	-162.05	5.0	PALMYRA ISLAND	631
304	5.9	43.583	5.0	GODE	237
305	5.9	118.0667	5.0	SANDAKAN	47253
306	5.917	169.65	5.0	JALUIT ATOLL	130
307	5.95	-57.033	5.0	NICKERIE	382
308	5.967	15.633	5.0	BOUAR	2424
309	6.25	-10.35	5.0	ROBERTS FIELD	1457
310	6.467	7.55	5.0	ENUGU	469
311	6.483	17.433	5.0	BOSSANGOA	3181
312	6.8833	81.8333	5.0	POTTUVIL	151
313	7.233	-70.8	5.0	GUASDUALITO	356
314	7.3	-61.45	5.0	TUMEREMO	451
315	7.383	143.917	5.0	WOLEAI ATOLL	106
316	7.7	28.017	5.0	WAU	717
317	7.85	-72.45	5.0	SAN ANTONIO DEL TACHIRA	3694
318	7.9	-67.4167	5.0	SAN FERNANDO DE APURE	1404
319	8.0333	79.8333	5.0	PUTTALAM	6376
320	8.15	-63.55	5.0	CIUDAD BOLIVAR	641
321	8.3333	80.4167	5.0	ANURADHAPURA	612
322	8.4	20.65	5.0	NDELE	2173
323	8.4089	124.6119	5.0	LUMBIA AIRPORT	3518
324	8.617	-13.2	5.0	LUNGI	1194
325	8.983	1.15	5.0	SOKODE	5401
326	9.15	18.3833	5.0	SARH	17203
327	9.25	7.0	5.0	ABUJA	972
328	9.333	13.383	5.0	GAROUA	10956
329	9.417	-5.617	5.0	KORHOGO	11845
330	9.467	170.25	5.0	WOTJE ATOLL	299
331	9.5	-7.567	5.0	ODIENNE	140
332	9.5	-0.85	5.0	TAMALE	1562
333	9.6	105.967	5.0	BA-XUYEN/SOC TRANG	170
334	9.617	6.533	5.0	MINNA	440
335	9.75	-63.183	5.0	MATURIN	1184
336	9.8	125.5	5.0	SURIGAO	347
337	9.817	-70.933	5.0	MENE GRANDE	780
338	9.9333	76.2333	5.0	COCHIN (IN-NAVY)	17051
339	9.983	98.617	5.0	RANONG	194
340	10.067	-69.317	5.0	BARQUISIMETO	741
341	10.117	-64.683	5.0	BARCELONA	1459
342	10.25	-67.65	5.0	MARACAY - B.A. SUCRE	5220
343	10.5	107.1667	5.0	BARIA (PHUOC LE)	747
344	10.6	-66.983	5.0	CARACAS/MAIQUETIA A	912
345	10.6667	-63.25	5.0	CARUPANO	159
346	10.717	115.833	5.0	NENSHA ISL	436
347	10.85	121.033	5.0	CUYO	270
348	10.917	-63.967	5.0	PORLAMAR	739
349	11.1167	72.7333	5.0	AMINIDIVI	26613
350	11.233	169.85	5.0	UTIRIK ATOLL M.ISL	577
351	11.3	167.48	5.0	RONGERIK	145
352	11.3167	-12.3	5.0	LABE	3485
353	11.52	165.55	5.0	BIKINI	294
354	11.5333	-72.9333	5.0	RIOHACHA/ALMIRANTE PADILLA	2967
355	11.55	43.15	5.0	DJIBOUTI	2487
356	11.783	34.383	5.0	DAMAZINE	1808
357	11.85	13.083	5.0	MAIDUGURI	593
358	11.87	-15.5	5.0	BISSAU	2569
359	12.7	28.433	5.0	EN NAHUD	198
360	12.917	74.883	5.0	MANGALORE/BAJPE	2209
361	13.0667	-9.4833	5.0	KITA	4283
362	13.167	32.667	5.0	AROMA	298
363	13.3	-87.1833	5.0	CHOLUTECA	767
364	13.467	7.083	5.0	MARADI	18936
365	13.567	-89.833	5.0	ACAJUTLA	185
366	13.683	44.15	5.0	TAIZ (CIV/MIL)	449
367	13.7	-89.117	5.0	SAN SALVADOR/ILOPAN	689
368	13.75	-60.98	5.0	VIEUX FORT	815
369	13.8	5.25	5.0	BIRNI-N'KONNI	30210
370	13.85	20.85	5.0	ABECHE	4728
371	13.917	-90.817	5.0	SAN JOSE	1220
372	13.9667	108.65	5.0	AN KHE (VVAK)	224
373	14.0	108.0167	5.0	PLEIKU AB	698
374	14.033	35.4	5.0	GEDAREF	238
375	14.05	-87.25	5.0	TEGUCIGALPA	5493
376	14.067	-83.367	5.0	PUERTO CABEZAS	4028
377	14.117	93.367	5.0	COCO ISLAND	985
378	14.3667	-87.6167	5.0	SOTO CANO AB	298
379	14.4	33.483	5.0	WAD MEDANI	269
380	14.482	-11.44	5.0	KAYES/DAG-DAG	16115
381	14.5333	-90.5667	5.0	GUATEMALA CITY	5620
382	14.6	-61.0	5.0	LAMENTIN AERO	9234
383	14.6833	77.6167	5.0	ANANTAPUR	10993
384	14.75	42.967	5.0	HODEIDAH (CIV/MIL)	542
385	14.8	100.617	5.0	LOP BURI	837
386	14.8	120.267	5.0	SUBIC BAY WEATHER	1333
387	14.9	-23.517	5.0	PRAIA	123
388	15.117	105.783	5.0	PAKSE	590
389	15.117	145.733	5.0	SAIPAN/ISLEY (CGS)	7992
390	15.167	-7.283	5.0	NARA	9645
391	15.283	38.917	5.0	ASMARA	2299
392	15.317	120.383	5.0	CROW VALLEY GUNNERY	3166
393	15.383	73.817	5.0	GOA/DABOLIM AIRPORT	1902
394	15.4167	75.6333	5.0	GADAG	12739
395	15.4167	108.7	5.0	CHU LAI	822
396	15.6	32.55	5.0	KHARTOUM	10644
397	15.717	-88.6	5.0	PUERTO BARRIOS	639
398	16.1667	-95.1667	5.0	SALINA CRUZ	556
399	16.2639	-61.5164	5.0	LE RAIZET AERO	40752
400	16.4	107.6833	5.0	HUE/PHU BAI	508
401	16.433	101.15	5.0	PHETCHABUN	401
402	16.533	80.8	5.0	VIJAYAWADA/GANNAVA	8012
403	16.55	104.65	5.0	SAVANNAKHET	508
404	16.55	111.617	5.0	HOANG SA (PATTLE)	417
405	16.633	-11.4	5.0	KIFFA	4608
406	16.7167	-3.0	5.0	TOMBOUCTOU	28543
407	16.7333	-9.6333	5.0	AIOUN ELATROUSS	4231
408	16.7419	-22.9489	5.0	SAL	17887
409	16.767	94.767	5.0	PATHEIN	2065
410	16.883	42.583	5.0	GIZAN	1629
411	16.9	96.183	5.0	MINGALADON	945
412	17.3769	102.8094	5.0	UDON THANI	48194
413	17.417	104.783	5.0	NAKHON PHANOM	2528
414	17.7	33.967	5.0	ATBARA	361
415	17.9	-62.85	5.0	ST. BARTHELEMY	4048
416	17.95	102.567	5.0	VIENTIANE	2162
417	18.0	19.167	5.0	FAYA	2999
418	18.2167	109.5833	5.0	SANYA	23144
419	18.3	42.8	5.0	KHAMIS MUSHAIT	11138
420	18.433	1.35	5.0	KIDAL	5839
421	18.633	-91.833	5.0	CUIDAD DEL CARMEN	185
422	18.683	12.917	5.0	BILMA	21154
423	18.717	-110.95	5.0	ISLA SOCORRO	9477
424	19.05	-69.3833	5.0	SABANA DE LA MAR	4059
425	19.0833	82.0333	5.0	JAGDALPUR	26956
426	19.1	108.617	5.0	DONGFANG	6890
427	19.167	30.483	5.0	DONGOLA	1444
428	19.2667	84.8833	5.0	GOPALPUR	9005
429	19.883	102.133	5.0	LUANG-PRABANG	472
430	20.45	121.967	5.0	BASCO	867
431	20.667	58.9	5.0	MASIRAH	514
432	20.7167	116.7167	5.0	DONGSHA (=597920)	9110
433	20.883	95.9	5.0	MEIKTILA	5141
434	20.899	-156.43	5.0	KAHULUI ARPT/MAUI	19540
435	21.2	72.8333	5.0	SURAT	2307
436	21.217	110.4	5.0	ZHANJIANG	5208
437	21.3	99.617	5.0	KENGTUNG	231
438	21.3333	0.95	5.0	BORDJ-BADJ-MOKHTAR	231
439	21.45	-71.15	5.0	TURKS ISLAND	10548
440	21.4833	109.1	5.0	BEIHAI	9881
441	21.5167	86.9333	5.0	BALASORE	1408
442	21.8333	111.9667	5.0	YANGJIANG	25007
443	21.9167	84.0833	5.0	JHARSIGUDA	8456
444	22.0	120.75	5.0	467590	4646
445	22.283	-97.85	5.0	TAMPICO	165
446	22.367	106.75	5.0	LONGZHOU	4011
447	22.37	-73.03	5.0	MAYAGUAN	1160
448	22.45	70.083	5.0	JAMNAGAR	895
449	22.5	103.95	5.0	HEKOU	13535
450	22.6833	121.5	5.0	LU-TAO	3323
451	22.75	-12.483	5.0	ZOUERATE	2072
452	22.767	81.9	5.0	PENDRA ROAD	5308
453	22.783	115.367	5.0	SHANWEI	2322
454	22.95	120.217	5.0	TAINAN (TW-AFB)	6094
455	23.217	113.483	5.0	GUANGZHOU	28004
456	23.25	69.8	5.0	BHUJ-RUDRAMATA	12439
457	23.2833	77.35	5.0	BHOPAL/BAIRAGHAR	35992
458	23.3833	87.0833	5.0	BANKURA	1420
459	23.467	120.383	5.0	CHIAYI (TW-AFB)	6409
460	23.5833	119.6167	5.0	MAKUNG AB (=593450)	22564
461	23.8	114.7333	5.0	HEYUAN	2983
462	23.8167	5.15	5.0	IN AMGUEL	144
463	23.8833	91.25	5.0	AGARTALA	37876
464	23.8833	100.0833	5.0	LINCANG	2076
465	23.9833	121.6	5.0	HUA-LIEN CITY	17027
466	24.067	105.067	5.0	GUANGNAN	5390
467	24.183	120.65	5.0	TAICHUNG (TW-AFB)	4776
468	24.217	23.3	5.0	KUFRA	6321
469	24.267	9.467	5.0	DJANET	6261
470	24.35	109.4	5.0	LIUZHOU	4445
471	24.367	114.483	5.0	LIANPING	20784
472	24.583	73.7	5.0	UDAIPUR	1174
473	24.7	46.733	5.0	RIYADH OBS.	11578
474	24.7	108.0333	5.0	HECHI	22855
475	24.7667	93.9	5.0	IMPHAL/TULIHAL	19897
476	24.8333	113.5	5.0	CHU CHIANG	1393
477	25.0167	102.8333	5.0	KAN-HAI-TZU	598
478	25.05	-77.4667	5.0	NASSAU AIRPORT NEW PROVIDENCE	14365
479	25.15	75.85	5.0	KOTA AERODROME	1768
480	25.233	-11.617	5.0	BIR MOGHREIN	5175
481	25.2667	-76.3	5.0	ELEUTHERA ISLAND	6389
482	25.2667	63.4833	5.0	PASNI	119
483	25.3667	97.4	5.0	MYITKYINA	3942
484	25.3833	68.4167	5.0	HYDERABAD	934
485	25.433	105.183	5.0	XINGREN	4750
486	25.433	106.767	5.0	LUODIAN	3236
487	25.5	28.967	5.0	DAKHLA	4922
488	25.517	119.783	5.0	PINGTAN	3181
489	25.533	-103.45	5.0	TORREON AIRPORT	1530
490	25.5667	91.8833	5.0	SHILLONG S06 03Z	280
491	25.617	-109.05	5.0	TOPOLOBAMPO	251
492	25.75	71.3833	5.0	BARMER	2587
493	25.8	21.133	5.0	TAZERBO	3989
494	25.85	116.367	5.0	CHANGTING	5057
495	25.9	-81.7167	5.0	DELTA SEVEN	436
496	25.967	108.533	5.0	RONGJIANG	2499
497	26.15	119.95	5.0	MAZU (=588490)	4062
498	26.2	36.483	5.0	AL-WEJH	5395
499	26.2	127.683	5.0	NAHA	45567
500	26.2003	32.7467	5.0	SOUTH OF VALLEY UNIVERSITY	4197
501	26.267	50.167	5.0	DHAHRAN	17304
502	26.5	8.417	5.0	ILLIZI	502
503	26.6167	-78.3667	5.0	GOLD ROCK CREEK	13583
504	26.717	92.8	5.0	TEZPUR/BINDUKURI	424
505	26.717	127.783	5.0	IEJIMA AUXILIARY AB	1571
506	26.867	100.233	5.0	LIJING	20204
507	26.9667	64.1	5.0	PANJGUR	8843
508	26.983	84.85	5.0	RAXAUL	1140
509	27.0167	14.45	5.0	SEBHA	3998
510	27.117	114.967	5.0	JIAN	4747
511	27.3	105.233	5.0	BIJIE	1335
512	27.333	120.2	5.0	FUDING	4348
513	27.5667	81.6	5.0	BAHRAICH	9170
514	27.65	-81.333	5.0	AVON PARK GUNNERY R	11151
515	27.6667	98.3833	5.0	LA WANG/TZUKEI	857
516	27.7	85.367	5.0	KATHMANDU AIRPORT	651
517	27.75	89.167	5.0	PAGRI	5820
518	27.8333	66.6333	5.0	KHUZDAR	1098
519	27.883	-0.283	5.0	ADRAR	22304
520	27.95	-80.5667	5.0	VALKARIA	798
521	27.95	108.25	5.0	SINAN	3144
522	28.05	9.633	5.0	IN-AMENAS	12360
523	28.083	30.733	5.0	MINYA	2596
524	28.2	113.0833	5.0	CHANGSHA	43728
525	28.333	28.867	5.0	BAHARIA	5180
526	28.417	92.467	5.0	LHUNZE	9321
527	28.45	98.883	5.0	DEQEN	6169
528	28.45	121.883	5.0	DACHEN DAO	18781
529	28.467	-16.25	5.0	STA. CRUZ DE TENERI	22725
530	28.633	87.083	5.0	TINGRI	4882
531	28.8167	62.75	5.0	NOKKUNDI	1323
532	28.817	104.533	5.0	YIBIN	27926
533	28.833	108.767	5.0	YOUYANG	169
534	28.883	-118.3	5.0	ISLA GUADALUPE	13025
535	29.0	135.0	5.0	OCEAN WEATHER SHIP T	5347
536	29.033	21.567	5.0	JALO	3469
537	29.033	101.5	5.0	JIULONG	1437
538	29.0333	66.5833	5.0	KALAT	172
539	29.05	111.683	5.0	CHANGDE	4719
540	29.117	15.933	5.0	HON	3794
541	29.217	88.917	5.0	XIGAZE	11663
542	29.2425	47.9714	5.0	KUWAIT INTERNATIONAL AIRPORT	36208
543	29.25	0.283	5.0	TIMIMOUN	9666
544	29.3	117.2	5.0	JINGDEZHEN	5385
545	29.3333	-89.4	5.0	BOOTHVILLE WSCMO CIT	25889
546	29.383	113.083	5.0	YUEYANG	4823
547	29.55	34.95	5.0	EILAT	6192
548	29.5667	94.4667	5.0	NYINGCHI	6509
549	29.6833	-85.35	5.0	CAPE SAN BLAS SITE D 3	2507
550	29.75	24.533	5.0	GIARABUB	2551
551	29.8833	69.7167	5.0	BARKHAN	1029
552	29.95	73.25	5.0	BAHAWALNAGAR	1115
553	29.967	-95.35	5.0	HOUSTON/INTERCONTIN	1796
554	29.967	99.067	5.0	BATANG	19656
555	30.033	122.117	5.0	DINGHAI	3697
556	30.05	101.967	5.0	KANGDING	3716
557	30.133	-2.167	5.0	BENI-ABBES	7838
558	30.133	9.5	5.0	GHADAMES	5808
559	30.167	35.783	5.0	MAAN	595
560	30.3333	76.4667	5.0	PATIALA	23763
561	30.3667	-89.5833	5.0	NASA MISS. TEST	1068
562	30.383	13.583	5.0	GARIAT EL-SHARGHIA	688
563	30.483	140.3	5.0	TORISHIMA	6556
564	30.517	47.783	5.0	BASRAH-HUSSEN	2290
565	30.567	2.867	5.0	EL-GOLEA	31528
566	30.667	104.017	5.0	CHENGDU	34761
567	30.717	20.167	5.0	AGEDABIA	3757
568	30.8	106.083	5.0	NANCHONG	8082
569	30.933	-6.9	5.0	OUARZAZATE	8186
570	30.95	88.633	5.0	XAINZA	12076
571	31.017	46.233	5.0	NASIRIYA	750
572	31.033	-93.033	5.0	FORT POLK (ARMY)	1222
573	31.0733	33.8358	5.0	EL ARISH	13389
574	31.1	-97.717	5.0	FT HOOD AAF/KILLEEN	2923
575	31.183	-92.633	5.0	CLAIBORNE RNG (AFS)	3303
576	31.2	16.583	5.0	SIRTE	2738
577	31.217	107.5	5.0	DA XIAN	23565
578	31.233	34.783	5.0	BEER-SHEVA	2318
579	31.283	32.233	5.0	PORT SAID/EL GAMIL	1814
580	31.367	90.017	5.0	BAINGOIN	11427
581	31.367	130.833	5.0	KANOYA AB	464
582	31.417	95.6	5.0	DENGQEN	6863
583	31.5	65.85	5.0	KANDAHAR AIRPORT	5934
584	31.58	-84.12	5.0	ALBANY	658
585	31.583	-110.333	5.0	FORT HUACHUCA	9251
586	31.617	-8.033	5.0	MARRAKECH	9944
587	31.683	9.3	5.0	EL BORMA	1728
588	31.867	-81.633	5.0	FORT STEWART RESERV	3618
589	31.867	10.983	5.0	NALUT	2037
590	31.867	93.767	5.0	SOG XIAN	7101
591	31.867	117.233	5.0	HEFEI	9149
592	31.9	54.2833	5.0	YAZD	1516
593	31.9	102.233	5.0	BARKAM	6148
594	31.933	-4.4	5.0	ERRACHIDIA	6598
595	31.9333	5.4	5.0	OUARGLA	2887
596	31.983	35.983	5.0	AMMAN AIRPORT	1315
597	32.05	72.667	5.0	SARGODHA	19138
598	32.067	108.033	5.0	WANYUAN	3574
599	32.1	20.2667	5.0	BENINA	16181
600	32.1	23.933	5.0	TOBRUK	7553
601	32.133	114.05	5.0	XINYANG	7884
602	32.1667	-110.8833	5.0	TUCSON (DAVIS-MONTHAN AFB)	236
603	32.2167	-98.1833	5.0	STEPHENVILLE	15234
604	32.283	-9.233	5.0	SAFI	1179
605	32.317	10.4	5.0	REMADA	9738
606	32.333	-84.833	5.0	FORT BENNING	3790
607	32.35	-94.65	5.0	LONGVIEW WSMO	14445
608	32.367	-6.4	5.0	BENI-MELLAL	2448
609	32.383	3.817	5.0	GHARDAIA	31999
610	32.383	111.667	5.0	GUANGHUA	3239
611	32.417	15.05	5.0	MISURATA	1073
612	32.43	109.02	5.0	ANKANG	23991
613	32.5	-106.4167	5.0	FRYE SITE	155
614	32.5	74.5333	5.0	SIALKOT	942
615	32.5	80.067	5.0	SHIQUANHE	10631
616	32.55	35.85	5.0	IRBED	691
617	32.683	-4.733	5.0	MIDELT	2966
618	32.6833	13.1667	5.0	TRIPOLI INTL ARPT	18212
619	32.717	133.017	5.0	SHIMIZU	5015
620	32.8	21.883	5.0	SHAHAT	1530
621	32.817	-115.683	5.0	EL CENTRO NAF	1361
622	32.883	12.083	5.0	ZUARA	2793
623	32.9	-87.25	5.0	CENTREVILLE WSMO	14447
624	32.917	129.917	5.0	NAGASAKI AIRPORT	506
625	32.933	-112.7	5.0	GILA BEND (AAF)	19204
626	32.967	114.05	5.0	ZHUMADIAN	6626
627	33.033	40.283	5.0	RUTBAH	2392
628	33.15	130.3	5.0	SAGA AIRPORT	499
629	33.167	-106.5	5.0	WHITE SANDS MISSILE	1539
630	33.3	44.4	5.0	BAGHDAD INT. AIRPORT	14024
631	33.383	104.917	5.0	WUDU	27511
632	33.4	-117.5	5.0	CAMP PENDLETON	207
633	33.417	36.517	5.0	DAMASCUS INT. AIRPO	10082
634	33.45	-111.95	5.0	WFO PHOENIX	4904
635	33.5	6.783	5.0	EL-OUED	28456
636	33.5333	-0.2833	5.0	MECHERIA	6933
637	33.583	102.967	5.0	RUOERGAI	2991
638	33.6167	73.1	5.0	ISLAMABAD AIRPORT	7050
639	33.65	-101.8167	5.0	LUBBOCK/MUNI (TEX)	693
640	33.683	1.0	5.0	EL-BAYADH	10962
641	33.783	114.517	5.0	XIHUA	6675
642	33.8	-106.6667	5.0	STALLION SITE	610
643	33.8	99.8	5.0	DARLAG	12064
644	33.817	35.483	5.0	RAFIC HARIRI INTL	12102
645	33.85	-80.483	5.0	POINSETT RANGE	3637
646	33.8667	70.0833	5.0	PARACHINAR	2376
647	33.867	10.767	5.0	DJERBA MELLITA	27692
648	33.883	-5.533	5.0	MEKNES	2167
649	33.95	-83.3167	5.0	ATHENS BEN EPPS AP	28581
650	33.95	92.617	5.0	TUOTUOHE	11291
651	33.98	-98.5	5.0	WICHITA FALLS	113
652	34.0	164.0	5.0	OCEAN WEATHER SHIP V	12375
653	34.05	131.05	5.0	OZUKI AB	303
654	34.0803	111.0728	5.0	LUSHI	26483
655	34.15	132.22	5.0	IWAKUNI	2734
656	34.217	-4.0	5.0	TAZA	2441
657	34.217	62.217	5.0	HERAT	1107
658	34.3	-103.8	5.0	MELROSE GUNNERY RAN	151
659	34.3	108.933	5.0	XIAN	36675
660	34.417	8.817	5.0	GAFSA	20537
661	34.583	105.75	5.0	TIANSHUI	6899
662	34.6	-86.6333	5.0	REDSTONE ARSENAL	2583
663	34.6	138.217	5.0	OMAEZAKI	4148
664	34.65	-120.567	5.0	SOUTH VANDENBERG AF	6218
665	34.65	-99.2667	5.0	ALTUS AFB (OKLA)	2675
666	34.6833	3.25	5.0	DJELFA	9814
667	34.717	10.683	5.0	SFAX EL-MAOU	30654
668	34.7503	137.703	5.0	HAMAMATSU AB	37467
669	34.783	-1.95	5.0	OUJDA	7639
670	34.8	5.733	5.0	BISKRA	19871
671	34.85	119.133	5.0	GANYU	7452
672	34.917	98.217	5.0	MADOI	6085
673	34.933	136.583	5.0	YOKKAICHI	4758
674	35.083	128.083	5.0	SACHEON AB	8441
675	35.117	36.75	5.0	HAMA	741
676	35.133	-78.933	5.0	FORT BRAGG/SIMMONS	159
677	35.169	128.934	5.0	GIMHAE INTL AIRPORT	5577
678	35.183	-3.85	5.0	AL HOCEIMA	4040
679	35.217	93.083	5.0	WUDAOLIANG	5083
680	35.2667	-116.0833	5.0	BAKER	592
681	35.281	-116.63	5.0	BICYCLE LAKE (AAF)	1660
682	35.3333	-94.3667	5.0	FT SMITH CAMP CHAFFEE	5244
683	35.35	1.467	5.0	TIARET	280
684	35.417	8.117	5.0	TEBESSA	6009
685	35.533	35.767	5.0	LATTAKIA	458
686	35.55	8.683	5.0	THALA	10938
687	35.633	-0.6	5.0	ORAN-SENIA	38241
688	35.667	-75.9	5.0	DARE COUNTY GUNNERY	5845
689	35.667	10.1	5.0	KAIROUAN	22918
690	35.733	-5.9	5.0	TANGER (AERODROME)	389
691	35.75	10.75	5.0	MONASTIR-SKANES	22479
692	35.8	140.017	5.0	SHIMOFUSA AB	467
693	35.9	62.9667	5.0	TAGTABAZAR	13721
694	35.9	128.65	5.0	DAEGU AB	5685
695	35.9167	74.3333	5.0	GILGIT	521
696	35.933	39.017	5.0	RAQQA	252
697	35.9667	-116.2667	5.0	SHOSHONE	313
698	35.967	-89.95	5.0	BLYTHEVILLE AFB	1375
699	35.983	129.417	5.0	POHANG AB	862
700	36.05	103.883	5.0	LANZHOU	30960
701	36.05	114.4	5.0	ANYANG	7228
702	36.15	-5.35	5.0	GIBRALTAR	52600
703	36.183	5.25	5.0	SETIF	5598
704	36.183	118.15	5.0	YIYUAN	6101
705	36.217	1.333	5.0	CHLEF	3213
706	36.283	6.617	5.0	CONSTANTINE	21262
707	36.2969	-99.775	5.0	GAGE	586
708	36.3	2.233	5.0	MILIANA	14988
709	36.317	43.15	5.0	MOSUL	884
710	36.333	37.217	5.0	ALEPPO INT. AEROPOR	18332
711	36.4	139.067	5.0	MAEBASHI	5175
712	36.483	8.8	5.0	JENDOUBA	19808
713	36.617	128.35	5.0	YECHEON AB	5663
714	36.6667	68.9167	5.0	KUNDUZ	4540
715	36.683	116.983	5.0	JINAN	33391
716	36.7	67.2	5.0	MAZAR-I-SHARIF	2179
717	36.7	119.1167	5.0	WEI HSIEN	254
718	36.717	5.067	5.0	BEJAIA-AEROPORT	12372
719	36.767	126.467	5.0	SEOSAN	566
720	36.833	7.817	5.0	ANNABA	30088
721	36.85	11.083	5.0	KELIBIA	18563
722	36.867	30.733	5.0	ANTALYA	1476
723	36.883	6.9	5.0	SKIKDA	639
724	36.8833	-93.9	5.0	MONETT	18071
725	36.95	8.75	5.0	TABARKA	4939
726	37.017	-7.967	5.0	FARO/AEROPORTO	1831
727	37.05	41.217	5.0	KAMISHLI	136
728	37.0667	-88.7667	5.0	PADUCAH BARKLEY FLD	4390
729	37.1	-113.6	5.0	ST. GEORGE	591
730	37.1	128.8667	5.0	SANGDONG	294
731	37.1808	114.3589	5.0	XINGTAI	26266
732	37.233	9.817	5.0	BIZERTE	7207
733	37.233	67.267	5.0	TERMEZ	20099
734	37.3167	-121.8667	5.0	SAN JOSE/EMSU	188
735	37.317	97.217	5.0	DELINGHA	10750
736	37.4	122.683	5.0	CHENGSHANTOU	15581
737	37.433	-105.867	5.0	ALAMOSA MUNI(AWOS)	921
738	37.433	127.95	5.0	WONJU AB	6345
739	37.467	53.967	5.0	ESENGYLY	36098
740	37.4833	116.3667	5.0	TE HSIEN/TECHOW	498
741	37.5	71.5	5.0	KHOROG	28898
742	37.617	120.317	5.0	LONGKOU	8328
743	37.75	128.95	5.0	GANGNEUNG AB	6015
744	37.783	-81.117	5.0	BECKLEY	114
745	37.783	-0.8	5.0	MURCIA/SAN JAVIER	1000
746	37.85	91.65	5.0	MANGYA	1192
747	37.85	95.367	5.0	DA-QAIDAM	5439
748	37.9025	127.7358	5.0	CHUNCHEON	397
749	37.917	139.05	5.0	NIIGATA	2033
750	37.93	83.65	5.0	ANDIR	14362
751	37.966	124.63	5.0	BAENGNYEONGDO	8261
752	38.0	-71.0	5.0	OCEAN WEATHER SHIP H	3274
753	38.05	-103.52	5.0	LA JUNTA	164
754	38.2	15.55	5.0	MESSINA	5442
755	38.25	90.85	5.0	MANGNAI	15030
756	38.2508	128.5647	5.0	SOKCHO	10880
757	38.267	140.9	5.0	SENDAI	57672
758	38.283	-104.5	5.0	PUEBLO MEMORIAL(AW)	1430
759	38.373	-81.6	5.0	YEAGER	1619
760	38.417	-113.017	5.0	MILFORD MUNICIPAL	774
761	38.433	77.267	5.0	SHACHE	15714
762	38.65	-88.9667	5.0	SALEM LECKRONE AP	15223
763	38.733	48.833	5.0	LANKARAN	33653
764	38.733	115.483	5.0	BAODING	9153
765	38.8	-97.63	5.0	SALINA	3551
766	38.817	35.433	5.0	KAYSERI/ERKILET	1942
767	38.833	93.383	5.0	LENGHU	15645
768	38.87	-98.82	5.0	RUSSELL	284
769	39.0333	125.7833	5.0	PYONGYANG	29160
770	39.0833	-28.0333	5.0	GRACIOSA/AERODROME	2173
771	39.1	-96.767	5.0	FT RILEY/MARSHALL A	1222
772	39.1	107.983	5.0	OTOG QI	9443
773	39.2	45.417	5.0	NAXCIVAN	914
774	39.283	109.75	5.0	CHASAKOCHI	3515
775	39.383	111.15	5.0	HEQU	8713
776	39.4333	118.9	5.0	LETING	20578
777	39.45	-74.6667	5.0	ATLANTIC CITY U-A	10118
778	39.5	-76.1667	5.0	ABERDEEN PRVGR	5475
779	39.55	2.617	5.0	PALMA DE MALLORCA	9948
780	39.6667	118.1167	5.0	TANG SHAN	251
781	39.783	105.75	5.0	JARTAI	9470
782	39.8	78.567	5.0	BACHU	9060
783	39.8333	109.9833	5.0	DONGSHENG	23570
784	39.867	4.233	5.0	MENORCA/MAHON	165
785	39.9333	127.55	5.0	HAMHEUNG	11836
786	39.983	46.75	5.0	KHANKANDY	657
787	40.0333	52.9833	5.0	TURKMENBASHI	35133
788	40.083	124.333	5.0	DANDONG	24594
789	40.1	113.333	5.0	DATONG	8658
790	40.12	-103.17	5.0	AKRON	214
791	40.2	-8.417	5.0	COIMBRA	458
792	40.217	69.733	5.0	KHUDJAND	382
793	40.267	97.033	5.0	YUMENZHEN	2942
794	40.433	-80.0	5.0	PITTSBURGH/EMSU	544
795	40.55	70.95	5.0	KOKAND	7416
796	40.617	47.15	5.0	EVLAKH AIRPORT	164
797	40.633	87.7	5.0	TIKANLIK	16175
798	40.65	-73.7833	5.0	NEW YORK JFK AP	24923
799	40.6667	-89.6833	5.0	PEORIA GTR PEORIA AP	29195
800	40.717	46.417	5.0	GANDJA	818
801	40.75	104.5	5.0	BAYAN MOD	20474
802	40.783	43.833	5.0	GUMRI	147
803	40.7833	114.8833	5.0	ZHANGJIAKOU	23066
804	40.85	35.583	5.0	MERZIFON	1796
805	40.917	72.95	5.0	DZHALAL-ABAD	30741
806	40.933	78.45	5.0	AKQI	5651
807	40.95	-5.5	5.0	SALAMANCA/MATACAN	173
808	40.967	117.917	5.0	CHENGDE	6676
809	40.97	107.17	5.0	XAMBA	1094
810	41.1167	122.95	5.0	AN SHAN	362
811	41.117	121.067	5.0	JINZHOU	26088
812	41.22	-103.1	5.0	SYDNEY	677
813	41.233	-8.683	5.0	PORTO/PEDRAS RUBRAS	1615
814	41.25	-76.917	5.0	WILLIAMSPORT/LYCOMI	463
815	41.26	80.3	5.0	WEN-SU	9162
816	41.433	76.0	5.0	NARYN	13926
817	41.45	31.8	5.0	ZONGULDAK	304
818	41.45	106.383	5.0	HAILS	4738
819	41.55	46.667	5.0	ZAKATALA	424
820	41.5667	108.5167	5.0	HALIUT	23054
821	41.633	41.6	5.0	BATUMI	7554
822	41.65	-70.5167	5.0	FALMOUTH OTIS AFB	383
823	41.65	25.367	5.0	KURDJALI	9983
824	41.6786	-1.0731	5.0	ZARAGOZA/BASE AEREA	19731
825	41.7	-86.3167	5.0	SOUTH BEND ST JOSEPH	612
826	41.717	-4.85	5.0	VALLADOLID/VILLANUB	206
827	41.733	64.617	5.0	TAMDY	24209
828	41.7333	123.5167	5.0	SHENYANG	45359
829	41.75	86.133	5.0	KORLA	21640
830	41.75	103.9667	5.0	PANG-TING-TO-TO-KAI	1057
831	41.7833	95.1333	5.0	XING-XING-XIA	122
832	41.8	12.233	5.0	ROMA FIUMICINO	25186
833	41.8667	-103.5833	5.0	SCOTTSBLUFF AAF	987
834	41.9181	8.7928	5.0	AJACCIO	47208
835	41.95	21.633	5.0	SKOPJE- AIRPORT	2454
836	42.0833	-91.6167	5.0	CEDAR RAPIDS ECHO SI	1310
837	42.2	-1.45	5.0	BARDENAS REALES	4866
838	42.217	-75.983	5.0	BINGHAMTON/BROOME C	109
839	42.4	112.9	5.0	JURH	11935
840	42.45	-2.333	5.0	LOGRONO/AGONCILLO	349
841	42.583	-5.65	5.0	LEON/VIRGEN DEL CAM	200
842	42.7	-68.3	5.0	ENVIRONM BUOY 44005	574
843	42.833	74.583	5.0	BISHKEK	24813
844	42.917	-106.467	5.0	CASPER/NATRONA COUN	1420
845	42.933	89.2	5.0	TURPAN	10824
846	42.9667	-83.75	5.0	FLINT BISHOP AP	29048
847	43.0	1.1	5.0	SAINT GIRONS	158
848	43.2	107.167	5.0	HANBOGD	2539
849	43.3333	145.5833	5.0	NEMURO	57934
850	43.417	6.75	5.0	SAINT-RAPHAEL	230
851	43.467	-1.533	5.0	BIARRITZ	1055
852	43.483	91.633	5.0	SHISANJIANFANG	15467
853	43.517	16.433	5.0	SPLIT/MARJAN	4568
854	43.583	-118.95	5.0	BURNS MUNI (AMOS)	1705
855	43.5833	39.7667	5.0	SOCHI	194
856	43.6	118.067	5.0	LINXI	3300
857	43.633	1.367	5.0	TOULOUSE BLAGNAC	1937
858	43.65	7.2	5.0	NICE	437
859	43.683	-1.067	5.0	DAX	328
860	43.75	24.883	5.0	TR. MAGURELE	218
861	43.88	-69.93	5.0	BRUNSWICK	965
862	43.917	-0.5	5.0	MONT-DE-MARSAN	166
863	43.9322	-60.0094	5.0	SABLE ISLAND	44361
864	43.983	119.4	5.0	LINDONG	4651
865	44.017	89.567	5.0	QITAI	9992
866	44.017	145.867	5.0	JUZHNO-KURILSK	37102
867	44.117	-77.533	5.0	TRENTON ARPT	142
868	44.167	80.067	5.0	ZHARKENT	23543
869	44.217	28.633	5.0	CONSTANTA	27610
870	44.317	23.867	5.0	CRAIOVA	548
871	44.55	50.25	5.0	FORT SHEVCHENKO	1177
872	44.567	129.6	5.0	MUDANJIANG	4789
873	44.583	4.733	5.0	MONTELIMAR	189
874	44.583	117.6	5.0	XI UJIMQIN QI	8443
875	44.617	82.9	5.0	JINGHE	10505
876	44.617	114.15	5.0	NARAN BULAG	14093
877	44.633	22.633	5.0	DROBETA TURNU SEVER	953
878	44.6833	34.1333	5.0	SIMFEROPOL	43580
879	44.7833	20.5333	5.0	BEOGRAD/SELENO BRD	8769
880	44.9	110.117	5.0	SAINSHAND	17817
881	45.0	-16.0	5.0	OCEAN WEATHER SHIP K	2558
882	45.0	136.6	5.0	TERNEJ	35417
883	45.0464	34.5989	5.0	KRYMSKA	493
884	45.067	-83.567	5.0	ALPENA/PHELPS COLLI	111
885	45.15	26.817	5.0	BUZAU	652
886	45.15	29.667	5.0	SULINA	178
887	45.3	-82.8	5.0	ENVIRONM BUOY 45003	574
888	45.367	90.533	5.0	BAYTIK SHAN	19772
889	45.417	-91.767	5.0	RICE LAKE RGNL CARLS	581
890	45.467	-73.733	5.0	MONTREAL/TRUDEAU INT	17827
891	45.5	28.2	5.0	GALATI	7351
892	45.6	84.85	5.0	KARAMAY	20097
893	45.667	-0.317	5.0	COGNAC	356
894	45.7264	5.0778	5.0	LYON-ST EXUPERY	35372
895	45.767	21.25	5.0	TIMISOARA	862
896	45.767	106.283	5.0	MANDALGOBI	3030
897	45.783	24.083	5.0	SIBIU	813
898	45.817	-73.433	5.0	LASSOMPTION CDA	104
899	45.833	24.933	5.0	FAGARAS	154
900	45.867	1.183	5.0	LIMOGES	190
901	45.867	22.9	5.0	DEVA	887
902	45.95	-77.317	5.0	PETAWAWA	1273
903	46.0	18.233	5.0	PECS/POGANY	127
904	46.0303	12.5992	5.0	AVIANO	1508
905	46.0333	13.1833	5.0	UDINE/CAMPOFORMIDO	58072
906	46.167	21.317	5.0	ARAD	7175
907	46.18	45.35	5.0	YASHKUL	3336
908	46.2	150.5	5.0	URUP	29544
909	46.22	122.05	5.0	ULANHOT	2278
910	46.2667	102.7833	5.0	ARVAIHEER	13261
911	46.374	-117.015	5.0	LEWISTON NEZ PERCE	432
912	46.4	96.25	5.0	ALTAI	14794
913	46.5	121.36	5.0	TE-PO-SU-K/-MIAO	11684
914	46.533	24.533	5.0	TG. MURES	1169
915	46.583	26.983	5.0	BACAU	1500
916	46.733	83.0	5.0	TACHENG	22028
917	46.767	-56.167	5.0	SAINT-PIERRE	690
918	46.7778	23.5714	5.0	CLUJ-NAPOCA	38157
919	46.8	75.083	5.0	BALHASH	36009
920	46.81	85.7489	5.0	HOBOKSAR	26741
921	46.817	130.333	5.0	CHIAMUSSU	2815
922	46.85	1.7167	5.0	CHATEAUROUX	5082
923	46.85	151.8667	5.0	SIMUSIR	4608
924	46.9	-71.483	5.0	VALCARTIER AIRPORT	2371
925	46.9667	-122.9	5.0	OLYMPIA MUN I AP	1217
926	46.9931	15.4392	5.0	GRAZ-THALERHOF-FLUGHAFEN	10698
927	47.033	21.9	5.0	ORADEA	822
928	47.067	2.367	5.0	BOURGES	3475
929	47.15	-1.6	5.0	NANTES	256
930	47.167	27.633	5.0	IASI	1100
931	47.2603	11.3439	5.0	INNSBRUCK-FLUGHAFEN	7542
932	47.267	5.083	5.0	DIJON	234
933	47.267	16.633	5.0	SZOMBATHELY	183
934	47.383	123.917	5.0	QIQIHAR	17927
935	47.45	101.467	5.0	TSETSERLEG	2069
936	47.567	-59.15	5.0	PORT-AUX-BASQUES	2303
937	47.633	26.25	5.0	SUCEAVA	513
938	47.6667	-52.75	5.0	SAINT JOHN'S ARPT	30095
939	47.667	23.5	5.0	BAIA MARE	1152
940	47.717	22.883	5.0	SATU MARE	1507
941	47.75	96.85	5.0	ULIASTAI	1923
942	47.8	3.55	5.0	AUXERRE	185
943	47.95	-97.4	5.0	GRAND FORKS AFB	517
944	48.017	91.567	5.0	HOVD	3097
945	48.07	5.03	5.0	CHAUMONT	4616
946	48.0833	114.55	5.0	CHOIBALSAN	11826
947	48.183	-103.633	5.0	WILLISTON/SLOULIN F	460
948	48.2353	14.1881	5.0	LINZ/HOERSCHING-FLUGHAFEN	10855
949	48.3667	25.9	5.0	CHERNIVTSI	44140
950	48.55	-109.767	5.0	HAVRE (AMOS)	690
951	48.633	22.267	5.0	UZHHOROD	40708
952	48.65	144.75	5.0	M. TERPENIYA (FL)	7763
953	48.667	116.817	5.0	XIN BARAG YOUQI	12550
954	48.6833	6.2167	5.0	NANCY/ESSEY	32474
955	48.7	-8.9167	5.0	ENVIRONM BUOY 62027	215
956	48.8	103.55	5.0	BULGAN	2639
957	48.917	106.067	5.0	BARUUNHARAA	2895
958	49.067	20.25	5.0	POPRAD/TATRY	15541
959	49.08	16.62	5.0	BRNO REBESOVICE	4516
960	49.2	-123.167	5.0	VANCOUVER INT. AIRP	14056
961	49.3	4.033	5.0	REIMS	179
962	49.383	11.167	5.0	FEUCHT(USA-AF)	1528
963	49.633	-112.8	5.0	LETHBRIDGE AWOS	9936
964	49.65	7.3	5.0	BAUMHOLDER (USA-AF)	1342
965	49.7	11.95	5.0	GRAFENWOEHR	3151
966	49.7167	-124.9	5.0	COMOX A	104
967	49.75	10.2	5.0	KITZINGEN AAF	631
968	49.783	-99.633	5.0	SHILO	6238
969	49.9031	-98.2842	5.0	PORTAGE SOUTHPORT	554
970	49.95	6.57	5.0	BITBURG	3760
971	50.0	88.667	5.0	KOS-AGAC	10486
972	50.017	155.4	5.0	M. VASILYEV	34757
973	50.033	5.4	5.0	ST-HUBERT	26357
974	50.133	1.833	5.0	ABBEVILLE	116
975	50.133	65.233	5.0	AMANGELDY	15887
976	50.28	21.43	5.0	MIELEC	738
977	50.383	-102.683	5.0	BROADVIEW	8722
978	50.8667	7.1333	5.0	KOLN/BONN	1759
979	51.083	-0.217	5.0	CRAWLEY	37592
980	51.083	2.65	5.0	KOKSIJDE	311
981	51.1	-100.05	5.0	DAUPHIN AIRPORT	2648
982	51.11	13.67	5.0	WAHNSDORF	40165
983	51.117	-114.017	5.0	CALGARY INTL	15534
984	51.13	9.28	5.0	FRITZLAR/KASSELER	21333
985	51.133	-106.583	5.0	ELBOW CS	165
986	51.1333	71.3667	5.0	CELINOGRAD	167
987	51.1833	40.7	5.0	KAMENNAYA STEP NO2	6225
988	51.25	51.4	5.0	URALSK	34602
989	51.4	-3.35	5.0	CARDIFF-WALES ARPT	890
990	51.517	-109.183	5.0	KINDERSLEY ARPT	914
991	51.55	12.0667	5.0	OPPIN	3700
992	51.5547	0.8269	5.0	SHOEBURYNESS	10753
993	51.717	126.65	5.0	HUMA	6620
994	51.733	6.267	5.0	KALKAR	3052
995	51.75	-1.583	5.0	BRIZE NORTON	1008
996	51.85	10.7667	5.0	WERNIGERODE	9806
997	52.05	29.25	5.0	MOZYR (AMOS)	6912
998	52.117	0.967	5.0	WATTISHAM	437
999	52.167	-106.717	5.0	SASKATOON DIEFENBAKE	2309
1000	52.167	4.433	5.0	VALKENBURG	583
1001	52.267	7.433	5.0	NORDHORN	5346
1002	52.4167	-4.0	5.0	CAPEL DEWI	6559
1003	52.417	16.85	5.0	POZNAN	31288
1004	52.433	-114.917	5.0	ROCKY MTN HOUSE	1475
1005	52.5	-20.0	5.0	OCEAN WEATHER SHIP J	2559
1006	52.67	1.68	5.0	HEMSBY	50217
1007	52.767	-108.25	5.0	NORTH BATTLEFORD	2182
1008	52.8	-2.667	5.0	SHAWBURY	561
1009	53.05	158.33	5.0	NIKOLAEVKA	127
1010	53.067	132.983	5.0	EKIMCHAN	29232
1011	53.167	-0.517	5.0	WADDINGTON	992
1012	53.2	-70.9	5.0	NITCHEQUON	15444
1013	53.217	-105.667	5.0	PRINCE ALBERT ARPT	9605
1014	53.25	4.917	5.0	VLIELAND	6803
1015	53.3894	7.2269	5.0	EMDEN-FLUGPLATZ	46395
1016	53.6167	109.6333	5.0	BARGUZIN	6508
1017	53.7333	87.1833	5.0	ABAGUR	181
1018	53.833	-89.867	5.0	TROUT LAKE	15743
1019	53.85	-94.65	5.0	ISLAND LAKE ARPT	4067
1020	53.883	-122.667	5.0	PRINCE GEORGE	30854
1021	53.9	-166.53	5.0	DUTCH HARBOR	2953
1022	54.2	16.1833	5.0	KOSZALIN	1537
1023	54.3	-1.533	5.0	LEEMING	777
1024	54.383	10.15	5.0	KEIL/HOLTENAU	15248
1025	54.4667	113.5833	5.0	BAGDARIN	52127
1026	54.48	-6.1	5.0	LONG KESH	48477
1027	54.8	105.167	5.0	ZHIGALOVO	35584
1028	55.283	-114.783	5.0	SLAVE LAKE AIRPORT	13183
1029	55.317	-3.2	5.0	ESKDALEMUIR	233
1030	55.417	-1.6	5.0	BOULMER	13127
1031	55.767	12.533	5.0	JAEGERSBORG	40587
1032	56.0	92.883	5.0	KRASNOYARSK	40900
1033	56.2933	9.1139	5.0	FLYVESTATION KARUP	5675
1034	56.433	-2.867	5.0	SHANWELL	35061
1035	56.45	138.15	5.0	AYAN	39966
1036	56.483	21.017	5.0	LIEPAJA	26905
1037	56.5422	3.2236	5.0	EKOFISK	15135
1038	56.65	-111.217	5.0	FORT MCMURRAY ARPT	11470
1039	57.1	9.867	5.0	FLYVESTATION AALBOR	4824
1040	57.2	-2.217	5.0	ABERDEEN/DYCE AIRPO	421
1041	57.58	39.58	5.0	JAROSLAVL	529
1042	57.65	-3.567	5.0	KINLOSS	767
1043	57.65	18.35	5.0	VISBY AEROLOGISKA STATION	28914
1044	58.183	12.15	5.0	TORPABRON	288
1045	59.0	-19.0	5.0	OCEAN WEATHER SHIP I	2647
1046	59.933	30.317	5.0	LENINGRAD/CHOSSEYNOR	254
1047	59.9428	10.7194	5.0	OSLO-BLINDERN	934
1048	60.35	166.0	5.0	KORF	42069
1049	60.3667	120.4167	5.0	OLEKMINSK	49772
1050	60.8139	23.4975	5.0	JOKIOINEN OBSERVATORY	60413
1051	61.2667	-149.65	5.0	FT. RICHARDSON/BRYANT AHP	972
1052	61.267	108.2	5.0	ERBOGACEN	35974
1053	61.95	160.8667	5.0	GIZIGA	28015
1054	62.1	42.9	5.0	SENKURSK	255
1055	62.3975	25.6708	5.0	JYVASKYLA AIRPORT	54064
1056	62.7833	148.1333	5.0	SUSUMAN	12807
1057	62.85	149.76	5.0	SHTURMOVOY	2661
1058	63.7056	9.6117	5.0	ORLAND III	40241
1059	64.0	-145.733	5.0	FT GREELY/ALLEN AAF	1398
1060	64.2	-83.3667	5.0	CORAL HARBOUR UA	45390
1061	64.683	170.417	5.0	MARKOVO	33706
1062	64.917	77.817	5.0	TARKO-SALE	33211
1063	65.7333	150.9	5.0	ZYRYANKA	35043
1064	66.0	2.0	5.0	OCEAN WEATHER SHIP M	2031
1065	66.567	-145.267	5.0	FORT YUKON	133
1066	67.47	86.57	5.0	IGARKA	13709
1067	68.1	-165.7667	5.0	CAPE THOMPSON	100
1068	68.23	-135.0	5.0	AKLAVIK	7053
1069	68.47	73.6	5.0	MYS KAMENNY	29022
1070	68.5	112.4333	5.0	OLENEK	41890
1071	68.65	43.3	5.0	KANIN NOS	4393
1072	69.3153	16.1308	5.0	ANDOYA	3633
1073	69.4	86.17	5.0	DUDINKA	5076
1074	69.9333	167.9667	5.0	AJON ISLAND	9137
1075	70.1333	-143.6333	5.0	BARTER ISLAND WSO AP	25677
1076	70.45	-68.55	5.0	CLYDE RIVER	13851
1077	70.967	-178.65	5.0	OSTROV VRANGELYA	29474
1078	71.317	-156.617	5.0	SANDIA LAB. D	523
1079	72.0	-125.27	5.0	SACHS HARBOUR	22298
1080	73.2	143.533	5.0	MYS SHALAUROVA	27652
1081	73.33	70.03	5.0	IM POPOVA	11828
1082	74.5039	19.0011	5.0	BJORNOYA	46944
1083	74.67	112.93	5.0	OSTROV PREOBRAZHENIA	28488
1084	76.15	152.83	5.0	OSTROV ZOHOVA	20328
1085	76.1833	62.5667	5.0	RUSSKAJA GAVAN	246
1086	77.23	-62.33	5.0	THULE	119
1087	77.5	82.23	5.0	OSTROV UEDINENIA	24206
1088	78.0667	13.6333	5.0	ISFJORD RADIO	1297
1089	79.5	76.98	5.0	OSTROV VIZE	26148
1090	80.05	18.3	5.0	KINNVIKA STATION	259
1091	81.6	-16.67	5.0	NORD	10981
1092	-24.6085	25.91685	5.6	GABORONE,SERETSE KHAMA INTERNATIONAL AI	6466
1093	-22.52485	17.283499999999997	5.6	WINDHOEK,HOSEA KUTAKO INTL A	20028
1094	-17.9585	25.833500000000004	5.6	VICTORIA FALLS,LIVINGSTONE	14079
1095	-17.87515	31.074850000000005	5.6	HARARE (KUTSAGA),HARARE (BELVEDERE)	19508
1096	-17.725	168.3	5.6	VILA (EFATE),BAUERFIELD (EFATE)	20259
1097	-13.771499999999998	33.73350000000001	5.6	LILONGWE INTL AIRPO,LILONGWE	15098
1098	-8.525	126.4835	5.6	KOMORO,BAU CAU	6939
1099	-5.19165	-80.6	5.6	PIURA,PIURA GRUP7	1436
1100	-4.375	15.3415	5.6	KINSHASA/NDJILI,KINSHASA/BINZA	1037
1101	-3.7581499999999997	-73.275	5.6	IQUITOS,MORONA	1396
1102	3.1085000000000003	101.6	5.6	PETALING JAYA,KUALA LUMPUR SUBANG	34224
1103	6.541499999999999	3.3581499999999997	5.6	LAGOS/OSHODI,LAGOS/IKEJA	4663
1104	10.541999999999998	-71.69149999999999	5.6	LA CANADA,MARACAIBO-LA CHINIT	1487
1105	10.898349999999999	106.89335000000001	5.6	AN LOC,BIEN HOA (VVBH)	1065
1106	13.825	100.5835	5.6	BANGKOK METROPOLIS,DON MUANG	59253
1107	15.45	44.1915	5.6	SANAA,SANA'A (CIV/MIL)	2841
1108	16.775	107.1333	5.6	QUANG TRI,DONG HA	1610
1109	21.37485	-157.91685	5.6	BARBERS POINT NAS,KANEOHE BAY (MCAF)	1761
1110	22.56685	120.44149999999999	5.6	DONGGANG (=595530),PINGTUNG SOUTH(AFB)	33375
1111	24.3665	118.258	5.6	CHIANGYANG,CHINMEM/SHATOU(AFB)	10508
1112	25.050150000000002	121.37485	5.6	TAIBEI,TAOYUAN AB	48226
1113	26.6	88.54169999999999	5.6	JALPAIGURI,SILIGURI	21141
1114	30.357999999999997	-9.492	5.6	AGADIR AL MASSIRA,AGADIR INEZGANNE	17056
1115	30.5	-86.5	5.6	HURLBURT FIELD (AF),EGLIN AFB RANGE NO.	777
1116	30.64835	-96.51500000000001	5.6	BRYAN,COLLEGE STATION (BRYAN AFB)	2651
1117	31.899850000000004	34.75815	5.6	ASHDOD NORTH,BEER-YA AQOV TO 401790	4025
1118	33.26345	126.2064	5.6	MOESULPO AB,GOSAN	38973
1119	34.066500000000005	134.6165	5.6	KOMATSUSHIMA AB,TOKUSHIMA AB	5729
1120	34.632999999999996	32.9	5.6	AKROTIRI,EPISKOPI	21901
1121	35.1315	139.7515	5.6	TATEYAMA AB,YOKOSUKA	1947
1122	35.3	-117.2665	5.6	CUDDLEBACK GUNNERY,SUPERIOR VALLEY GUN	6790
1123	36.6665	127.4665	5.6	CHEONGJU,CHEONGJU INTL AIRPO	6428
1124	37.39149999999999	127.01700000000001	5.6	SV RI SAN,SEOUL AB	7063
1125	38.8335	-104.792	5.6	FORT CARSON/BUTTS,AIR FORCE ACADEMY	10010
1126	42.2	42.833000000000006	5.6	SAKARA,KUTAISI	571
1127	42.616499999999995	-92.44149999999999	5.6	WATERLOO,WAVERLY	1548
1128	45.6	25.558	5.6	PREDEAL,BRASOV-GHIMBAV	1501
1129	48.0415	9.075	5.6	NEUHAUSEN OB ECK,SIGMARINGEN	21411
1130	49.85	-97.18315	5.6	WINNIPEG UA,WINNIPEG INT.AIRPOR	16919
1131	50.0869	-119.34164999999999	5.6	KELOWNA UA,VERNON AUTO	32630
1132	50.092	8.8085	5.6	LANGEN,HANAU	1153
1133	50.3165	-104.68350000000001	5.6	BRATT'S LAKE UA,REGINA INTL	6506
1134	53.492000000000004	-113.525	5.6	EDMONTON INTL ARPT,EDMONTON NAMAO ARPT	10372
1135	54.5835	-110.1665	5.6	COLD LAKE,PRIMROSE LAKE	6241
1136	36.7259	-116.002875	6.2	INDIAN SPRINGS GUNN,MERCURY DESERT ROCK AP,JACKASS FLATS,YUCCA FLATS TEST 21	40991
