	latitude	longitude	radius	station	records
0	-80.017	-119.533	5.0	BYRD STN	7679
1	-79.25	-147.5	5.0	LITTLE ROCKFORD	309
2	-78.45	106.867	5.0	VOSTOK	7319
3	-78.4	87.583	5.0	SOVIETSKAVA	273
4	-78.2	-162.25	5.0	LITTLE AMERICA	1612
5	-77.9667	-38.8	5.0	GENERAL BELGRANO	1782
6	-77.7333	-41.1167	5.0	ELLSWORTH IGY	2138
7	-76.2667	-147.5	5.0	LITTLE ROCKFORD	389
8	-72.3	170.2167	5.0	ADARE HALLETT	4373
9	-70.4333	24.3167	5.0	BASE ROI BAUDOUIN	1097
10	-70.317	-2.367	5.0	SANAE	9815
11	-69.73	95.05	5.0	PIONERSKAVA	121
12	-69.5	159.4	5.0	LENINGRADSKAJA	2575
13	-67.667	45.85	5.0	MOLODEZNAJA	13014
14	-66.27	100.73	5.0	BUNGER OASIS	548
15	-65.25	-64.2667	5.0	FARADAY	10141
16	-63.4667	-56.2833	5.0	PETREL NAS	1654
17	-62.183	-58.883	5.0	BELLINGSHAUSEN AWS	6342
18	-60.75	-44.7167	5.0	ISLAS ORCADAS (MET)	8699
19	-59.45	-27.267	5.0	CORBETA URUGUAY DN	275
20	-54.8	-68.3167	5.0	USHUAIA	1943
21	-53.8	-67.75	5.0	RIO GRANDE AIRPORT	3267
22	-52.55	169.15	5.0	CAMPBELL ISLAND	18775
23	-51.6333	-69.2167	5.0	RIO GALLEGOS B. A.	4526
24	-43.483	172.55	5.0	CHRISTCHURCH	31930
25	-43.2333	-65.3	5.0	ALMIRANTE ZAR	1150
26	-42.417	173.7	5.0	KAIKOURA	5055
27	-39.467	175.683	5.0	WAIOURU	2309
28	-38.7333	-62.1667	5.0	COMANDANTE ESPORA	13733
29	-37.017	174.8	5.0	AUCKLAND AIRPORT	23125
30	-35.367	-57.283	5.0	PUNTA INDIO B.A.	151
31	-35.1	173.267	5.0	KAITAIA	14537
32	-34.58	-58.48	5.0	BUENOS AIRES	107
33	-34.017	22.383	5.0	GEORGE AIRPORT	4491
34	-33.033	27.833	5.0	EAST LONDON	3098
35	-32.8833	-68.85	5.0	OBSERV MENDOZA	3075
36	-32.78	-71.51	5.0	QUINTERO (MIL)	28938
37	-31.35	-54.117	5.0	BAGE (AEROPORTO)	1012
38	-30.833	128.1	5.0	FORREST AIRPORT	54264
39	-30.01	131.583	5.0	MARALINGA	7453
40	-28.8	24.767	5.0	KIMBERLEY	9829
41	-28.567	16.533	5.0	KORTDOORN/ALEXANDER	11144
42	-27.4667	-58.9833	5.0	RESISTENCIA	1200
43	-25.783	25.533	5.0	MAFIKENG WO	1154
44	-25.733	28.183	5.0	PRETORIA-EENDRACHT	3937
45	-25.55	45.533	5.0	FAUX-CAP	549
46	-24.667	25.917	5.0	GABORONE	695
47	-23.867	35.383	5.0	INHAMBANE	4808
48	-23.85	151.25	5.0	GLADSTONE	46725
49	-23.617	-46.65	5.0	SAO PAULO	16840
50	-23.383	43.733	5.0	TOLIARA	5308
51	-22.8	47.833	5.0	FARAFANGANA	2385
52	-22.483	17.467	5.0	HOSEA KUTAKO INTL A	7483
53	-21.817	-138.8	5.0	MURUROA	6907
54	-21.75	43.367	5.0	MOROMBE	1328
55	-21.6333	115.1167	5.0	ONSLOW	25950
56	-21.45	47.1	5.0	FIANARANTSOA	1453
57	-21.333	55.483	5.0	ST. PIERRE/FONDS	5723
58	-21.233	-175.15	5.0	FUAAMOTU	5436
59	-21.217	27.5	5.0	FRANCISTOWN	613
60	-21.2	48.367	5.0	MANANJARY	4840
61	-20.7667	-138.55	5.0	TUREIA	271
62	-20.283	44.317	5.0	MORONDAVA	3268
63	-20.233	169.767	5.0	ANEITYUM	125
64	-19.833	48.8	5.0	MAHANORO	1069
65	-19.783	-47.967	5.0	UBERABA	134
66	-19.6	18.117	5.0	GROOTFONTEIN	4094
67	-19.45	29.85	5.0	GWERU	5186
68	-19.28	121.5	5.0	TALGARNO	297
69	-18.9	47.5333	5.0	TANANARIVE/SCM	4211
70	-18.633	26.85	5.0	HWANGE NATIONAL PAR	2189
71	-18.067	-140.95	5.0	HAO	18186
72	-17.917	31.133	5.0	HARARE (KUTSAGA)	926
73	-17.883	36.883	5.0	QUELIMANE	2266
74	-17.817	25.817	5.0	LIVINGSTONE	7670
75	-17.75	168.3	5.0	VILA (EFATE)	12954
76	-17.7333	139.5333	5.0	BURKETOWN	145
77	-17.6833	141.0667	5.0	NORMANTON AIRPORT	229
78	-17.3167	123.6333	5.0	DERBY	7081
79	-17.083	49.817	5.0	SAINTE-MARIE AERODR	681
80	-17.05	42.717	5.0	ILE JUAN DE NOVA	5730
81	-16.833	29.617	5.0	KAROI	4958
82	-16.45	-151.75	5.0	BORA-BORA	11160
83	-16.183	33.583	5.0	TETE	2074
84	-15.683	34.967	5.0	CHILEKA	10079
85	-15.6	-56.1	5.0	CUIABA	443
86	-15.517	167.217	5.0	PEKOA AIRPORT	661
87	-15.417	28.317	5.0	LUSAKA CITY AIRPORT	9588
88	-15.25	23.15	5.0	MONGU	5748
89	-15.2167	12.1667	5.0	MOCAMEDES	1595
90	-15.03	40.67	5.0	LUMBO	2531
91	-15.0	50.333	5.0	ANTALAHA	4654
92	-14.95	-147.659	5.0	RANGIROA	5720
93	-14.95	-40.883	5.0	VITORIA DA CONQUIST	123
94	-14.933	13.567	5.0	LUBANGO	236
95	-14.633	47.767	5.0	ANALALAVA	1607
96	-14.4167	28.4833	5.0	KABWE	12025
97	-14.3667	-170.7833	5.0	LEONE BAY AMERICAN S	359
98	-14.283	50.167	5.0	SAMBAVA	2763
99	-13.8	-171.783	5.0	APIA	10496
100	-13.76	33.7	5.0	LILONGWE	7210
101	-13.75	34.583	5.0	SALIMA	2342
102	-13.733	-76.217	5.0	PISCO	1501
103	-13.367	50.0	5.0	VOHEMAR	807
104	-13.317	48.317	5.0	FASCENE (NOSSI-BE)	786
105	-13.3	35.233	5.0	LICHINGA	1908
106	-13.0	28.65	5.0	NDOLA	2372
107	-12.983	40.533	5.0	PEMBA	3898
108	-12.8	15.75	5.0	HUAMBO	301
109	-12.5	177.05	5.0	ROTUMA	6835
110	-12.37	13.53	5.0	LOBITO	100
111	-12.15	-45.0	5.0	BARREIRAS	1194
112	-12.117	44.433	5.0	OUANI (ANJOUAN)	3271
113	-11.883	33.617	5.0	MZIMBA	4451
114	-11.783	19.917	5.0	LUENA (LUSO)	1995
115	-11.75	24.4333	5.0	MWINLUNGA	2872
116	-11.7	43.233	5.0	MORONI AIRPORT	5231
117	-11.583	47.283	5.0	ILES GLORIEUSES	7379
118	-11.45	34.017	5.0	MZUZU	3655
119	-11.3	-41.867	5.0	IRECE	347
120	-10.917	-37.05	5.0	ARACAJU	417
121	-10.7	-48.4	5.0	PORTO NACIONAL	1005
122	-10.7	152.833	5.0	MISIMA ISLAND	2055
123	-10.7	165.8	5.0	SANTA CRUZ ISLAND	151
124	-10.583	142.217	5.0	THURSDAY IL/HORN IL	21187
125	-10.45	105.7	5.0	CHRISTMAS ISL (PVT)	3447
126	-10.217	31.133	5.0	KASAMA	3135
127	-9.95	33.883	5.0	KARONGA	2595
128	-9.517	-35.783	5.0	MACEIO (AEROPORTO)	133
129	-9.35	46.533	5.0	ALDABRA	143
130	-9.333	-54.967	5.0	CACHIMBO AERO	2176
131	-9.2	124.367	5.0	OE-CUSSIE	498
132	-9.1	-44.117	5.0	BOM JESUS	376
133	-8.933	33.467	5.0	MBEYA	767
134	-8.55	125.55	5.0	DILLI/DILLI AIRPORT	7176
135	-8.367	-74.567	5.0	PUCALLPA	328
136	-7.967	112.7	5.0	MALANG/ABDUL (AFB)	586
137	-7.783	110.433	5.0	ADISUCIPTO/JOGYAKAR	3047
138	-7.633	35.767	5.0	IRINGA	677
139	-7.617	111.517	5.0	MADIUN/ISWAHYUD AFB	3443
140	-7.5167	110.75	5.0	SURAKARTA/ADISUMARM	3567
141	-7.4	20.817	5.0	DUNDO	6240
142	-7.333	108.25	5.0	CIBEUREM/TASIK(AFB)	625
143	-7.317	-39.3	5.0	BARBALHA	334
144	-7.017	-37.267	5.0	PATOS	137
145	-6.9	107.583	5.0	BANDUNG/HUSEIN	2478
146	-6.833	37.65	5.0	MOROGORO	142
147	-6.783	-79.817	5.0	CHICLAYO	1504
148	-6.55	107.667	5.0	KALIJATI	1040
149	-6.267	-57.733	5.0	JACAREACANGA	287
150	-6.167	35.767	5.0	DODOMA	1096
151	-5.5	-45.267	5.0	BARRA DO CORDA	161
152	-5.217	145.783	5.0	MADANG	18232
153	-5.2	-39.3	5.0	QUIXERAMOBIM	334
154	-5.083	32.833	5.0	TABORA AIRPORT	1062
155	-5.083	39.067	5.0	TANGA	776
156	-5.05	-42.817	5.0	TERESINA	313
157	-4.883	29.667	5.0	KIGOMA	112
158	-4.883	38.283	5.0	MOMBO	113
159	-4.567	-81.233	5.0	TALARA	1823
160	-4.45	105.183	5.0	MENGGALA/ASTRA KSET	181
161	-4.217	152.183	5.0	RABAUL	27818
162	-4.1	122.433	5.0	KENDARI/WOLTER MONG	1064
163	-4.05	-154.9833	5.0	MALDEN ISLAND AF	274
164	-4.033	39.617	5.0	MOMBASA	3673
165	-3.783	-73.3	5.0	IQUITOS	705
166	-3.417	37.067	5.0	KILIMANJARO AIRPORT	696
167	-3.4	38.567	5.0	VOI	4508
168	-3.217	40.1	5.0	MALINDI	1769
169	-3.083	-41.783	5.0	PARNAIBA	665
170	-2.533	14.767	5.0	DJAMBALA	1376
171	-2.467	32.917	5.0	MWANZA	383
172	-2.283	37.833	5.0	MAKINDU	5723
173	-1.333	31.817	5.0	BUKOBA	1433
174	-1.133	35.833	5.0	NAROK	4802
175	-0.617	30.65	5.0	MBARARA	114
176	-0.5	37.45	5.0	EMBU	862
177	-0.467	39.633	5.0	GARISSA	7179
178	-0.433	36.967	5.0	NYERI	426
179	-0.367	35.267	5.0	KERICHO	1787
180	-0.267	36.1	5.0	NAKURU	7184
181	-0.1	34.75	5.0	KISUMU	9077
182	0.033	37.033	5.0	NANUYKI	3435
183	0.083	37.65	5.0	MERU	2638
184	0.183	30.1	5.0	KASESE	419
185	0.383	6.717	5.0	S. TOME	5381
186	0.483	35.3	5.0	ELDORET	1687
187	0.683	34.167	5.0	TORORO	264
188	1.017	35.0	5.0	KITALE	9576
189	1.083	154.767	5.0	KAPINGAMARANGI ATOL	487
190	1.617	18.067	5.0	IMPFONDO	986
191	1.683	31.717	5.0	MASINDI	632
192	1.717	33.617	5.0	SOROTI	112
193	1.75	40.067	5.0	WAJIR	3181
194	1.85	-78.767	5.0	TUMACO	344
195	2.033	-56.117	5.0	SIPALIWINI	331
196	2.083	11.483	5.0	BITAM	483
197	2.333	37.983	5.0	MARSABIT	1160
198	3.117	35.617	5.0	LODWAR	8644
199	3.367	-57.333	5.0	COEROENI	254
200	3.533	39.05	5.0	MOYALE	3218
201	3.783	-56.15	5.0	TAFELBERG	228
202	3.833	11.517	5.0	YAOUNDE	7131
203	3.85	-159.367	5.0	FANNING ISLAND	103
204	3.883	-51.8	5.0	SAINT GEORGES	2681
205	3.933	41.867	5.0	MANDERA	3516
206	4.25	15.8	5.0	BERBERATI	2543
207	4.317	21.183	5.0	MOBAYE	150
208	4.35	-54.417	5.0	STOELMANSEILAND	153
209	4.467	14.367	5.0	BATOURI	4064
210	4.733	22.833	5.0	BANGASSOU	2199
211	4.883	-1.767	5.0	TAKORADI	135
212	5.3333	163.0167	5.0	KUSAIE/CAROLINES	1652
213	5.45	-55.2	5.0	ZANDERIJ	2383
214	5.467	100.383	5.0	BUTTERWORTH AB	24729
215	5.55	12.367	5.0	YOKO	1316
216	5.6	-0.1667	5.0	ACCRA/KOTOKA INTL	3276
217	5.65	10.75	5.0	KOUNDJA	5780
218	5.8833	-162.05	5.0	PALMYRA ISLAND	631
219	5.9	43.583	5.0	GODE	237
220	5.917	169.65	5.0	JALUIT ATOLL	130
221	5.95	-57.033	5.0	NICKERIE	382
222	5.967	15.633	5.0	BOUAR	2424
223	6.25	-10.35	5.0	ROBERTS FIELD	1457
224	6.467	7.55	5.0	ENUGU	469
225	6.483	17.433	5.0	BOSSANGOA	3181
226	6.583	3.333	5.0	LAGOS/IKEJA	3244
227	7.233	-70.8	5.0	GUASDUALITO	356
228	7.3	-61.45	5.0	TUMEREMO	451
229	7.383	143.917	5.0	WOLEAI ATOLL	106
230	7.7	28.017	5.0	WAU	717
231	8.4	20.65	5.0	NDELE	2173
232	8.617	-13.2	5.0	LUNGI	1194
233	8.983	1.15	5.0	SOKODE	5401
234	9.417	-5.617	5.0	KORHOGO	11845
235	9.467	170.25	5.0	WOTJE ATOLL	299
236	9.5	-7.567	5.0	ODIENNE	140
237	9.6	105.967	5.0	BA-XUYEN/SOC TRANG	170
238	9.617	6.533	5.0	MINNA	440
239	9.75	-63.183	5.0	MATURIN	1184
240	9.8	125.5	5.0	SURIGAO	347
241	9.817	-70.933	5.0	MENE GRANDE	780
242	9.983	98.617	5.0	RANONG	194
243	10.067	-69.317	5.0	BARQUISIMETO	741
244	10.117	-64.683	5.0	BARCELONA	1459
245	10.5	107.1667	5.0	BARIA (PHUOC LE)	747
246	10.6	-66.983	5.0	CARACAS/MAIQUETIA A	912
247	10.717	115.833	5.0	NENSHA ISL	436
248	10.85	121.033	5.0	CUYO	270
249	10.917	-63.967	5.0	PORLAMAR	739
250	11.233	169.85	5.0	UTIRIK ATOLL M.ISL	577
251	11.3	167.48	5.0	RONGERIK	145
252	11.3167	-12.3	5.0	LABE	3485
253	11.52	165.55	5.0	BIKINI	294
254	11.55	43.15	5.0	DJIBOUTI	2487
255	11.85	13.083	5.0	MAIDUGURI	593
256	11.87	-15.5	5.0	BISSAU	2569
257	12.7	28.433	5.0	EN NAHUD	198
258	12.917	74.883	5.0	MANGALORE/BAJPE	2209
259	13.0667	-9.4833	5.0	KITA	4283
260	13.167	32.667	5.0	AROMA	298
261	13.3	-87.1833	5.0	CHOLUTECA	767
262	13.567	-89.833	5.0	ACAJUTLA	185
263	13.683	44.15	5.0	TAIZ (CIV/MIL)	449
264	13.7	-89.117	5.0	SAN SALVADOR/ILOPAN	689
265	13.75	-60.98	5.0	VIEUX FORT	815
266	13.85	20.85	5.0	ABECHE	4728
267	13.917	-90.817	5.0	SAN JOSE	1220
268	13.917	100.6	5.0	DON MUANG	780
269	13.9667	108.65	5.0	AN KHE (VVAK)	224
270	14.0	108.0167	5.0	PLEIKU AB	698
271	14.033	35.4	5.0	GEDAREF	238
272	14.05	-87.25	5.0	TEGUCIGALPA	5493
273	14.067	-83.367	5.0	PUERTO CABEZAS	4028
274	14.117	93.367	5.0	COCO ISLAND	985
275	14.4	33.483	5.0	WAD MEDANI	269
276	14.482	-11.44	5.0	KAYES/DAG-DAG	16115
277	14.5333	-90.5667	5.0	GUATEMALA CITY	5620
278	14.75	42.967	5.0	HODEIDAH (CIV/MIL)	542
279	14.8	100.617	5.0	LOP BURI	837
280	14.8	120.267	5.0	SUBIC BAY WEATHER	1333
281	15.117	105.783	5.0	PAKSE	590
282	15.117	145.733	5.0	SAIPAN/ISLEY (CGS)	7992
283	15.167	-7.283	5.0	NARA	9645
284	15.283	38.917	5.0	ASMARA	2299
285	15.317	120.383	5.0	CROW VALLEY GUNNERY	3166
286	15.383	73.817	5.0	GOA/DABOLIM AIRPORT	1902
287	15.4167	108.7	5.0	CHU LAI	822
288	15.717	-88.6	5.0	PUERTO BARRIOS	639
289	16.4	107.6833	5.0	HUE/PHU BAI	508
290	16.433	101.15	5.0	PHETCHABUN	401
291	16.533	80.8	5.0	VIJAYAWADA/GANNAVA	8012
292	16.55	104.65	5.0	SAVANNAKHET	508
293	16.55	111.617	5.0	HOANG SA (PATTLE)	417
294	16.633	-11.4	5.0	KIFFA	4608
295	16.7333	-9.6333	5.0	AIOUN ELATROUSS	4231
296	16.883	42.583	5.0	GIZAN	1629
297	16.9	96.183	5.0	MINGALADON	945
298	17.417	104.783	5.0	NAKHON PHANOM	2528
299	17.7	33.967	5.0	ATBARA	361
300	17.9	-62.85	5.0	ST. BARTHELEMY	4048
301	17.95	102.567	5.0	VIENTIANE	2162
302	18.0	19.167	5.0	FAYA	2999
303	18.3	42.8	5.0	KHAMIS MUSHAIT	11138
304	18.433	1.35	5.0	KIDAL	5839
305	19.05	-69.3833	5.0	SABANA DE LA MAR	4059
306	19.1	108.617	5.0	DONGFANG	6890
307	19.883	102.133	5.0	LUANG-PRABANG	472
308	20.45	121.967	5.0	BASCO	867
309	20.667	58.9	5.0	MASIRAH	514
310	20.883	95.9	5.0	MEIKTILA	5141
311	20.899	-156.43	5.0	KAHULUI ARPT/MAUI	19540
312	21.217	110.4	5.0	ZHANJIANG	5208
313	21.3	99.617	5.0	KENGTUNG	231
314	21.3167	-158.0667	5.0	BARBERS POINT NAS	329
315	21.45	-71.15	5.0	TURKS ISLAND	10548
316	22.0	120.75	5.0	467590	4646
317	22.367	106.75	5.0	LONGZHOU	4011
318	22.37	-73.03	5.0	MAYAGUAN	1160
319	22.45	70.083	5.0	JAMNAGAR	895
320	22.467	120.433	5.0	DONGGANG (=595530)	21904
321	22.5	103.95	5.0	HEKOU	13535
322	22.75	-12.483	5.0	ZOUERATE	2072
323	22.767	81.9	5.0	PENDRA ROAD	5308
324	22.783	115.367	5.0	SHANWEI	2322
325	22.95	120.217	5.0	TAINAN (TW-AFB)	6094
326	23.217	113.483	5.0	GUANGZHOU	28004
327	23.467	120.383	5.0	CHIAYI (TW-AFB)	6409
328	23.8167	5.15	5.0	IN AMGUEL	144
329	23.8833	100.0833	5.0	LINCANG	2076
330	24.067	105.067	5.0	GUANGNAN	5390
331	24.183	120.65	5.0	TAICHUNG (TW-AFB)	4776
332	24.217	23.3	5.0	KUFRA	6321
333	24.267	9.467	5.0	DJANET	6261
334	24.35	109.4	5.0	LIUZHOU	4445
335	24.583	73.7	5.0	UDAIPUR	1174
336	24.7	46.733	5.0	RIYADH OBS.	11578
337	24.8333	113.5	5.0	CHU CHIANG	1393
338	25.0167	102.8333	5.0	KAN-HAI-TZU	598
339	25.067	121.233	5.0	TAOYUAN AB	13298
340	25.233	-11.617	5.0	BIR MOGHREIN	5175
341	25.2667	-76.3	5.0	ELEUTHERA ISLAND	6389
342	25.3667	97.4	5.0	MYITKYINA	3942
343	25.433	105.183	5.0	XINGREN	4750
344	25.433	106.767	5.0	LUODIAN	3236
345	25.5	28.967	5.0	DAKHLA	4922
346	25.517	119.783	5.0	PINGTAN	3181
347	25.5667	91.8833	5.0	SHILLONG S06 03Z	280
348	25.8	21.133	5.0	TAZERBO	3989
349	25.85	116.367	5.0	CHANGTING	5057
350	25.9	-81.7167	5.0	DELTA SEVEN	436
351	25.967	108.533	5.0	RONGJIANG	2499
352	26.15	119.95	5.0	MAZU (=588490)	4062
353	26.2	36.483	5.0	AL-WEJH	5395
354	26.267	50.167	5.0	DHAHRAN	17304
355	26.5	8.417	5.0	ILLIZI	502
356	26.6167	-78.3667	5.0	GOLD ROCK CREEK	13583
357	26.717	92.8	5.0	TEZPUR/BINDUKURI	424
358	26.717	127.783	5.0	IEJIMA AUXILIARY AB	1571
359	26.983	84.85	5.0	RAXAUL	1140
360	27.117	114.967	5.0	JIAN	4747
361	27.3	105.233	5.0	BIJIE	1335
362	27.333	120.2	5.0	FUDING	4348
363	27.65	-81.333	5.0	AVON PARK GUNNERY R	11151
364	27.6667	98.3833	5.0	LA WANG/TZUKEI	857
365	27.7	85.367	5.0	KATHMANDU AIRPORT	651
366	27.95	-80.5667	5.0	VALKARIA	798
367	27.95	108.25	5.0	SINAN	3144
368	28.05	9.633	5.0	IN-AMENAS	12360
369	28.083	30.733	5.0	MINYA	2596
370	28.333	28.867	5.0	BAHARIA	5180
371	28.45	98.883	5.0	DEQEN	6169
372	28.45	121.883	5.0	DACHEN DAO	18781
373	28.633	87.083	5.0	TINGRI	4882
374	28.833	108.767	5.0	YOUYANG	169
375	28.883	-118.3	5.0	ISLA GUADALUPE	13025
376	29.0	135.0	5.0	OCEAN WEATHER SHIP T	5347
377	29.033	21.567	5.0	JALO	3469
378	29.033	101.5	5.0	JIULONG	1437
379	29.05	111.683	5.0	CHANGDE	4719
380	29.117	15.933	5.0	HON	3794
381	29.25	0.283	5.0	TIMIMOUN	9666
382	29.3	117.2	5.0	JINGDEZHEN	5385
383	29.3333	-89.4	5.0	BOOTHVILLE WSCMO CIT	25889
384	29.383	113.083	5.0	YUEYANG	4823
385	29.55	34.95	5.0	EILAT	6192
386	29.5667	94.4667	5.0	NYINGCHI	6509
387	29.6833	-85.35	5.0	CAPE SAN BLAS SITE D 3	2507
388	29.75	24.533	5.0	GIARABUB	2551
389	29.967	-95.35	5.0	HOUSTON/INTERCONTIN	1796
390	30.033	122.117	5.0	DINGHAI	3697
391	30.05	101.967	5.0	KANGDING	3716
392	30.133	-2.167	5.0	BENI-ABBES	7838
393	30.133	9.5	5.0	GHADAMES	5808
394	30.167	35.783	5.0	MAAN	595
395	30.3667	-89.5833	5.0	NASA MISS. TEST	1068
396	30.383	-9.567	5.0	AGADIR INEZGANNE	14085
397	30.383	13.583	5.0	GARIAT EL-SHARGHIA	688
398	30.483	140.3	5.0	TORISHIMA	6556
399	30.517	47.783	5.0	BASRAH-HUSSEN	2290
400	30.717	20.167	5.0	AGEDABIA	3757
401	30.8	106.083	5.0	NANCHONG	8082
402	30.933	-6.9	5.0	OUARZAZATE	8186
403	31.017	46.233	5.0	NASIRIYA	750
404	31.033	-93.033	5.0	FORT POLK (ARMY)	1222
405	31.1	-97.717	5.0	FT HOOD AAF/KILLEEN	2923
406	31.183	-92.633	5.0	CLAIBORNE RNG (AFS)	3303
407	31.2	16.583	5.0	SIRTE	2738
408	31.233	34.783	5.0	BEER-SHEVA	2318
409	31.283	32.233	5.0	PORT SAID/EL GAMIL	1814
410	31.367	90.017	5.0	BAINGOIN	11427
411	31.367	130.833	5.0	KANOYA AB	464
412	31.58	-84.12	5.0	ALBANY	658
413	31.583	-110.333	5.0	FORT HUACHUCA	9251
414	31.617	-8.033	5.0	MARRAKECH	9944
415	31.683	9.3	5.0	EL BORMA	1728
416	31.867	-81.633	5.0	FORT STEWART RESERV	3618
417	31.867	10.983	5.0	NALUT	2037
418	31.867	93.767	5.0	SOG XIAN	7101
419	31.867	117.233	5.0	HEFEI	9149
420	31.9	102.233	5.0	BARKAM	6148
421	31.933	-4.4	5.0	ERRACHIDIA	6598
422	31.933	34.833	5.0	BEER-YA AQOV TO 401790	2572
423	31.9333	5.4	5.0	OUARGLA	2887
424	31.983	35.983	5.0	AMMAN AIRPORT	1315
425	32.067	108.033	5.0	WANYUAN	3574
426	32.1	23.933	5.0	TOBRUK	7553
427	32.133	114.05	5.0	XINYANG	7884
428	32.1667	-110.8833	5.0	TUCSON (DAVIS-MONTHAN AFB)	236
429	32.2167	-98.1833	5.0	STEPHENVILLE	15234
430	32.283	-9.233	5.0	SAFI	1179
431	32.317	10.4	5.0	REMADA	9738
432	32.333	-84.833	5.0	FORT BENNING	3790
433	32.35	-94.65	5.0	LONGVIEW WSMO	14445
434	32.383	111.667	5.0	GUANGHUA	3239
435	32.417	15.05	5.0	MISURATA	1073
436	32.5	-106.4167	5.0	FRYE SITE	155
437	32.5	80.067	5.0	SHIQUANHE	10631
438	32.55	35.85	5.0	IRBED	691
439	32.683	-4.733	5.0	MIDELT	2966
440	32.717	133.017	5.0	SHIMIZU	5015
441	32.8	21.883	5.0	SHAHAT	1530
442	32.817	-115.683	5.0	EL CENTRO NAF	1361
443	32.883	12.083	5.0	ZUARA	2793
444	32.9	-87.25	5.0	CENTREVILLE WSMO	14447
445	32.917	129.917	5.0	NAGASAKI AIRPORT	506
446	32.967	114.05	5.0	ZHUMADIAN	6626
447	33.033	40.283	5.0	RUTBAH	2392
448	33.15	130.3	5.0	SAGA AIRPORT	499
449	33.167	-106.5	5.0	WHITE SANDS MISSILE	1539
450	33.233	126.25	5.0	MOESULPO AB	17945
451	33.4	-117.5	5.0	CAMP PENDLETON	207
452	33.583	102.967	5.0	RUOERGAI	2991
453	33.65	-101.8167	5.0	LUBBOCK/MUNI (TEX)	693
454	33.683	1.0	5.0	EL-BAYADH	10962
455	33.783	114.517	5.0	XIHUA	6675
456	33.8	-106.6667	5.0	STALLION SITE	610
457	33.8	99.8	5.0	DARLAG	12064
458	33.85	-80.483	5.0	POINSETT RANGE	3637
459	33.883	-5.533	5.0	MEKNES	2167
460	33.95	-83.3167	5.0	ATHENS BEN EPPS AP	28581
461	33.95	92.617	5.0	TUOTUOHE	11291
462	33.98	-98.5	5.0	WICHITA FALLS	113
463	34.0	134.633	5.0	KOMATSUSHIMA AB	445
464	34.0	164.0	5.0	OCEAN WEATHER SHIP V	12375
465	34.05	131.05	5.0	OZUKI AB	303
466	34.15	132.22	5.0	IWAKUNI	2734
467	34.217	-4.0	5.0	TAZA	2441
468	34.217	62.217	5.0	HERAT	1107
469	34.3	-103.8	5.0	MELROSE GUNNERY RAN	151
470	34.417	8.817	5.0	GAFSA	20537
471	34.583	105.75	5.0	TIANSHUI	6899
472	34.6	138.217	5.0	OMAEZAKI	4148
473	34.65	-99.2667	5.0	ALTUS AFB (OKLA)	2675
474	34.683	32.817	5.0	EPISKOPI	4391
475	34.6833	3.25	5.0	DJELFA	9814
476	34.783	-1.95	5.0	OUJDA	7639
477	34.85	119.133	5.0	GANYU	7452
478	34.917	98.217	5.0	MADOI	6085
479	34.933	136.583	5.0	YOKKAICHI	4758
480	35.083	128.083	5.0	SACHEON AB	8441
481	35.117	36.75	5.0	HAMA	741
482	35.133	-78.933	5.0	FORT BRAGG/SIMMONS	159
483	35.169	128.934	5.0	GIMHAE INTL AIRPORT	5577
484	35.183	-3.85	5.0	AL HOCEIMA	4040
485	35.217	93.083	5.0	WUDAOLIANG	5083
486	35.2667	-116.0833	5.0	BAKER	592
487	35.281	-116.63	5.0	BICYCLE LAKE (AAF)	1660
488	35.3333	-94.3667	5.0	FT SMITH CAMP CHAFFEE	5244
489	35.35	1.467	5.0	TIARET	280
490	35.417	8.117	5.0	TEBESSA	6009
491	35.533	35.767	5.0	LATTAKIA	458
492	35.55	8.683	5.0	THALA	10938
493	35.667	-75.9	5.0	DARE COUNTY GUNNERY	5845
494	35.667	10.1	5.0	KAIROUAN	22918
495	35.733	-5.9	5.0	TANGER (AERODROME)	389
496	35.8	140.017	5.0	SHIMOFUSA AB	467
497	35.9	62.9667	5.0	TAGTABAZAR	13721
498	35.9	128.65	5.0	DAEGU AB	5685
499	35.933	39.017	5.0	RAQQA	252
500	35.9667	-116.2667	5.0	SHOSHONE	313
501	35.967	-89.95	5.0	BLYTHEVILLE AFB	1375
502	35.983	129.417	5.0	POHANG AB	862
503	36.05	114.4	5.0	ANYANG	7228
504	36.183	5.25	5.0	SETIF	5598
505	36.183	118.15	5.0	YIYUAN	6101
506	36.217	1.333	5.0	CHLEF	3213
507	36.3	2.233	5.0	MILIANA	14988
508	36.317	43.15	5.0	MOSUL	884
509	36.333	37.217	5.0	ALEPPO INT. AEROPOR	18332
510	36.4	139.067	5.0	MAEBASHI	5175
511	36.483	8.8	5.0	JENDOUBA	19808
512	36.533	-115.667	5.0	INDIAN SPRINGS GUNN	335
513	36.617	128.35	5.0	YECHEON AB	5663
514	36.7	119.1167	5.0	WEI HSIEN	254
515	36.717	5.067	5.0	BEJAIA-AEROPORT	12372
516	36.767	126.467	5.0	SEOSAN	566
517	36.85	11.083	5.0	KELIBIA	18563
518	36.867	30.733	5.0	ANTALYA	1476
519	36.883	6.9	5.0	SKIKDA	639
520	36.8833	-93.9	5.0	MONETT	18071
521	36.95	8.75	5.0	TABARKA	4939
522	37.017	-7.967	5.0	FARO/AEROPORTO	1831
523	37.05	41.217	5.0	KAMISHLI	136
524	37.0667	-88.7667	5.0	PADUCAH BARKLEY FLD	4390
525	37.1	-113.6	5.0	ST. GEORGE	591
526	37.1	128.8667	5.0	SANGDONG	294
527	37.233	9.817	5.0	BIZERTE	7207
528	37.233	67.267	5.0	TERMEZ	20099
529	37.3167	-121.8667	5.0	SAN JOSE/EMSU	188
530	37.317	97.217	5.0	DELINGHA	10750
531	37.4	122.683	5.0	CHENGSHANTOU	15581
532	37.433	-105.867	5.0	ALAMOSA MUNI(AWOS)	921
533	37.433	127.95	5.0	WONJU AB	6345
534	37.467	53.967	5.0	ESENGYLY	36098
535	37.4833	116.3667	5.0	TE HSIEN/TECHOW	498
536	37.5	71.5	5.0	KHOROG	28898
537	37.617	120.317	5.0	LONGKOU	8328
538	37.75	128.95	5.0	GANGNEUNG AB	6015
539	37.783	-81.117	5.0	BECKLEY	114
540	37.783	-0.8	5.0	MURCIA/SAN JAVIER	1000
541	37.85	91.65	5.0	MANGYA	1192
542	37.85	95.367	5.0	DA-QAIDAM	5439
543	37.917	139.05	5.0	NIIGATA	2033
544	37.93	83.65	5.0	ANDIR	14362
545	38.0	-71.0	5.0	OCEAN WEATHER SHIP H	3274
546	38.05	-103.52	5.0	LA JUNTA	164
547	38.2	15.55	5.0	MESSINA	5442
548	38.283	-104.5	5.0	PUEBLO MEMORIAL(AW)	1430
549	38.373	-81.6	5.0	YEAGER	1619
550	38.417	-113.017	5.0	MILFORD MUNICIPAL	774
551	38.433	77.267	5.0	SHACHE	15714
552	38.65	-88.9667	5.0	SALEM LECKRONE AP	15223
553	38.733	48.833	5.0	LANKARAN	33653
554	38.733	115.483	5.0	BAODING	9153
555	38.8	-97.63	5.0	SALINA	3551
556	38.817	35.433	5.0	KAYSERI/ERKILET	1942
557	38.833	93.383	5.0	LENGHU	15645
558	38.87	-98.82	5.0	RUSSELL	284
559	39.1	-96.767	5.0	FT RILEY/MARSHALL A	1222
560	39.1	107.983	5.0	OTOG QI	9443
561	39.2	45.417	5.0	NAXCIVAN	914
562	39.283	109.75	5.0	CHASAKOCHI	3515
563	39.383	111.15	5.0	HEQU	8713
564	39.45	-74.6667	5.0	ATLANTIC CITY U-A	10118
565	39.6667	118.1167	5.0	TANG SHAN	251
566	39.783	105.75	5.0	JARTAI	9470
567	39.8	78.567	5.0	BACHU	9060
568	39.867	4.233	5.0	MENORCA/MAHON	165
569	39.983	46.75	5.0	KHANKANDY	657
570	40.1	113.333	5.0	DATONG	8658
571	40.12	-103.17	5.0	AKRON	214
572	40.2	-8.417	5.0	COIMBRA	458
573	40.217	69.733	5.0	KHUDJAND	382
574	40.267	97.033	5.0	YUMENZHEN	2942
575	40.433	-80.0	5.0	PITTSBURGH/EMSU	544
576	40.55	70.95	5.0	KOKAND	7416
577	40.617	47.15	5.0	EVLAKH AIRPORT	164
578	40.633	87.7	5.0	TIKANLIK	16175
579	40.65	-73.7833	5.0	NEW YORK JFK AP	24923
580	40.6667	-89.6833	5.0	PEORIA GTR PEORIA AP	29195
581	40.717	46.417	5.0	GANDJA	818
582	40.783	43.833	5.0	GUMRI	147
583	40.85	35.583	5.0	MERZIFON	1796
584	40.917	72.95	5.0	DZHALAL-ABAD	30741
585	40.933	78.45	5.0	AKQI	5651
586	40.95	-5.5	5.0	SALAMANCA/MATACAN	173
587	40.967	117.917	5.0	CHENGDE	6676
588	40.97	107.17	5.0	XAMBA	1094
589	41.1167	122.95	5.0	AN SHAN	362
590	41.22	-103.1	5.0	SYDNEY	677
591	41.233	-8.683	5.0	PORTO/PEDRAS RUBRAS	1615
592	41.25	-76.917	5.0	WILLIAMSPORT/LYCOMI	463
593	41.26	80.3	5.0	WEN-SU	9162
594	41.433	76.0	5.0	NARYN	13926
595	41.45	31.8	5.0	ZONGULDAK	304
596	41.45	106.383	5.0	HAILS	4738
597	41.55	46.667	5.0	ZAKATALA	424
598	41.633	41.6	5.0	BATUMI	7554
599	41.65	-70.5167	5.0	FALMOUTH OTIS AFB	383
600	41.65	25.367	5.0	KURDJALI	9983
601	41.7	-86.3167	5.0	SOUTH BEND ST JOSEPH	612
602	41.717	-4.85	5.0	VALLADOLID/VILLANUB	206
603	41.733	64.617	5.0	TAMDY	24209
604	41.75	103.9667	5.0	PANG-TING-TO-TO-KAI	1057
605	41.7833	95.1333	5.0	XING-XING-XIA	122
606	41.8	12.233	5.0	ROMA FIUMICINO	25186
607	41.8667	-103.5833	5.0	SCOTTSBLUFF AAF	987
608	42.0833	-91.6167	5.0	CEDAR RAPIDS ECHO SI	1310
609	42.2	-1.45	5.0	BARDENAS REALES	4866
610	42.217	-75.983	5.0	BINGHAMTON/BROOME C	109
611	42.4	112.9	5.0	JURH	11935
612	42.45	-2.333	5.0	LOGRONO/AGONCILLO	349
613	42.583	-5.65	5.0	LEON/VIRGEN DEL CAM	200
614	42.7	-68.3	5.0	ENVIRONM BUOY 44005	574
615	42.917	-106.467	5.0	CASPER/NATRONA COUN	1420
616	42.933	89.2	5.0	TURPAN	10824
617	42.9667	-83.75	5.0	FLINT BISHOP AP	29048
618	43.0	1.1	5.0	SAINT GIRONS	158
619	43.2	107.167	5.0	HANBOGD	2539
620	43.417	6.75	5.0	SAINT-RAPHAEL	230
621	43.467	-1.533	5.0	BIARRITZ	1055
622	43.483	91.633	5.0	SHISANJIANFANG	15467
623	43.517	16.433	5.0	SPLIT/MARJAN	4568
624	43.583	-118.95	5.0	BURNS MUNI (AMOS)	1705
625	43.6	118.067	5.0	LINXI	3300
626	43.633	1.367	5.0	TOULOUSE BLAGNAC	1937
627	43.65	7.2	5.0	NICE	437
628	43.683	-1.067	5.0	DAX	328
629	43.75	24.883	5.0	TR. MAGURELE	218
630	43.88	-69.93	5.0	BRUNSWICK	965
631	43.917	-0.5	5.0	MONT-DE-MARSAN	166
632	43.983	119.4	5.0	LINDONG	4651
633	44.017	89.567	5.0	QITAI	9992
634	44.017	145.867	5.0	JUZHNO-KURILSK	37102
635	44.167	80.067	5.0	ZHARKENT	23543
636	44.317	23.867	5.0	CRAIOVA	548
637	44.55	50.25	5.0	FORT SHEVCHENKO	1177
638	44.567	129.6	5.0	MUDANJIANG	4789
639	44.583	4.733	5.0	MONTELIMAR	189
640	44.583	117.6	5.0	XI UJIMQIN QI	8443
641	44.617	82.9	5.0	JINGHE	10505
642	44.617	114.15	5.0	NARAN BULAG	14093
643	44.633	22.633	5.0	DROBETA TURNU SEVER	953
644	44.7833	20.5333	5.0	BEOGRAD/SELENO BRD	8769
645	44.9	110.117	5.0	SAINSHAND	17817
646	45.0	-16.0	5.0	OCEAN WEATHER SHIP K	2558
647	45.0	136.6	5.0	TERNEJ	35417
648	45.067	-83.567	5.0	ALPENA/PHELPS COLLI	111
649	45.15	26.817	5.0	BUZAU	652
650	45.15	29.667	5.0	SULINA	178
651	45.3	-82.8	5.0	ENVIRONM BUOY 45003	574
652	45.467	-73.733	5.0	MONTREAL/TRUDEAU INT	17827
653	45.5	28.2	5.0	GALATI	7351
654	45.667	-0.317	5.0	COGNAC	356
655	45.767	21.25	5.0	TIMISOARA	862
656	45.767	106.283	5.0	MANDALGOBI	3030
657	45.783	24.083	5.0	SIBIU	813
658	45.817	-73.433	5.0	LASSOMPTION CDA	104
659	45.833	24.933	5.0	FAGARAS	154
660	45.867	1.183	5.0	LIMOGES	190
661	45.867	22.9	5.0	DEVA	887
662	46.0	18.233	5.0	PECS/POGANY	127
663	46.167	21.317	5.0	ARAD	7175
664	46.18	45.35	5.0	YASHKUL	3336
665	46.2	150.5	5.0	URUP	29544
666	46.22	122.05	5.0	ULANHOT	2278
667	46.374	-117.015	5.0	LEWISTON NEZ PERCE	432
668	46.5	121.36	5.0	TE-PO-SU-K/-MIAO	11684
669	46.533	24.533	5.0	TG. MURES	1169
670	46.583	26.983	5.0	BACAU	1500
671	46.767	-56.167	5.0	SAINT-PIERRE	690
672	46.8	75.083	5.0	BALHASH	36009
673	46.817	130.333	5.0	CHIAMUSSU	2815
674	46.85	1.7167	5.0	CHATEAUROUX	5082
675	46.85	151.8667	5.0	SIMUSIR	4608
676	46.9667	-122.9	5.0	OLYMPIA MUN I AP	1217
677	47.033	21.9	5.0	ORADEA	822
678	47.15	-1.6	5.0	NANTES	256
679	47.167	27.633	5.0	IASI	1100
680	47.267	5.083	5.0	DIJON	234
681	47.267	16.633	5.0	SZOMBATHELY	183
682	47.383	123.917	5.0	QIQIHAR	17927
683	47.45	101.467	5.0	TSETSERLEG	2069
684	47.567	-59.15	5.0	PORT-AUX-BASQUES	2303
685	47.633	26.25	5.0	SUCEAVA	513
686	47.667	23.5	5.0	BAIA MARE	1152
687	47.717	22.883	5.0	SATU MARE	1507
688	47.75	96.85	5.0	ULIASTAI	1923
689	47.8	3.55	5.0	AUXERRE	185
690	47.95	-97.4	5.0	GRAND FORKS AFB	517
691	47.983	8.9	5.0	NEUHAUSEN OB ECK	13874
692	48.017	91.567	5.0	HOVD	3097
693	48.07	5.03	5.0	CHAUMONT	4616
694	48.183	-103.633	5.0	WILLISTON/SLOULIN F	460
695	48.55	-109.767	5.0	HAVRE (AMOS)	690
696	48.65	144.75	5.0	M. TERPENIYA (FL)	7763
697	48.667	116.817	5.0	XIN BARAG YOUQI	12550
698	48.7	-8.9167	5.0	ENVIRONM BUOY 62027	215
699	48.8	103.55	5.0	BULGAN	2639
700	48.917	106.067	5.0	BARUUNHARAA	2895
701	49.067	20.25	5.0	POPRAD/TATRY	15541
702	49.2	-123.167	5.0	VANCOUVER INT. AIRP	14056
703	49.3	4.033	5.0	REIMS	179
704	49.383	11.167	5.0	FEUCHT(USA-AF)	1528
705	49.633	-112.8	5.0	LETHBRIDGE AWOS	9936
706	49.65	7.3	5.0	BAUMHOLDER (USA-AF)	1342
707	49.7	11.95	5.0	GRAFENWOEHR	3151
708	49.75	10.2	5.0	KITZINGEN AAF	631
709	49.9	-97.233	5.0	WINNIPEG INT.AIRPOR	16336
710	49.95	6.57	5.0	BITBURG	3760
711	50.0	88.667	5.0	KOS-AGAC	10486
712	50.017	155.4	5.0	M. VASILYEV	34757
713	50.133	1.833	5.0	ABBEVILLE	116
714	50.133	65.233	5.0	AMANGELDY	15887
715	50.233	-119.283	5.0	VERNON AUTO	15732
716	50.28	21.43	5.0	MIELEC	738
717	50.383	-102.683	5.0	BROADVIEW	8722
718	50.433	-104.667	5.0	REGINA INTL	6105
719	50.8667	7.1333	5.0	KOLN/BONN	1759
720	51.083	-0.217	5.0	CRAWLEY	37592
721	51.1	-100.05	5.0	DAUPHIN AIRPORT	2648
722	51.11	13.67	5.0	WAHNSDORF	40165
723	51.117	-114.017	5.0	CALGARY INTL	15534
724	51.133	-106.583	5.0	ELBOW CS	165
725	51.1333	71.3667	5.0	CELINOGRAD	167
726	51.1833	40.7	5.0	KAMENNAYA STEP NO2	6225
727	51.25	51.4	5.0	URALSK	34602
728	51.4	-3.35	5.0	CARDIFF-WALES ARPT	890
729	51.517	-109.183	5.0	KINDERSLEY ARPT	914
730	51.717	126.65	5.0	HUMA	6620
731	51.733	6.267	5.0	KALKAR	3052
732	51.85	10.7667	5.0	WERNIGERODE	9806
733	52.05	29.25	5.0	MOZYR (AMOS)	6912
734	52.167	-106.717	5.0	SASKATOON DIEFENBAKE	2309
735	52.267	7.433	5.0	NORDHORN	5346
736	52.417	16.85	5.0	POZNAN	31288
737	52.433	-114.917	5.0	ROCKY MTN HOUSE	1475
738	52.5	-20.0	5.0	OCEAN WEATHER SHIP J	2559
739	52.8	-2.667	5.0	SHAWBURY	561
740	53.05	158.33	5.0	NIKOLAEVKA	127
741	53.067	132.983	5.0	EKIMCHAN	29232
742	53.2	-70.9	5.0	NITCHEQUON	15444
743	53.217	-105.667	5.0	PRINCE ALBERT ARPT	9605
744	53.6167	109.6333	5.0	BARGUZIN	6508
745	53.7333	87.1833	5.0	ABAGUR	181
746	53.833	-89.867	5.0	TROUT LAKE	15743
747	53.85	-94.65	5.0	ISLAND LAKE ARPT	4067
748	53.883	-122.667	5.0	PRINCE GEORGE	30854
749	53.9	-166.53	5.0	DUTCH HARBOR	2953
750	54.2	16.1833	5.0	KOSZALIN	1537
751	54.3	-1.533	5.0	LEEMING	777
752	54.383	10.15	5.0	KEIL/HOLTENAU	15248
753	54.8	105.167	5.0	ZHIGALOVO	35584
754	55.283	-114.783	5.0	SLAVE LAKE AIRPORT	13183
755	55.317	-3.2	5.0	ESKDALEMUIR	233
756	56.0	92.883	5.0	KRASNOYARSK	40900
757	56.433	-2.867	5.0	SHANWELL	35061
758	56.483	21.017	5.0	LIEPAJA	26905
759	56.65	-111.217	5.0	FORT MCMURRAY ARPT	11470
760	57.1	9.867	5.0	FLYVESTATION AALBOR	4824
761	57.2	-2.217	5.0	ABERDEEN/DYCE AIRPO	421
762	57.58	39.58	5.0	JAROSLAVL	529
763	58.183	12.15	5.0	TORPABRON	288
764	59.0	-19.0	5.0	OCEAN WEATHER SHIP I	2647
765	59.933	30.317	5.0	LENINGRAD/CHOSSEYNOR	254
766	61.267	108.2	5.0	ERBOGACEN	35974
767	61.95	160.8667	5.0	GIZIGA	28015
768	62.1	42.9	5.0	SENKURSK	255
769	62.7833	148.1333	5.0	SUSUMAN	12807
770	62.85	149.76	5.0	SHTURMOVOY	2661
771	64.0	-145.733	5.0	FT GREELY/ALLEN AAF	1398
772	64.683	170.417	5.0	MARKOVO	33706
773	64.917	77.817	5.0	TARKO-SALE	33211
774	66.0	2.0	5.0	OCEAN WEATHER SHIP M	2031
775	66.567	-145.267	5.0	FORT YUKON	133
776	67.47	86.57	5.0	IGARKA	13709
777	68.1	-165.7667	5.0	CAPE THOMPSON	100
778	68.23	-135.0	5.0	AKLAVIK	7053
779	68.47	73.6	5.0	MYS KAMENNY	29022
780	68.65	43.3	5.0	KANIN NOS	4393
781	69.4	86.17	5.0	DUDINKA	5076
782	70.1333	-143.6333	5.0	BARTER ISLAND WSO AP	25677
783	70.45	-68.55	5.0	CLYDE RIVER	13851
784	70.967	-178.65	5.0	OSTROV VRANGELYA	29474
785	72.0	-125.27	5.0	SACHS HARBOUR	22298
786	73.2	143.533	5.0	MYS SHALAUROVA	27652
787	73.33	70.03	5.0	IM POPOVA	11828
788	74.67	112.93	5.0	OSTROV PREOBRAZHENIA	28488
789	76.15	152.83	5.0	OSTROV ZOHOVA	20328
790	76.1833	62.5667	5.0	RUSSKAJA GAVAN	246
791	77.23	-62.33	5.0	THULE	119
792	77.5	82.23	5.0	OSTROV UEDINENIA	24206
793	78.0667	13.6333	5.0	ISFJORD RADIO	1297
794	79.5	76.98	5.0	OSTROV VIZE	26148
795	80.05	18.3	5.0	KINNVIKA STATION	259
796	81.6	-16.67	5.0	NORD	10981
797	-8.525	126.4835	5.6	KOMORO,BAU CAU	6939
798	-4.375	15.3415	5.6	KINSHASA/NDJILI,KINSHASA/BINZA	1037
799	3.1085000000000003	101.6	5.6	PETALING JAYA,KUALA LUMPUR SUBANG	34224
800	10.541999999999998	-71.69149999999999	5.6	LA CANADA,MARACAIBO-LA CHINIT	1487
801	10.898349999999999	106.89335000000001	5.6	AN LOC,BIEN HOA (VVBH)	1065
802	15.45	44.1915	5.6	SANAA,SANA'A (CIV/MIL)	2841
803	16.775	107.1333	5.6	QUANG TRI,DONG HA	1610
804	24.3665	118.258	5.6	CHIANGYANG,CHINMEM/SHATOU(AFB)	10508
805	30.5	-86.5	5.6	HURLBURT FIELD (AF),EGLIN AFB RANGE NO.	777
806	30.64835	-96.51500000000001	5.6	BRYAN,COLLEGE STATION (BRYAN AFB)	2651
807	35.1315	139.7515	5.6	TATEYAMA AB,YOKOSUKA	1947
808	35.3	-117.2665	5.6	CUDDLEBACK GUNNERY,SUPERIOR VALLEY GUN	6790
809	36.6665	127.4665	5.6	CHEONGJU,CHEONGJU INTL AIRPO	6428
810	36.875	-116.15835	5.6	JACKASS FLATS,YUCCA FLATS TEST 21	14158
811	37.39149999999999	127.01700000000001	5.6	SV RI SAN,SEOUL AB	7063
812	38.8335	-104.792	5.6	FORT CARSON/BUTTS,AIR FORCE ACADEMY	10010
813	42.2	42.833000000000006	5.6	SAKARA,KUTAISI	571
814	42.616499999999995	-92.44149999999999	5.6	WATERLOO,WAVERLY	1548
815	45.6	25.558	5.6	PREDEAL,BRASOV-GHIMBAV	1501
816	50.092	8.8085	5.6	LANGEN,HANAU	1153
817	53.492000000000004	-113.525	5.6	EDMONTON INTL ARPT,EDMONTON NAMAO ARPT	10372
