	latitude	longitude	radius	station	records
0	-80.017	-119.533	5.0	BYRD STN	7679
1	-79.25	-147.5	5.0	LITTLE ROCKFORD	309
2	-78.45	106.867	5.0	VOSTOK	7319
3	-78.4	87.583	5.0	SOVIETSKAVA	273
4	-76.2667	-147.5	5.0	LITTLE ROCKFORD	389
5	-72.3	170.2167	5.0	ADARE HALLETT	4373
6	-70.4333	24.3167	5.0	BASE ROI BAUDOUIN	1097
7	-70.317	-2.367	5.0	SANAE	9815
8	-69.73	95.05	5.0	PIONERSKAVA	121
9	-69.5	159.4	5.0	LENINGRADSKAJA	2575
10	-67.667	45.85	5.0	MOLODEZNAJA	13014
11	-66.27	100.73	5.0	BUNGER OASIS	548
12	-65.25	-64.2667	5.0	FARADAY	10141
13	-63.4667	-56.2833	5.0	PETREL NAS	1654
14	-62.183	-58.883	5.0	BELLINGSHAUSEN AWS	6342
15	-60.75	-44.7167	5.0	ISLAS ORCADAS (MET)	8699
16	-59.45	-27.267	5.0	CORBETA URUGUAY DN	275
17	-53.1	73.7167	5.0	HEARD IS.(THESPIT)	2295
18	-52.55	169.15	5.0	CAMPBELL ISLAND	18775
19	-51.7	-57.8667	5.0	STANLEY	4603
20	-51.6333	-69.2167	5.0	RIO GALLEGOS B. A.	4526
21	-43.483	172.55	5.0	CHRISTCHURCH	31930
22	-43.2333	-65.3	5.0	ALMIRANTE ZAR	1150
23	-42.8833	147.3333	5.0	HOBART	1774
24	-42.417	173.7	5.0	KAIKOURA	5055
25	-42.2	145.05	5.0	GEOGERTOWN	2980
26	-39.467	175.683	5.0	WAIOURU	2309
27	-38.7333	-62.1667	5.0	COMANDANTE ESPORA	13733
28	-37.867	144.75	5.0	LAVERTON AERODROME	58326
29	-35.367	-57.283	5.0	PUNTA INDIO B.A.	151
30	-35.1	173.267	5.0	KAITAIA	14537
31	-34.58	-58.48	5.0	BUENOS AIRES	107
32	-34.017	22.383	5.0	GEORGE AIRPORT	4491
33	-33.6	115.4667	5.0	LUDLOW	539
34	-33.033	27.833	5.0	EAST LONDON	3098
35	-32.8833	-68.85	5.0	OBSERV MENDOZA	3075
36	-32.78	-71.51	5.0	QUINTERO (MIL)	28938
37	-32.5667	148.95	5.0	WELLINGTON	948
38	-31.35	-54.117	5.0	BAGE (AEROPORTO)	1012
39	-30.833	128.1	5.0	FORREST AIRPORT	54264
40	-30.5167	151.65	5.0	ARMIDALE	728
41	-30.0833	145.9667	5.0	BOURKE (S23'05'11'17)	130
42	-30.01	131.583	5.0	MARALINGA	7453
43	-28.8	24.767	5.0	KIMBERLEY	9829
44	-28.567	16.533	5.0	KORTDOORN/ALEXANDER	11144
45	-27.65	152.7167	5.0	AMBERLEY	2455
46	-27.55	135.4833	5.0	OODNADATTA	37900
47	-27.4667	-58.9833	5.0	RESISTENCIA	1200
48	-25.917	32.567	5.0	MAPUTO/MAVALANE	20132
49	-25.733	28.183	5.0	PRETORIA-EENDRACHT	3937
50	-25.55	45.533	5.0	FAUX-CAP	549
51	-23.867	35.383	5.0	INHAMBANE	4808
52	-23.85	151.25	5.0	GLADSTONE	46725
53	-23.617	-46.65	5.0	SAO PAULO	16840
54	-23.383	43.733	5.0	TOLIARA	5308
55	-22.8	47.833	5.0	FARAFANGANA	2385
56	-22.483	17.467	5.0	HOSEA KUTAKO INTL A	7483
57	-22.03	-63.68	5.0	YACUIBA	670
58	-21.75	43.367	5.0	MOROMBE	1328
59	-21.6333	115.1167	5.0	ONSLOW	25950
60	-21.45	47.1	5.0	FIANARANTSOA	1453
61	-21.333	55.483	5.0	ST. PIERRE/FONDS	5723
62	-21.233	-175.15	5.0	FUAAMOTU	5436
63	-21.217	27.5	5.0	FRANCISTOWN	613
64	-21.2	48.367	5.0	MANANJARY	4840
65	-20.6667	140.5	5.0	CLONCURRY	33366
66	-20.283	44.317	5.0	MORONDAVA	3268
67	-20.233	169.767	5.0	ANEITYUM	125
68	-19.833	48.8	5.0	MAHANORO	1069
69	-19.8	34.9	5.0	BEIRA	8665
70	-19.783	-47.967	5.0	UBERABA	134
71	-19.6	18.117	5.0	GROOTFONTEIN	4094
72	-19.45	29.85	5.0	GWERU	5186
73	-19.28	121.5	5.0	TALGARNO	297
74	-18.9	47.5333	5.0	TANANARIVE/SCM	4211
75	-18.633	26.85	5.0	HWANGE NATIONAL PAR	2189
76	-18.067	-140.95	5.0	HAO	18186
77	-17.917	31.133	5.0	HARARE (KUTSAGA)	926
78	-17.883	36.883	5.0	QUELIMANE	2266
79	-17.817	25.817	5.0	LIVINGSTONE	7670
80	-17.75	168.3	5.0	VILA (EFATE)	12954
81	-17.7333	139.5333	5.0	BURKETOWN	145
82	-17.6833	141.0667	5.0	NORMANTON AIRPORT	229
83	-17.38	-66.17	5.0	COCHABAMBA	1502
84	-17.3167	123.6333	5.0	DERBY	7081
85	-17.083	49.817	5.0	SAINTE-MARIE AERODR	681
86	-17.05	42.717	5.0	ILE JUAN DE NOVA	5730
87	-16.833	29.617	5.0	KAROI	4958
88	-16.45	-151.75	5.0	BORA-BORA	11160
89	-16.2667	133.3833	5.0	DALY WATERS	20570
90	-16.183	33.583	5.0	TETE	2074
91	-15.683	34.967	5.0	CHILEKA	10079
92	-15.6	-56.1	5.0	CUIABA	443
93	-15.517	167.217	5.0	PEKOA AIRPORT	661
94	-15.25	23.15	5.0	MONGU	5748
95	-15.2167	12.1667	5.0	MOCAMEDES	1595
96	-14.95	-147.659	5.0	RANGIROA	5720
97	-14.95	-40.883	5.0	VITORIA DA CONQUIST	123
98	-14.933	13.567	5.0	LUBANGO	236
99	-14.633	47.767	5.0	ANALALAVA	1607
100	-14.45	-67.53	5.0	RURRENABAQUE	125
101	-13.733	-76.217	5.0	PISCO	1501
102	-13.55	32.583	5.0	CHIPATA	140
103	-13.367	50.0	5.0	VOHEMAR	807
104	-13.317	48.317	5.0	FASCENE (NOSSI-BE)	786
105	-13.0	28.65	5.0	NDOLA	2372
106	-12.983	40.533	5.0	PEMBA	3898
107	-12.8	15.75	5.0	HUAMBO	301
108	-12.5	177.05	5.0	ROTUMA	6835
109	-12.37	13.53	5.0	LOBITO	100
110	-12.15	-45.0	5.0	BARREIRAS	1194
111	-12.117	44.433	5.0	OUANI (ANJOUAN)	3271
112	-11.783	19.917	5.0	LUENA (LUSO)	1995
113	-11.75	24.4333	5.0	MWINLUNGA	2872
114	-11.7	43.233	5.0	MORONI AIRPORT	5231
115	-11.583	47.283	5.0	ILES GLORIEUSES	7379
116	-11.3	-41.867	5.0	IRECE	347
117	-10.917	-37.05	5.0	ARACAJU	417
118	-10.82	-65.37	5.0	GUAYARAMERIN	618
119	-10.7	-48.4	5.0	PORTO NACIONAL	1005
120	-10.7	152.833	5.0	MISIMA ISLAND	2055
121	-10.7	165.8	5.0	SANTA CRUZ ISLAND	151
122	-10.583	142.217	5.0	THURSDAY IL/HORN IL	21187
123	-10.45	105.7	5.0	CHRISTMAS ISL (PVT)	3447
124	-10.217	31.133	5.0	KASAMA	3135
125	-9.517	-35.783	5.0	MACEIO (AEROPORTO)	133
126	-9.35	46.533	5.0	ALDABRA	143
127	-9.333	-54.967	5.0	CACHIMBO AERO	2176
128	-9.2	124.367	5.0	OE-CUSSIE	498
129	-9.1	-44.117	5.0	BOM JESUS	376
130	-8.85	13.233	5.0	LUANDA	8531
131	-8.367	-74.567	5.0	PUCALLPA	328
132	-7.967	112.7	5.0	MALANG/ABDUL (AFB)	586
133	-7.633	35.767	5.0	IRINGA	677
134	-7.4	20.817	5.0	DUNDO	6240
135	-7.317	-39.3	5.0	BARBALHA	334
136	-7.017	-37.267	5.0	PATOS	137
137	-6.833	37.65	5.0	MOROGORO	142
138	-6.783	-79.817	5.0	CHICLAYO	1504
139	-6.733	147.0	5.0	LAE	29138
140	-6.267	-57.733	5.0	JACAREACANGA	287
141	-6.167	35.767	5.0	DODOMA	1096
142	-5.5	-45.267	5.0	BARRA DO CORDA	161
143	-5.217	145.783	5.0	MADANG	18232
144	-5.2	-39.3	5.0	QUIXERAMOBIM	334
145	-5.083	32.833	5.0	TABORA AIRPORT	1062
146	-5.05	-42.817	5.0	TERESINA	313
147	-4.883	29.667	5.0	KIGOMA	112
148	-4.567	-81.233	5.0	TALARA	1823
149	-4.45	105.183	5.0	MENGGALA/ASTRA KSET	181
150	-4.217	12.667	5.0	DOLISIE	7834
151	-4.217	152.183	5.0	RABAUL	27818
152	-4.1	122.433	5.0	KENDARI/WOLTER MONG	1064
153	-4.05	-154.9833	5.0	MALDEN ISLAND AF	274
154	-3.783	-73.3	5.0	IQUITOS	705
155	-3.417	37.067	5.0	KILIMANJARO AIRPORT	696
156	-3.4	38.567	5.0	VOI	4508
157	-3.083	-41.783	5.0	PARNAIBA	665
158	-2.767	-171.717	5.0	KANTON ISLAND	16684
159	-2.533	14.767	5.0	DJAMBALA	1376
160	-2.467	32.917	5.0	MWANZA	383
161	-2.283	37.833	5.0	MAKINDU	5723
162	-2.2	-81.0	5.0	CHINCHIPE	601
163	-1.333	31.817	5.0	BUKOBA	1433
164	-0.467	39.633	5.0	GARISSA	7179
165	0.383	6.717	5.0	S. TOME	5381
166	1.083	154.767	5.0	KAPINGAMARANGI ATOL	487
167	1.617	18.067	5.0	IMPFONDO	986
168	1.683	31.717	5.0	MASINDI	632
169	1.717	33.617	5.0	SOROTI	112
170	1.75	40.067	5.0	WAJIR	3181
171	1.85	-78.767	5.0	TUMACO	344
172	2.033	-56.117	5.0	SIPALIWINI	331
173	2.083	11.483	5.0	BITAM	483
174	2.333	37.983	5.0	MARSABIT	1160
175	3.117	35.617	5.0	LODWAR	8644
176	3.367	-57.333	5.0	COEROENI	254
177	3.533	39.05	5.0	MOYALE	3218
178	3.783	-56.15	5.0	TAFELBERG	228
179	3.833	11.517	5.0	YAOUNDE	7131
180	3.85	-159.367	5.0	FANNING ISLAND	103
181	3.883	-51.8	5.0	SAINT GEORGES	2681
182	3.933	41.867	5.0	MANDERA	3516
183	4.25	15.8	5.0	BERBERATI	2543
184	4.317	21.183	5.0	MOBAYE	150
185	4.35	-54.417	5.0	STOELMANSEILAND	153
186	4.417	-7.367	5.0	TABOU	12633
187	4.467	14.367	5.0	BATOURI	4064
188	4.733	22.833	5.0	BANGASSOU	2199
189	4.867	31.6	5.0	JUBA	1813
190	4.883	-1.767	5.0	TAKORADI	135
191	5.3333	163.0167	5.0	KUSAIE/CAROLINES	1652
192	5.45	-55.2	5.0	ZANDERIJ	2383
193	5.467	100.383	5.0	BUTTERWORTH AB	24729
194	5.55	12.367	5.0	YOKO	1316
195	5.6	-0.1667	5.0	ACCRA/KOTOKA INTL	3276
196	5.65	10.75	5.0	KOUNDJA	5780
197	5.8833	-162.05	5.0	PALMYRA ISLAND	631
198	5.9	43.583	5.0	GODE	237
199	5.917	169.65	5.0	JALUIT ATOLL	130
200	5.95	-57.033	5.0	NICKERIE	382
201	5.967	15.633	5.0	BOUAR	2424
202	6.25	-10.35	5.0	ROBERTS FIELD	1457
203	6.467	7.55	5.0	ENUGU	469
204	6.483	17.433	5.0	BOSSANGOA	3181
205	6.583	3.333	5.0	LAGOS/IKEJA	3244
206	6.9	122.067	5.0	ZAMBOANGA	4876
207	7.233	-70.8	5.0	GUASDUALITO	356
208	7.3	-61.45	5.0	TUMEREMO	451
209	7.383	143.917	5.0	WOLEAI ATOLL	106
210	7.7	28.017	5.0	WAU	717
211	7.733	-5.067	5.0	BOUAKE	14811
212	8.28	73.05	5.0	MALIKU	574
213	8.4	20.65	5.0	NDELE	2173
214	8.8667	2.6	5.0	TCHAOUROU	6364
215	8.983	1.15	5.0	SOKODE	5401
216	9.15	92.81	5.0	CAR NICOBAR	1627
217	9.417	-5.617	5.0	KORHOGO	11845
218	9.467	170.25	5.0	WOTJE ATOLL	299
219	9.5	-7.567	5.0	ODIENNE	140
220	9.55	31.65	5.0	MALKAL	4130
221	9.6	105.967	5.0	BA-XUYEN/SOC TRANG	170
222	9.617	6.533	5.0	MINNA	440
223	9.75	-63.183	5.0	MATURIN	1184
224	9.8	125.5	5.0	SURIGAO	347
225	10.067	-69.317	5.0	BARQUISIMETO	741
226	10.333	123.9	5.0	LAHUG	2175
227	10.3833	-9.3	5.0	KANKAN	11475
228	10.6	-66.983	5.0	CARACAS/MAIQUETIA A	912
229	10.6833	-61.6167	5.0	TRINIDAD BWI	10395
230	10.717	115.833	5.0	NENSHA ISL	436
231	10.85	121.033	5.0	CUYO	270
232	11.233	169.85	5.0	UTIRIK ATOLL M.ISL	577
233	11.3	167.48	5.0	RONGERIK	145
234	11.35	162.35	5.0	ENEWETAK	16361
235	11.52	165.55	5.0	BIKINI	294
236	11.55	43.15	5.0	DJIBOUTI	2487
237	11.85	13.083	5.0	MAIDUGURI	593
238	12.433	98.6	5.0	MERGUI	3067
239	12.633	-8.033	5.0	BAMAKO	18540
240	12.7	28.433	5.0	EN NAHUD	198
241	12.833	45.033	5.0	ADEN	16467
242	13.0667	-9.4833	5.0	KITA	4283
243	13.167	32.667	5.0	AROMA	298
244	13.433	-6.283	5.0	SEGOU	22146
245	13.483	22.45	5.0	GENINA	1058
246	13.683	44.15	5.0	TAIZ (CIV/MIL)	449
247	13.75	-60.98	5.0	VIEUX FORT	815
248	13.85	20.85	5.0	ABECHE	4728
249	14.033	35.4	5.0	GEDAREF	238
250	14.067	-83.367	5.0	PUERTO CABEZAS	4028
251	14.117	93.367	5.0	COCO ISLAND	985
252	14.4	33.483	5.0	WAD MEDANI	269
253	14.5	-4.2	5.0	MOPTI-SEVARE	11065
254	14.75	42.967	5.0	HODEIDAH (CIV/MIL)	542
255	14.8	-17.0667	5.0	THIES	3844
256	15.117	105.783	5.0	PAKSE	590
257	15.117	145.733	5.0	SAIPAN/ISLEY (CGS)	7992
258	15.15	76.95	5.0	BELLARY	989
259	15.167	-7.283	5.0	NARA	9645
260	15.283	38.917	5.0	ASMARA	2299
261	15.4167	108.7	5.0	CHU LAI	822
262	15.58	32.55	5.0	AL-KHARTUM	3020
263	15.717	-88.6	5.0	PUERTO BARRIOS	639
264	16.433	101.15	5.0	PHETCHABUN	401
265	16.533	80.8	5.0	VIJAYAWADA/GANNAVA	8012
266	16.55	111.617	5.0	HOANG SA (PATTLE)	417
267	16.6	-7.267	5.0	NEMA	14295
268	16.633	-11.4	5.0	KIFFA	4608
269	16.7333	-169.5167	5.0	JOHNSTON IS WSO AP	27741
270	16.7333	-9.6333	5.0	AIOUN ELATROUSS	4231
271	16.883	42.583	5.0	GIZAN	1629
272	16.9	96.183	5.0	MINGALADON	945
273	17.117	-61.783	5.0	COOLIDGE FIELD (UA)	13896
274	17.4	-83.9333	5.0	SWAN ISLAND	22712
275	17.68	83.35	5.0	WALTAIR	3498
276	17.7	-64.8	5.0	ST CROIX (BENEDICT FIELD)	346
277	17.7	33.967	5.0	ATBARA	361
278	17.9	-62.85	5.0	ST. BARTHELEMY	4048
279	17.95	102.567	5.0	VIENTIANE	2162
280	18.0	19.167	5.0	FAYA	2999
281	18.3	42.8	5.0	KHAMIS MUSHAIT	11138
282	18.433	1.35	5.0	KIDAL	5839
283	18.467	94.35	5.0	SANDOWAY	6057
284	18.55	31.85	5.0	KARIMA	2435
285	18.9	72.82	5.0	COLABA	973
286	18.9167	-155.6833	5.0	MORSE FIELD	492
287	19.05	-69.3833	5.0	SABANA DE LA MAR	4059
288	19.1	108.617	5.0	DONGFANG	6890
289	19.2833	166.65	5.0	WAKE IS	38611
290	19.883	102.133	5.0	LUANG-PRABANG	472
291	19.9	-75.217	5.0	GUANTANAMO BAY NAS	23093
292	20.133	92.883	5.0	SITTWE	9125
293	20.45	121.967	5.0	BASCO	867
294	20.48	85.87	5.0	CUTTACK	318
295	20.517	-13.067	5.0	ATAR	22233
296	20.57	74.53	5.0	MALEGAON	2563
297	20.667	58.9	5.0	MASIRAH	514
298	21.217	110.4	5.0	ZHANJIANG	5208
299	21.3	99.617	5.0	KENGTUNG	231
300	21.4	-77.85	5.0	CAMAGUEY	5786
301	21.45	-71.15	5.0	TURKS ISLAND	10548
302	21.47	83.98	5.0	SAMBALPUR	4315
303	21.817	31.35	5.0	WADI HALFA	3487
304	22.0333	-159.7833	5.0	BARKING SANDS	5267
305	22.25	91.82	5.0	CHATTAGRAM	1629
306	22.367	106.75	5.0	LONGZHOU	4011
307	22.37	-73.03	5.0	MAYAGUAN	1160
308	22.5	103.95	5.0	HEKOU	13535
309	22.767	81.9	5.0	PENDRA ROAD	5308
310	22.783	115.367	5.0	SHANWEI	2322
311	23.217	113.483	5.0	GUANGZHOU	28004
312	23.6	58.55	5.0	BAIT AL FALAJ	4268
313	23.62	90.05	5.0	DACCA	3646
314	23.73	-99.11	5.0	CIUDAD VICTORIA	1366
315	23.8167	5.15	5.0	IN AMGUEL	144
316	23.8833	100.0833	5.0	LINCANG	2076
317	24.067	105.067	5.0	GUANGNAN	5390
318	24.217	23.3	5.0	KUFRA	6321
319	24.267	9.467	5.0	DJANET	6261
320	24.35	109.4	5.0	LIUZHOU	4445
321	24.7	46.733	5.0	RIYADH OBS.	11578
322	24.8333	113.5	5.0	CHU CHIANG	1393
323	25.0167	102.8333	5.0	KAN-HAI-TZU	598
324	25.13	62.32	5.0	GWADAR	4276
325	25.233	-11.617	5.0	BIR MOGHREIN	5175
326	25.25	55.37	5.0	SHARJAH	2477
327	25.2667	-76.3	5.0	ELEUTHERA ISLAND	6389
328	25.3667	97.4	5.0	MYITKYINA	3942
329	25.433	105.183	5.0	XINGREN	4750
330	25.433	106.767	5.0	LUODIAN	3236
331	25.45	30.533	5.0	KHARGA	5223
332	25.667	32.7	5.0	LUXOR	7013
333	25.77	87.52	5.0	PURNEA	179
334	25.8	21.133	5.0	TAZERBO	3989
335	25.85	116.367	5.0	CHANGTING	5057
336	25.88	89.43	5.0	LALMANIR HAT	407
337	25.967	108.533	5.0	RONGJIANG	2499
338	26.2	36.483	5.0	AL-WEJH	5395
339	26.45	74.73	5.0	AJMER	3098
340	26.5	8.417	5.0	ILLIZI	502
341	26.6167	-78.3667	5.0	GOLD ROCK CREEK	13583
342	26.9667	1.0833	5.0	AOULEF	3606
343	27.05	88.3	5.0	DARJEELING	116
344	27.117	114.967	5.0	JIAN	4747
345	27.15	33.717	5.0	HURGUADA	2188
346	27.3	105.233	5.0	BIJIE	1335
347	27.333	120.2	5.0	FUDING	4348
348	27.5333	-99.4833	5.0	LAREDO	5690
349	27.7	68.92	5.0	SUKKUR	668
350	28.05	9.633	5.0	IN-AMENAS	12360
351	28.2	-177.3833	5.0	MIDWAY IS NAS	33263
352	28.45	121.883	5.0	DACHEN DAO	18781
353	28.63	77.2	5.0	NEW DEHLI	2068
354	28.633	87.083	5.0	TINGRI	4882
355	28.883	-118.3	5.0	ISLA GUADALUPE	13025
356	29.0	135.0	5.0	OCEAN WEATHER SHIP T	5347
357	29.033	21.567	5.0	JALO	3469
358	29.05	111.683	5.0	CHANGDE	4719
359	29.117	15.933	5.0	HON	3794
360	29.25	0.283	5.0	TIMIMOUN	9666
361	29.3	117.2	5.0	JINGDEZHEN	5385
362	29.383	113.083	5.0	YUEYANG	4823
363	29.5667	94.4667	5.0	NYINGCHI	6509
364	30.0	-140.0	5.0	OCEAN WEATHER SHIP N	19180
365	30.033	122.117	5.0	DINGHAI	3697
366	30.05	-102.2167	5.0	DRYDEN AAF	854
367	30.133	-2.167	5.0	BENI-ABBES	7838
368	30.133	9.5	5.0	GHADAMES	5808
369	30.3667	-104.0167	5.0	MARFA MUNI (AMOS)	5463
370	30.383	-9.567	5.0	AGADIR INEZGANNE	14085
371	30.383	13.583	5.0	GARIAT EL-SHARGHIA	688
372	30.483	140.3	5.0	TORISHIMA	6556
373	30.517	47.783	5.0	BASRAH-HUSSEN	2290
374	30.717	20.167	5.0	AGEDABIA	3757
375	30.8	106.083	5.0	NANCHONG	8082
376	30.933	-6.9	5.0	OUARZAZATE	8186
377	31.017	46.233	5.0	NASIRIYA	750
378	31.08	77.18	5.0	SHIMLA	728
379	31.2	16.583	5.0	SIRTE	2738
380	31.35	69.467	5.0	ZHOB	8789
381	31.367	90.017	5.0	BAINGOIN	11427
382	31.367	130.833	5.0	KANOYA AB	464
383	31.4167	-100.4	5.0	MATHIS FLD/S.ANGELO	2501
384	31.5167	-103.1333	5.0	PYOTE (AFB)	1395
385	31.617	-8.033	5.0	MARRAKECH	9944
386	31.62	74.4	5.0	LAHORE	12639
387	31.867	93.767	5.0	SOG XIAN	7101
388	31.867	117.233	5.0	HEFEI	9149
389	31.9	102.233	5.0	BARKAM	6148
390	31.9333	5.4	5.0	OUARGLA	2887
391	32.067	108.033	5.0	WANYUAN	3574
392	32.1	23.933	5.0	TOBRUK	7553
393	32.2333	-101.5	5.0	BIG SPRING	13868
394	32.283	-9.233	5.0	SAFI	1179
395	32.35	-88.65	5.0	MERIDIAN (KEY FIELD)	2282
396	32.383	111.667	5.0	GUANGHUA	3239
397	32.4167	-99.6833	5.0	ABILENE MUNI AP	19791
398	32.417	15.05	5.0	MISURATA	1073
399	32.5	80.067	5.0	SHIQUANHE	10631
400	32.717	133.017	5.0	SHIMIZU	5015
401	33.033	40.283	5.0	RUTBAH	2392
402	33.233	126.25	5.0	MOESULPO AB	17945
403	33.37	43.57	5.0	AL HABBANIYAH	5634
404	33.583	102.967	5.0	RUOERGAI	2991
405	33.6333	-88.45	5.0	COLUMBUS AAF	401
406	33.683	1.0	5.0	EL-BAYADH	10962
407	33.783	114.517	5.0	XIHUA	6675
408	33.8	99.8	5.0	DARLAG	12064
409	33.95	92.617	5.0	TUOTUOHE	11291
410	34.0	164.0	5.0	OCEAN WEATHER SHIP V	12375
411	34.217	62.217	5.0	HERAT	1107
412	34.25	108.93	5.0	SIAN	196
413	34.583	105.75	5.0	TIANSHUI	6899
414	34.6	138.217	5.0	OMAEZAKI	4148
415	34.683	32.817	5.0	EPISKOPI	4391
416	34.6833	3.25	5.0	DJELFA	9814
417	34.783	-1.95	5.0	OUJDA	7639
418	34.85	119.133	5.0	GANYU	7452
419	34.917	98.217	5.0	MADOI	6085
420	34.933	136.583	5.0	YOKKAICHI	4758
421	35.0	-48.0	5.0	OCEAN WEATHER SHIP E	8767
422	35.0281	-110.7208	5.0	WINSLOW MUNI AP	47510
423	35.217	93.083	5.0	WUDAOLIANG	5083
424	35.2667	-113.95	5.0	KINGMAN (AAF)	1831
425	35.733	-5.9	5.0	TANGER (AERODROME)	389
426	35.85	14.483	5.0	LUQA	21963
427	35.9	62.9667	5.0	TAGTABAZAR	13721
428	35.933	39.017	5.0	RAQQA	252
429	36.0333	-102.5333	5.0	DALHART	2180
430	36.05	114.4	5.0	ANYANG	7228
431	36.317	43.15	5.0	MOSUL	884
432	36.333	37.217	5.0	ALEPPO INT. AEROPOR	18332
433	36.75	-104.5	5.0	RATON	5905
434	36.867	30.733	5.0	ANTALYA	1476
435	36.883	6.9	5.0	SKIKDA	639
436	36.8833	-93.9	5.0	MONETT	18071
437	37.017	-7.967	5.0	FARO/AEROPORTO	1831
438	37.05	41.217	5.0	KAMISHLI	136
439	37.233	67.267	5.0	TERMEZ	20099
440	37.317	97.217	5.0	DELINGHA	10750
441	37.3333	-79.2	5.0	LYNCHBURG	4148
442	37.367	-118.367	5.0	BISHOP AIRPORT	1144
443	37.4	122.683	5.0	CHENGSHANTOU	15581
444	37.433	-105.867	5.0	ALAMOSA MUNI(AWOS)	921
445	37.467	53.967	5.0	ESENGYLY	36098
446	37.4833	116.3667	5.0	TE HSIEN/TECHOW	498
447	37.5	71.5	5.0	KHOROG	28898
448	37.617	120.317	5.0	LONGKOU	8328
449	37.78	12.45	5.0	MARSALA	112
450	37.783	-0.8	5.0	MURCIA/SAN JAVIER	1000
451	37.85	91.65	5.0	MANGYA	1192
452	37.85	95.367	5.0	DA-QAIDAM	5439
453	37.917	139.05	5.0	NIIGATA	2033
454	37.93	83.65	5.0	ANDIR	14362
455	37.987	58.361	5.0	ASHGABAT KESHI	38470
456	38.0	-71.0	5.0	OCEAN WEATHER SHIP H	3274
457	38.0667	-117.0833	5.0	TONAPAH APRT (NEV)	3624
458	38.433	77.267	5.0	SHACHE	15714
459	38.55	68.783	5.0	DUSHANBE	35803
460	38.72	-9.15	5.0	LISBOA/GEOFISICO	669
461	38.733	48.833	5.0	LANKARAN	33653
462	38.733	115.483	5.0	BAODING	9153
463	38.817	35.433	5.0	KAYSERI/ERKILET	1942
464	38.833	93.383	5.0	LENGHU	15645
465	39.083	63.6	5.0	CHARDZHEV	36014
466	39.1	107.983	5.0	OTOG QI	9443
467	39.2	45.417	5.0	NAXCIVAN	914
468	39.295	-114.8453	5.0	ELY YELLAND FLD AP	48437
469	39.367	-101.7	5.0	GOODLAND/RENNER FIE	8448
470	39.6667	118.1167	5.0	TANG SHAN	251
471	39.783	105.75	5.0	JARTAI	9470
472	39.867	4.233	5.0	MENORCA/MAHON	165
473	39.9	116.47	5.0	PEIPING	701
474	40.1	113.333	5.0	DATONG	8658
475	40.267	97.033	5.0	YUMENZHEN	2942
476	40.633	87.7	5.0	TIKANLIK	16175
477	40.733	-114.033	5.0	WENDOVER/AF. AUX. F	1089
478	40.783	43.833	5.0	GUMRI	147
479	40.85	35.583	5.0	MERZIFON	1796
480	40.9019	-117.8072	5.0	WINNEMUCCA MUNI AP	43590
481	40.917	72.95	5.0	DZHALAL-ABAD	30741
482	40.967	117.917	5.0	CHENGDE	6676
483	41.1167	122.95	5.0	AN SHAN	362
484	41.15	-104.817	5.0	CHEYENNE/WARREN AFB	25238
485	41.26	80.3	5.0	WEN-SU	9162
486	41.433	76.0	5.0	NARYN	13926
487	41.45	31.8	5.0	ZONGULDAK	304
488	41.533	-93.65	5.0	DES MOINES INTL	11917
489	41.6	-109.0667	5.0	ROCK SPRINGS	20297
490	41.65	25.367	5.0	KURDJALI	9983
491	41.733	64.617	5.0	TAMDY	24209
492	41.75	103.9667	5.0	PANG-TING-TO-TO-KAI	1057
493	41.7833	95.1333	5.0	XING-XING-XIA	122
494	41.8	12.233	5.0	ROMA FIUMICINO	25186
495	41.833	59.983	5.0	DASHKHOVUZ	40766
496	42.4	112.9	5.0	JURH	11935
497	42.583	-5.65	5.0	LEON/VIRGEN DEL CAM	200
498	42.5833	-100.0	5.0	AINSWORTH AAF	1523
499	42.7	-68.3	5.0	ENVIRONM BUOY 44005	574
500	42.8167	-108.7333	5.0	LANDER HUNT FLD AP	34519
501	42.9167	-112.5333	5.0	POCATELLO	11754
502	43.017	41.033	5.0	SUKHUMI (AGMS)	37578
503	43.167	-86.25	5.0	MUSKEGON	10171
504	43.2	107.167	5.0	HANBOGD	2539
505	43.483	91.633	5.0	SHISANJIANFANG	15467
506	43.517	16.433	5.0	SPLIT/MARJAN	4568
507	43.9333	-91.2833	5.0	LA CROSSE	9613
508	44.0	-41.0	5.0	OCEAN WEATHER SHIP D	9766
509	44.017	145.867	5.0	JUZHNO-KURILSK	37102
510	44.05	43.03	5.0	PJATIGORSK	230
511	44.117	-123.217	5.0	EUGENE/MAHLON SWEET	5856
512	44.167	80.067	5.0	ZHARKENT	23543
513	44.3833	-98.2167	5.0	HURON RGNL AP	33451
514	44.55	50.25	5.0	FORT SHEVCHENKO	1177
515	44.567	129.6	5.0	MUDANJIANG	4789
516	44.617	82.9	5.0	JINGHE	10505
517	44.617	114.15	5.0	NARAN BULAG	14093
518	44.62	33.53	5.0	SEWASTOPOL	723
519	44.767	-106.967	5.0	SHERIDAN CO. ARPT	16448
520	44.9	110.117	5.0	SAINSHAND	17817
521	45.0	-16.0	5.0	OCEAN WEATHER SHIP K	2558
522	45.0	136.6	5.0	TERNEJ	35417
523	45.5333	-122.6833	5.0	PORTLAND INTL	27685
524	45.767	106.283	5.0	MANDALGOBI	3030
525	45.8	-108.533	5.0	BILLINGS/LOGAN INT.	18423
526	45.9667	-112.5	5.0	BUTTE	12098
527	45.9833	-98.5667	5.0	ELLENDALE	8695
528	46.0	18.233	5.0	PECS/POGANY	127
529	46.18	45.35	5.0	YASHKUL	3336
530	46.374	-117.015	5.0	LEWISTON NEZ PERCE	432
531	46.4667	-84.35	5.0	SAULT STE MARIE SANDERSON FLD	58659
532	46.5667	-87.4	5.0	MARQUETTE	8748
533	46.767	-56.167	5.0	SAINT-PIERRE	690
534	46.783	61.65	5.0	ARALSKOE MORE	40172
535	46.8	75.083	5.0	BALHASH	36009
536	46.833	-92.183	5.0	DULUTH INTL AIRPORT	8808
537	46.85	1.7167	5.0	CHATEAUROUX	5082
538	46.917	-114.083	5.0	MISSOULA/JOHNSON-BE	15882
539	47.0	-15.0	5.0	WEATHERSHIP K CIRRUS	477
540	47.267	16.633	5.0	SZOMBATHELY	183
541	47.3	-54.0	5.0	ARGENTIA	11299
542	47.383	123.917	5.0	QIQIHAR	17927
543	47.45	101.467	5.0	TSETSERLEG	2069
544	47.567	-59.15	5.0	PORT-AUX-BASQUES	2303
545	47.6667	-117.3333	5.0	SPOKANE (FELTS FIELD)	7917
546	47.75	96.85	5.0	ULIASTAI	1923
547	48.017	91.567	5.0	HOVD	3097
548	48.65	144.75	5.0	M. TERPENIYA (FL)	7763
549	48.667	116.817	5.0	XIN BARAG YOUQI	12550
550	48.7	-8.9167	5.0	ENVIRONM BUOY 62027	215
551	48.8	103.55	5.0	BULGAN	2639
552	48.85	2.33	5.0	PARIS	270
553	48.917	106.067	5.0	BARUUNHARAA	2895
554	49.067	20.25	5.0	POPRAD/TATRY	15541
555	49.3	4.033	5.0	REIMS	179
556	49.6	34.55	5.0	POLTAVA	634
557	49.633	-112.8	5.0	LETHBRIDGE AWOS	9936
558	50.0	-145.0	5.0	OCEAN WEATHER SHIP P	12221
559	50.0	88.667	5.0	KOS-AGAC	10486
560	50.017	155.4	5.0	M. VASILYEV	34757
561	50.133	1.833	5.0	ABBEVILLE	116
562	50.133	65.233	5.0	AMANGELDY	15887
563	50.233	-119.283	5.0	VERNON AUTO	15732
564	50.28	-64.17	5.0	MINGAN	632
565	50.28	21.43	5.0	MIELEC	738
566	50.383	-102.683	5.0	BROADVIEW	8722
567	50.417	80.3	5.0	SEMIPALATINSK	42269
568	50.433	-104.667	5.0	REGINA INTL	6105
569	51.083	-0.217	5.0	CRAWLEY	37592
570	51.1	-100.05	5.0	DAUPHIN AIRPORT	2648
571	51.117	-114.017	5.0	CALGARY INTL	15534
572	51.12	17.03	5.0	WROCLAW	146
573	51.1333	71.3667	5.0	CELINOGRAD	167
574	51.1833	40.7	5.0	KAMENNAYA STEP NO2	6225
575	51.25	51.4	5.0	URALSK	34602
576	51.3833	179.25	5.0	AMCHITKA ISLAND	1908
577	51.4	-3.35	5.0	CARDIFF-WALES ARPT	890
578	51.517	-109.183	5.0	KINDERSLEY ARPT	914
579	51.717	126.65	5.0	HUMA	6620
580	51.883	-176.65	5.0	ADAK (NAS)	33391
581	51.9833	177.5667	5.0	KISKA ISLAND	308
582	52.05	29.25	5.0	MOZYR (AMOS)	6912
583	52.18	20.97	5.0	WARSZAWA	1720
584	52.267	104.317	5.0	IRKUTSK	39087
585	52.417	16.85	5.0	POZNAN	31288
586	52.433	-114.917	5.0	ROCKY MTN HOUSE	1475
587	52.483	13.417	5.0	BERLIN/TEMPELHOF	30570
588	52.5	-20.0	5.0	OCEAN WEATHER SHIP J	2559
589	52.733	41.467	5.0	TAMBOV	38381
590	52.75	-35.5	5.0	OCEAN WEATHER SHIP C	13900
591	52.8	173.16	5.0	ATTU ISLAND	3463
592	53.05	158.33	5.0	NIKOLAEVKA	127
593	53.067	132.983	5.0	EKIMCHAN	29232
594	53.2	-70.9	5.0	NITCHEQUON	15444
595	53.217	-105.667	5.0	PRINCE ALBERT ARPT	9605
596	53.25	50.45	5.0	SAMARA	39657
597	53.6167	109.6333	5.0	BARGUZIN	6508
598	53.7333	87.1833	5.0	ABAGUR	181
599	53.833	-89.867	5.0	TROUT LAKE	15743
600	53.85	-94.65	5.0	ISLAND LAKE ARPT	4067
601	53.883	-122.667	5.0	PRINCE GEORGE	30854
602	53.933	27.633	5.0	MINSK	43880
603	54.0	123.967	5.0	SKOVORODINO	31293
604	54.2	16.1833	5.0	KOSZALIN	1537
605	54.3	-1.533	5.0	LEEMING	777
606	54.65	-6.2167	5.0	BELFAST/ALDERGROVE ARPT	4234
607	54.8	105.167	5.0	ZHIGALOVO	35584
608	55.35	-131.65	5.0	KETCHIKAN	5932
609	55.6333	12.6667	5.0	KOBENHAVN/KASTRUP	8553
610	56.0	92.883	5.0	KRASNOYARSK	40900
611	56.483	21.017	5.0	LIEPAJA	26905
612	56.5	-51.0	5.0	OCEAN WEATHER SHIP B	11583
613	56.65	-111.217	5.0	FORT MCMURRAY ARPT	11470
614	56.8	60.6	5.0	SWERDLOWSK	171
615	57.1	9.867	5.0	FLYVESTATION AALBOR	4824
616	57.2	-2.217	5.0	ABERDEEN/DYCE AIRPO	421
617	57.58	39.58	5.0	JAROSLAVL	529
618	57.817	28.333	5.0	PSKOV	39213
619	58.37	-134.58	5.0	JUNEAU	15260
620	59.0	-19.0	5.0	OCEAN WEATHER SHIP I	2647
621	59.35	17.95	5.0	STOCKHOLM/BROMMA	41574
622	59.78	21.37	5.0	UTO	674
623	59.97	11.03	5.0	KJELLER	1688
624	60.2	-166.1	5.0	NUNIVAK AAF	100
625	60.38	5.33	5.0	BERGEN	179
626	60.4833	-145.5	5.0	CORDOVA	2276
627	61.08	-69.55	5.0	CAPE HOPES ADVANCE STATION	661
628	61.25	-149.8	5.0	ANCHORAGE ELMENDORF FIELD	223
629	61.267	108.2	5.0	ERBOGACEN	35974
630	61.717	30.717	5.0	SORTAVALA	36442
631	61.95	160.8667	5.0	GIZIGA	28015
632	62.0	-33.0	5.0	OCEAN WEATHER SHIP A	7562
633	62.1	42.9	5.0	SENKURSK	255
634	62.1167	-163.75	5.0	MOUNTAIN VILLAGE	147
635	62.97	-141.96	5.0	NORTHWAY	12371
636	63.017	179.283	5.0	BERINGOVSKAJA	25831
637	63.12	23.08	5.0	KAUHAVA	611
638	63.183	14.5	5.0	OSTERSUND/FROSON	16859
639	63.32	30.5	5.0	LIEKSA	148
640	63.3333	-149.15	5.0	SUMMIT	2843
641	63.43	-51.18	5.0	MARRAK POINT	353
642	63.5	-90.7	5.0	CHESTERFIELD INLET	472
643	63.9	-160.7833	5.0	UNALAKLEET	1191
644	64.0	-145.733	5.0	FT GREELY/ALLEN AAF	1398
645	64.13	-21.9	5.0	REYKJAVIK	270
646	64.22	27.73	5.0	KAJAANI	181
647	64.683	170.417	5.0	MARKOVO	33706
648	64.7167	-156.9	5.0	GALENA	571
649	64.917	77.817	5.0	TARKO-SALE	33211
650	65.7	-18.0	5.0	AKUREYRI	271
651	65.93	-36.68	5.0	IKATEQ	111
652	66.0	2.0	5.0	OCEAN WEATHER SHIP M	2031
653	66.567	-145.267	5.0	FORT YUKON	133
654	67.0	-50.8	5.0	KANGERLUSSUAK	3155
655	67.47	86.57	5.0	IGARKA	13709
656	67.8167	-115.0833	5.0	COPPERMINE	14703
657	68.23	-135.0	5.0	AKLAVIK	7053
658	68.47	17.5	5.0	NARVIK	128
659	68.47	73.6	5.0	MYS KAMENNY	29022
660	68.65	43.3	5.0	KANIN NOS	4393
661	68.92	-179.48	5.0	MYS SHMIDTA	33429
662	69.3667	-152.1333	5.0	UMIAT	611
663	69.4	86.17	5.0	DUDINKA	5076
664	69.7	19.02	5.0	TROMSO	3783
665	69.783	61.783	5.0	AMDERMA	34229
666	70.1333	-143.6333	5.0	BARTER ISLAND WSO AP	25677
667	70.45	-68.55	5.0	CLYDE RIVER	13851
668	70.63	162.4	5.0	OSTROV CHETYREKHSTOLBO	32761
669	70.967	-178.65	5.0	OSTROV VRANGELYA	29474
670	72.0	-125.27	5.0	SACHS HARBOUR	22298
671	73.0	-85.3	5.0	ARCTIC BAY (NWT)	7539
672	73.2	143.533	5.0	MYS SHALAUROVA	27652
673	73.33	70.03	5.0	IM POPOVA	11828
674	74.67	112.93	5.0	OSTROV PREOBRAZHENIA	28488
675	76.15	152.83	5.0	OSTROV ZOHOVA	20328
676	76.1833	62.5667	5.0	RUSSKAJA GAVAN	246
677	76.25	-119.35	5.0	MOULD BAY	34676
678	76.95	68.58	5.0	MYS ZHELANIA	29248
679	77.23	-62.33	5.0	THULE	119
680	77.5	82.23	5.0	OSTROV UEDINENIA	24206
681	77.72	104.28	5.0	MYS CHELIUSKINA	657
682	78.8	-103.5	5.0	ISACHSEN	21510
683	79.5	76.98	5.0	OSTROV VIZE	26148
684	80.05	18.3	5.0	KINNVIKA STATION	259
685	80.45	52.8	5.0	BUKHTA TIKHAYA/GUKER IS.	4385
686	81.6	-16.67	5.0	NORD	10981
687	-78.37698113207547	-163.10320754716983	5.9	LITTLE AMERICA,LITTLE AMERICA I,LITTLE AMERICA	2784
688	-77.85	-39.95835	5.6	GENERAL BELGRANO,ELLSWORTH IGY	3920
689	-54.3	-68.03335	5.6	USHUAIA,RIO GRANDE AIRPORT	5210
690	-36.9335	174.79000000000002	5.6	AUCKLAND AIRPORT,AUCKLAND	26042
691	-25.225	25.725	5.6	MAFIKENG WO,GABORONE	1849
692	-21.29185	-138.675	5.6	MURUROA,TUREIA	7178
693	-14.91685	28.400149999999996	5.6	LUSAKA CITY AIRPORT,KABWE	21613
694	-14.989999999999998	40.67	5.6	LUMBO,MOSSURIL	5616
695	-14.641499999999999	50.25	5.6	ANTALAHA,SAMBAVA	7417
696	-14.083350000000001	-171.28315	5.6	LEONE BAY AMERICAN S,APIA	10855
697	-13.540377358490568	34.656358490566035	5.9	LICHINGA,LILONGWE,SALIMA	11460
698	-11.6665	33.81699999999999	5.6	MZIMBA,MZUZU	8106
699	-9.4415	33.675	5.6	KARONGA,MBEYA	3362
700	-8.526415094339622	126.21958490566038	5.9	BAU CAU,DILLI/DILLI AIRPORT,KOMORO	14115
701	-7.613537735849056	110.8688679245283	5.9	SURAKARTA/ADISUMARM,ADISUCIPTO/JOGYAKAR,MADIUN/ISWAHYUD AFB	10057
702	-6.849283018867924	107.79881132075472	5.9	KALIJATI,CIBEUREM/TASIK(AFB),BANDUNG/HUSEIN	4143
703	-4.983	38.675	5.6	TANGA,MOMBO	889
704	-4.375	15.3415	5.6	KINSHASA/NDJILI,KINSHASA/BINZA	1037
705	-3.625	39.8585	5.6	MOMBASA,MALINDI	5442
706	-0.217	30.375	5.6	MBARARA,KASESE	533
707	3.1085000000000003	101.6	5.6	PETALING JAYA,KUALA LUMPUR SUBANG	34224
708	9.09185	-13.408350000000002	5.6	LUNGI,CONAKRY	14953
709	9.975	98.6	5.6	VICTORIA POINT,RANONG	4161
710	10.517000000000001	-64.325	5.6	BARCELONA,PORLAMAR	2198
711	10.8417	-12.19165	5.6	MAMOU,LABE	6231
712	10.355679245283017	-71.49975471698114	5.9	MARACAIBO-LA CHINIT,MENE GRANDE,LA CANADA	2267
713	10.807311320754717	106.94964716981131	5.9	BIEN HOA (VVBH),BARIA (PHUOC LE),AN LOC	1812
714	12.209999999999999	-15.883499999999998	5.6	BISSAU,ZIGUINCHOR	42988
715	12.948500000000001	74.88149999999999	5.6	MANGALORE/BAJPE,MANGALORE/MANGALURU	5531
716	13.675	-87.21665	5.6	CHOLUTECA,TEGUCIGALPA	6260
717	13.633500000000002	-89.475	5.6	ACAJUTLA,SAN SALVADOR/ILOPAN	874
718	14.22515	-90.69185	5.6	SAN JOSE,GUATEMALA CITY	6840
719	14.358499999999998	100.6085	5.6	DON MUANG,LOP BURI	1617
720	13.983350000000002	108.33335	5.6	AN KHE (VVAK),PLEIKU AB	922
721	14.457650000000001	-11.43665	5.6	KAYES,KAYES/DAG-DAG	28913
722	15.140811320754716	120.40096226415095	5.9	CROW VALLEY GUNNERY,SUBIC BAY WEATHER,CLARK AB	40252
723	15.45	44.1915	5.6	SANAA,SANA'A (CIV/MIL)	2841
724	15.616499999999998	73.72349999999999	5.6	GOA/DABOLIM AIRPORT,VENGURLA	2023
725	16.9835	104.7165	5.6	SAVANNAKHET,NAKHON PHANOM	3036
726	16.68459811320755	107.26820566037736	5.9	DONG HA,HUE/PHU BAI,QUANG TRI	2118
727	18.30629811320755	-66.96601320754718	5.9	AGUADILLA RAMEY AFB,PONCE LOSEY FIELD,MAYAGUEZ	11588
728	21.433	96.0	5.6	MEIKTILA,MANDALAY	10196
729	22.865000000000002	69.8765	5.6	JAMNAGAR,BHUJ	2574
730	22.7165	-12.5915	5.6	FORT GOURAUD,ZOUERATE	12816
731	22.55075471698113	88.32773584905661	5.9	BARAKPUR,DIAMOND HARBOUR,ALIPORE	5335
732	23.1335	-82.39000000000001	5.6	VILLA SAN CRISTOBAL DE LA HABA,CASA BLANCA	9746
733	24.625	120.94149999999999	5.6	TAICHUNG (TW-AFB),TAOYUAN AB	18074
734	24.3665	118.258	5.6	CHIANGYANG,CHINMEM/SHATOU(AFB)	10508
735	24.816499999999998	73.78999999999999	5.6	UDAIPUR,KANKROLI/RAJSAMAND	2786
736	25.198349999999998	92.36665	5.6	SILCHAR,SHILLONG S06 03Z	1757
737	25.5	28.993499999999994	5.6	DAKHLA,AL-DAKHLA	7513
738	25.833499999999997	119.8665	5.6	PINGTAN,MAZU (=588490)	7243
739	26.267000000000003	50.391999999999996	5.6	DHAHRAN,BAHRAIN/MUHARRAQ	35913
740	26.533499999999997	127.7665	5.6	KADENA AB,IEJIMA AUXILIARY AB	25751
741	26.5257	-80.09970000000001	5.6	BOCA RATON (AAF),WEST PALM BEACH INTL AP	15396
742	26.21947924528302	-97.95818490566039	5.9	MISSION (MOORE FIELD),BROWNSVILLE (FORT BROWN),HARLINGEN AAF	4611
743	26.6935	92.80999999999999	5.6	TEZPUR,TEZPUR/BINDUKURI	5178
744	27.341499999999996	85.1085	5.6	RAXAUL,KATHMANDU AIRPORT	1791
745	27.641499999999997	30.926499999999997	5.6	ASYUT,MINYA	6761
746	28.058349999999997	98.63315	5.6	LA WANG/TZUKEI,DEQEN	7026
747	28.391499999999997	108.5085	5.6	SINAN,YOUYANG	3313
748	28.351499999999998	28.898500000000002	5.6	BAHARIA,AL-WAHAT AL-BAHRIYA	7028
749	28.80835	-97.01669999999999	5.6	VICTORIA (ALOE AAF),VICTORIA RGNL AP	19942
750	29.158299999999997	-89.38335	5.6	BURRWOOD,BOOTHVILLE WSCMO CIT	27347
751	29.541500000000003	101.7335	5.6	JIULONG,KANGDING	5153
752	29.466499999999996	25.025	5.6	SIWA,GIARABUB	9620
753	29.201250943396232	-100.66759433962265	5.9	DEL RIO TEXAS,EAGLE PASS (AAF),BRACKETTVILLE (FORT CLARK)	18583
754	29.858500000000003	35.3665	5.6	EILAT,MAAN	6787
755	29.693867924528302	-95.16950566037735	5.9	HOUSTON/INTERCONTIN,GALVESTON (FORT CROCKETT),HOUSTON ELLINGTON AFB	23113
756	30.0179716981132	31.44429245283019	5.9	CAIRO,AL-MINYA,ALMAZA	11488
757	31.1385	29.866499999999995	5.6	DEKHEILA/AL DAKHELA,ALEXANDRIA/NOUZHA	2862
758	31.558500000000002	-82.0165	5.6	WAYCROSS WARE CO AP,FORT STEWART RESERV	23809
759	31.2665	32.26649999999999	5.6	BUR SAID,PORT SAID/EL GAMIL	5607
760	31.524849999999997	-109.97484999999999	5.6	DOUGLAS (AAF),FORT HUACHUCA	11003
761	31.5765	25.5565	5.6	SALLUM PLATEAU,SIDI BARRANI	6909
762	31.937264150943395	10.384433962264152	5.9	NALUT,EL BORMA,REMADA	13503
763	32.308	-4.5665	5.6	ERRACHIDIA,MIDELT	9564
764	32.55	114.05	5.6	XINYANG,ZHUMADIAN	14510
765	32.291650000000004	-108.20835	5.6	DEMING AAF,LORDSBURG AAF	1927
766	32.825	-104.3915	5.6	CARLSBAD AAF,ROSWELL/INDUSTRIAL	3324
767	32.7915	22.232999999999997	5.6	DERNA,SHAHAT	6120
768	32.8915	12.683150000000001	5.6	ZUARA,WHEELUS	21377
769	33.033500000000004	130.1085	5.6	NAGASAKI AIRPORT,SAGA AIRPORT	1005
770	32.908490566037734	-94.08365660377359	5.9	TEXARKANA,LONGVIEW WSMO,SHREVEPORT BARKSDALE AFB	29644
771	33.61665000000001	-102.025	5.6	REESE AFB,LUBBOCK/MUNI (TEX)	3650
772	34.315	-98.88335	5.6	WICHITA FALLS,ALTUS AFB (OKLA)	2788
773	34.341499999999996	135.075	5.6	KOMATSUSHIMA AB,OSAKA	8278
774	34.1	131.635	5.6	OZUKI AB,IWAKUNI	3037
775	34.7	-3.925	5.6	TAZA,AL HOCEIMA	6481
776	34.12381132075472	-6.362184905660378	5.9	KENITRA PORT LYAUTEY,MEKNES,RABAT	14845
777	34.10155660377359	-103.76573018867924	5.9	CLOVIS AAF,ROSWELL,MELROSE GUNNERY RAN	13097
778	35.325	36.258500000000005	5.6	HAMA,LATTAKIA	1199
779	35.46685	-75.725	5.6	CAPE HATTERAS WB BLDG,DARE COUNTY GUNNERY	48399
780	35.858000000000004	-97.6335	5.6	OKLAHOMA CITY/W. RO,ENID/VANCE AFB	56850
781	35.89185	-83.94985	5.6	KNOXVILLE MUNICIPAL,KNOXVILLE (ISLAND AIRPORT)	22111
782	35.70707547169811	-89.81351320754717	5.9	BLYTHEVILLE AFB,MEMPHIS,DYERSBURG AAF	26092
783	36.45	5.1585	5.6	SETIF,BEJAIA-AEROPORT	17970
784	36.4415	118.63335	5.6	YIYUAN,WEI HSIEN	6355
785	36.716499999999996	8.775	5.6	JENDOUBA,TABARKA	24747
786	36.86685	-88.13335	5.6	FORT CAMPBELL (AAF),PADUCAH BARKLEY FLD	6416
787	37.0415	10.45	5.6	KELIBIA,BIZERTE	25770
788	37.835	15.309999999999999	5.6	CATANIA,MESSINA	6354
789	38.40835	-87.57485	5.6	EVANSVILLE REGIONAL,LAWRENCEVILLE GEORGE FIELD	23819
790	38.21417924528302	-81.9205283018868	5.9	HUNTINGTON TRI STATE AP,BECKLEY,YEAGER	37124
791	37.9061320754717	-113.40424528301888	5.9	MILFORD MUNICIPAL,ST. GEORGE,MODENA	22113
792	38.77515	-92.89185	5.6	KNOBNOSTER SEDALIA AFB,COLUMBIA REGIONAL	20756
793	38.885000000000005	-98.96834999999999	5.6	RUSSELL,VICTORIA (WALKER AAF)	1573
794	39.24335	-94.75165	5.6	KANSAS CITY,FT. LEAVENWORTH	32196
795	39.333000000000006	110.45	5.6	CHASAKOCHI,HEQU	12228
796	40.366499999999995	78.5085	5.6	BACHU,AKQI	14711
797	40.67	-103.13499999999999	5.6	AKRON,SYDNEY	891
798	40.716499999999996	-8.55	5.6	COIMBRA,PORTO/PEDRAS RUBRAS	2073
799	40.3835	70.3415	5.6	KHUDJAND,KOKAND	7798
800	40.27358490566038	-88.95566037735848	5.9	RANTOUL,SPRINGFIELD,PEORIA GTR PEORIA AP	57708
801	39.930023212740174	-79.60238575385148	6.2	PITTSBURGH/EMSU,CUMBERLAND,ELKINS,UNIONTOWN BURGESS FIELD	11449
802	41.3335	-5.175	5.6	SALAMANCA/MATACAN,VALLADOLID/VILLANUB	379
803	41.21	106.77649999999998	5.6	XAMBA,HAILS	5832
804	41.22515	-81.67515	5.6	AKRON,CLEVELAND	26607
805	41.15	-111.9917	5.6	OGDEN (HILL AFB),OGDEN	7026
806	41.766650000000006	-91.0667	5.6	MOLINE,CEDAR RAPIDS ECHO SI	22807
807	41.98335	-103.20829999999998	5.6	SCOTTSBLUFF AAF,ALLIANCE AAF	1598
808	42.03632075471699	42.548811320754716	5.9	SAKARA,BATUMI,KUTAISI	8125
809	42.325	-1.8915	5.6	BARDENAS REALES,LOGRONO/AGONCILLO	5215
810	41.83207547169811	-96.23790188679244	5.9	SIOUX CITY MUNI,FORT OMAHA,DREXEL	14006
811	42.616499999999995	-92.44149999999999	5.6	WATERLOO,WAVERLY	1548
812	42.91685	-106.40014999999998	5.6	CASPER WYO,CASPER/NATRONA COUN	11626
813	43.475	89.3835	5.6	TURPAN,QITAI	20816
814	43.0415	-88.6165	5.6	MILWAUKEE WI AIRPORT,MADISON/DANE COUNTY	23718
815	43.316500000000005	1.2335	5.6	SAINT GIRONS,TOULOUSE BLAGNAC	2095
816	43.533500000000004	6.975	5.6	SAINT-RAPHAEL,NICE	667
817	43.58315	-119.0	5.6	BURNS MUNI (AMOS),BURNS	9056
818	44.033500000000004	24.375	5.6	TR. MAGURELE,CRAIOVA	766
819	44.073350000000005	-70.61500000000001	5.6	BRUNSWICK,MOUNT WASHINGTON	1471
820	43.736320754716985	-0.9226415094339623	5.9	MONT-DE-MARSAN,BIARRITZ,DAX	1549
821	45.15	4.8415	5.6	MONTELIMAR,LYON-BRON	10771
822	44.16484905660377	118.19883018867925	5.9	XI UJIMQIN QI,LINXI,LINDONG	16394
823	45.24165000000001	-93.5667	5.6	ST PAUL,ST CLOUD MUNI AP	53228
824	45.325	28.933500000000002	5.6	SULINA,GALATI	7529
825	45.17682641509435	-83.16989056603775	5.9	ENVIRONM BUOY 45003,ALPENA,ALPENA/PHELPS COLLI	9906
826	45.766999999999996	0.433	5.6	COGNAC,LIMOGES	546
827	45.3678641509434	-73.43749056603774	5.9	LASSOMPTION CDA,BURLINGTON,MONTREAL/TRUDEAU INT	47562
828	46.525	151.18335000000002	5.6	URUP,SIMUSIR	34152
829	46.36	121.705	5.6	ULANHOT,TE-PO-SU-K/-MIAO	13962
830	47.275	130.65	5.6	CHIAMUSSU,EKATERINO-NIKOLSKOE	33287
831	47.425	-97.1	5.6	FARGO/HECTOR FIELD,GRAND FORKS AFB	15897
832	47.60850000000001	-1.6664999999999999	5.6	NANTES,RENNES	1358
833	47.232547169811326	26.808943396226418	5.9	SUCEAVA,BACAU,IASI	3113
834	47.512735849056604	22.91437735849057	5.9	BAIA MARE,ORADEA,SATU MARE	3481
835	47.78656603773585	4.653056603773585	5.9	CHAUMONT,DIJON,AUXERRE	5035
836	48.1665	-103.60814999999998	5.6	WILLISTON,WILLISTON/SLOULIN F	6802
837	48.55835	-109.71685000000002	5.6	HAVRE (AMOS),HAVRE	20908
838	49.425	-97.2415	5.6	PEMBINA,WINNIPEG INT.AIRPOR	18911
839	48.702498113207554	-123.64669811320755	5.9	VANCOUVER INT. AIRP,PORT ANGELES,TATOOSH ISLAND WB	39373
840	50.605000000000004	13.976650000000001	5.6	PRAHA/RUZYNE,WAHNSDORF	48935
841	51.435	10.898349999999999	5.6	ERFURT,WERNIGERODE	10271
842	51.65	-106.65	5.6	ELBOW CS,SASKATOON DIEFENBAKE	2474
843	53.043499999999995	9.84	5.6	HANNOVER,HAMBURG	45717
844	53.175	-2.792	5.6	SHAWBURY,AUGHTON	43846
845	53.492000000000004	-113.525	5.6	EDMONTON INTL ARPT,EDMONTON NAMAO ARPT	10372
846	53.64000000000001	-167.215	5.6	UMNAK ISLAND,DUTCH HARBOR	5752
847	53.55664999999999	7.281649999999999	5.6	JEVER,BORKUM	1056
848	54.951499999999996	-114.0565	5.6	MEANOOK,SLAVE LAKE AIRPORT	13284
849	54.584494339622644	9.584905660377359	5.9	TARP,KEIL/HOLTENAU,EGGEBECK	18249
850	55.875	-3.0335	5.6	ESKDALEMUIR,SHANWELL	35294
851	57.95	11.9665	5.6	GOTEBURG/TORSLANDA,TORPABRON	20845
852	59.80650000000001	30.383500000000005	5.6	SLUTSK,LENINGRAD/CHOSSEYNOR	440
853	60.25834999999999	24.943350000000002	5.6	HELSINKI,HELSINKI/SEUTALA	6010
854	60.725	27.8	5.6	SUUR-MERIJOKI,UTTI	1048
855	62.81665	148.94665	5.6	SUSUMAN,SHTURMOVOY	15468
856	64.1165	-172.41649999999998	5.6	GAMBELL,BUHTA PROVIDENJA	36019
857	65.89185	-168.9415	5.6	WALES,MYS UELEN	31795
858	68.225	-166.275	5.6	CAPE THOMPSON,POINT HOPE	525
859	70.795	-23.185	5.6	KAP TOBIN,OSTSTATION	18487
860	78.06834999999998	13.92665	5.6	ISFJORD RADIO,BARENTSBURG	31038
861	0.52075	34.80425	6.2	KISUMU,ELDORET,TORORO,KITALE	20604
862	-0.32320505223764223	36.72066139092468	7.1	MERU,EMBU,NYERI,NAROK,KERICHO,NAKURU,NANUYKI	21134
863	21.357705130204273	-157.67373159207858	7.1	KAHUKU AAB,BARBERS POINT NAS,HONOLULU HICKAM FIELD,KAHULUI ARPT/MAUI,MOLOKAI HOMESTEAD FIELD,HONOLULU INTL,WAHIAWA	62655
864	22.721	120.44574999999999	6.2	467590,DONGGANG (=595530),TAINAN (TW-AFB),CHIAYI (TW-AFB)	39053
865	29.474975	-98.44999999999999	6.2	SAN ANTONIO (KELLY FIELD),SAN ANTONIO FORT SAM HOUSTON,SAN ANTONIO INTL AP,SAN ANTONIO RANDOLPH AFB	31337
866	29.979	-85.66232499999998	6.2	CAPE SAN BLAS SITE D 3,APALACHICOLA MUNI,PANAMA CITY (TYNDALL FIELD),HURLBURT FIELD (AF)	16486
867	30.558400000000002	-87.483425	6.2	PENSACOLA FOREST SHERMAN NAS,EGLIN AFB RANGE NO.,MOBILE (BROOKLEY AFB),MOBILE	15478
868	30.527547169811328	-89.93364339622642	6.8	BATON ROUGE (HARDING FIELD),NEW ORLEANS,NEW ORLEANS (AAB),HATTIESBURG,NASA MISS. TEST,BILOXI (KEESLER AFB)	30464
869	31.92475	35.36225	6.2	BEER-SHEVA,BEER-YA AQOV TO 401790,AMMAN AIRPORT,IRBED	6896
870	31.50463347457627	-92.55365974576272	6.8	ALEXANDRIA (ESLER FIELD),MONROE (SELMAN FIELD),DE RIDDER (AFB),FORT POLK (ARMY),CLAIBORNE RNG (AFS),ALEXANDRIA	9883
871	32.915825	-90.544975	6.2	JACKSON (AAB),VICKSBURG,GREENVILLE,GREENWOOD AAF	8319
872	33.233324999999994	-83.74585	6.2	WARNER ROBINS ROBINS AFB,MACON COCHRAN FIELD,ATLANTA,ATHENS BEN EPPS AP	55789
873	33.4	-96.87502499999998	6.2	DALLAS HENSLEY FIELD,DALLAS,SHERMAN PERRIN FIELD,ARDMORE AFB	21274
874	33.21138898305085	-111.85234194915255	6.8	PHOENIX,PHOENIX (LUKE FIELD),TUCSON (DAVIS-MONTHAN AFB),COOLIDGE (AAF),CHANDLER (WILLIAMS FIELD),PHOENIX/SKY HARBOR	35118
875	33.171674152542366	-80.95985423728813	6.8	SAVANNAH HUNTER AFB,WALTERBORO AAF,AUGUSTA DANIEL FIELD,COLUMBIA AAB,POINSETT RANGE,SHAW AFB/SUMTER	12349
876	32.746410244815216	-106.43563248089816	7.1	STALLION SITE,HOLLOMAN AFB,WHITE SANDS MISSILE,EL PASO (FORT BLISS),EL PASO (BIGGS AFB),WHITE SANDS TEST RG,FRYE SITE	24594
877	34.808350000000004	-81.91250000000001	6.2	DUE WEST,GREENVILLE DONALDSON AFB,SPARTANBURG,CHARLOTTE MORRIS FIELD	27402
878	35.262750000000004	8.92925	6.2	GAFSA,TEBESSA,THALA,KAIROUAN	60402
879	35.28704330357143	-85.99805625	6.5	CHATTANOOGA,COURTLAND (AAF),TULLAHOMA WILLIAM NORTHERN AAF,MURFREESBORO,SMYRNA SEWART AFB	17407
880	35.61575	139.64675	6.2	TATEYAMA AB,YOKOSUKA,SHIMOFUSA AB,MAEBASHI	7589
881	35.53375	128.771	6.2	SACHEON AB,GIMHAE INTL AIRPORT,DAEGU AB,POHANG AB	20565
882	34.958027154760366	-78.77717899375588	7.1	POPE AFB,RALEIGH/RALEIGH-DUR,WILMINGTON (NEW HANOVER AP),MYRTLE BEACH AAF,OAK ISLAND,LAURINBURG (MAXTON AAB),FORT BRAGG/SIMMONS	25015
883	35.84165	-95.349925	6.2	FT SMITH CAMP CHAFFEE,MUSKOGEE (HATBOX FIELD/AAF),BROKEN ARROW,TULSA INTL ARPT(AW)	24831
884	36.15925	2.02075	6.2	TIARET,CHLEF,MILIANA,ALGER	21172
885	35.8014076054753	-119.61690345154881	7.1	LEMOORE,FRESNO AIRTERM,SANTA MARIA/PUBLIC (CAL),LEBEC,TAFT (GARDNER FIELD),BAKERSFIELD,BAKERSFIELD (MINTER FIELD)	46909
886	37.260496107066174	127.85267036392423	8.0	GANGNEUNG AB,SANGDONG,WONJU AB,GIMPO INTL AIRPORT,CHEONGJU INTL AIRPO,SEOSAN,YECHEON AB,CHEONGJU,SV RI SAN,SEOUL AB	48785
887	38.645825	-89.845925	6.2	BELLEVILLE SCOTT FIELD,ST LOUIS,SALEM LECKRONE AP,ST. LOUIS/LAMBERT	51945
888	38.81414273995078	-96.70623931091059	6.5	TOPEKA (FORBES AFB),MARSHALL FIELD FORT RILEY,FT RILEY/MARSHALL A,WICHITA/MID-CONTINE,SALINA	33736
889	38.80314618644067	-104.59398855932203	6.8	AIR FORCE ACADEMY,DENVER (LOWRY FIELD),LA JUNTA,PUEBLO,PUEBLO MEMORIAL(AW),FORT CARSON/BUTTS	23814
890	40.34157499999999	-86.0459	6.2	INDIANAPOLIS/I.-MUN,INDIANAPOLIS STOUT FIELD,ROYAL CENTER,FORT WAYNE/BAER FLD	39379
891	40.254175000000004	-122.204175	6.2	CHICO MUNI,RED BLUFF MUNICIPAL,REDDING (AAF),REDDING	25609
892	39.8875	-83.51665000000001	6.2	COLUMBUS LOCKBOURNE AFB,DAYTON W PATTERSON AFB,DAYTON MCCOOK FIELD,COLUMBUS	64200
893	40.71675	46.746	6.2	KHANKANDY,EVLAKH AIRPORT,GANDJA,ZAKATALA	2063
894	40.722295462342124	-77.30808687041946	7.1	KYLERTOWN,PHILIPSBURG,BELLEFONTE,MIDDLETOWN OLMSTED AFB,HARRISBURG,READING AAF,WILLIAMSPORT/LYCOMI	33863
895	41.695750000000004	-87.45835	6.2	JOLIET,CHICAGO/MIDWAY,SOUTH BEND ST JOSEPH,CHICAGO UNIVERSITY	34210
896	42.439690690784346	-83.61537085607361	7.1	EAST LANSING,TOLEDO EXPRESS,YPSILANTI,DETROIT METRO.,DETROIT,MOUNT CLEMENS SELFRIDGE AFB,FLINT BISHOP AP	78831
897	42.66543305084745	-76.1135190677966	6.8	SYRACUSE,ROME,BINGHAMTON,ELMIRA,BINGHAMTON/BROOME C,ITHACA	35514
898	45.193809375	22.005845089285717	6.5	DROBETA TURNU SEVER,BEOGRAD/SELENO BRD,TIMISOARA,DEVA,ARAD	18646
899	45.84160593220339	25.13810169491525	6.8	FAGARAS,TG. MURES,BUZAU,PREDEAL,BRASOV-GHIMBAV,SIBIU	4289
900	46.66918210008203	-119.81466472518457	6.5	YAKIMA AIRTERM,ELLENSBURG,MOSES LAKE (LARSON AFB),PENDLETON MUNICIPAL,PASCO	35790
901	47.431620762711866	-122.42250805084745	6.8	SEATTLE (BOEING FIELD),EVERETT (PAINE FIELD),OLYMPIA MUN I AP,GRAY AAF,TACOMA (MCCHORD AFB),SEATTLE-TACOMA INTL	42783
902	48.05075000000001	8.46165	6.2	FRIEDRICHSHAFEN,NEUHAUSEN OB ECK,FREIBURG,STRASBOURG	18053
903	49.296749999999996	11.27575	6.2	MUNICH/RIEM,FEUCHT(USA-AF),GRAFENWOEHR,KITZINGEN AAF	25996
904	49.964847457627116	8.013271186440678	6.8	LANGEN,HANAU,BAUMHOLDER (USA-AF),TRIER,BITBURG,WIESBADEN	16312
905	51.525	7.108325	6.2	KOLN/BONN,LUDENSCHEID,KALKAR,NORDHORN	11161
906	27.692732169117644	-81.62179558823527	8.6	VALKARIA,ORLANDO (PINECASTLE AAF),ORLANDO (AAB),LEESBURG (AAF),DELTA SEVEN,FORT MYERS (PAIGE FIELD),FORT MYERS (BUCKINGHAM AAF),VENICE (AAF),SARASOTA AAF,SEBRING HENDRICKS FIELD,AVON PARK GUNNERY R,TAMPA MACDILL FIELD	21299
907	31.195462500000005	-97.16842499999998	7.4	AUSTIN (BERGSTROM FIELD),BRYAN,COLLEGE STATION (BRYAN AFB),FT HOOD AAF/KILLEEN,GROESBECK,WACO RGNL,WACO (JAMES CONNALLY AFB),STEPHENVILLE	41424
908	31.274574999999995	-84.32748749999999	7.4	MARIANNA (AAF),BAINBRIDGE AAF,VALDOSTA MOODY AFB,MOULTRIE SPENCE FIELD,DOTHAN (NAPIER FIELD),ALBANY,ALBANY TURNER FIELD,LEESBURG	9588
909	32.59339699734519	-86.12503256444873	7.699999999999999	FORT BENNING,FORT BENNING LAWSON AAF,MONTGOMERY (MAXWELL FIELD),MONTGOMERY (GUNTER FIELD),TUSKEGEE (AAF),MONTGOMERY DANNELLY FLD,SELMA CRAIG AFB,CENTREVILLE WSMO,BIRMINGHAM MUNI	69953
910	33.9114114013046	-117.5236756278038	10.399999999999999	OXNARD (FLIGHT STRIP),BURBANK,VICTORVILLE (GEORGE AFB),SANDBURG (AUT),EL CENTRO NAF,BLYTHE,SAN DIEGO (LINDBERGH FIELD),MOUNT LAGUNA,CAMP PENDLETON,THERMAL (AAF),CA SANTA ANA/ORANGE COUNTY AAF,LOMITA (AAF),LONG BEACH,RIVERSIDE (MARCH AFB),PALM SPRINGS (AAF),SAN BERNARDINO (NORTON AFB),LOS ANGELES INTL,GLENDALE	79308
911	35.92467499999999	-116.43708749999999	7.4	BAKER,CUDDLEBACK GUNNERY,BICYCLE LAKE (AAF),SUPERIOR VALLEY GUN,SHOSHONE,INDIAN SPRINGS GUNN,JACKASS FLATS,YUCCA FLATS TEST 21	23848
912	37.764149999999994	-76.85163750000001	7.4	NORFOLK/MUNI (VA),HAMPTON LANGLEY FIELD,NEWPORT NEWS (FORT EUSTIS),RICHMOND/BYRD FIELD,RICHMOND CITY,DAHLGREN,CAMP SPRINGS (ANDREWS AFB),WASHINGTON (BOLLING FIELD)	60336
913	38.685825	-85.46051250000001	7.4	FORT KNOX/GODMAN,LOUISVILLE,LOUISVILLE (BOWMAN FIELD),MADISON JEFFERSON PRVGR,SEYMOUR FREEMAN FIELD,CINCINNATI/GREATER,CINCINNATI (LUNKEN AIRPORT),COLUMBUS	38750
914	37.989147794117635	-121.7135255514706	8.6	SANTA ROSA (AAF),SACRAMENTO/EXECUTIV,SACRAMENTO (MATHER AFB),AUBURN,SALINAS (AAB),HOLLISTER,SAN JOSE/EMSU,CASTLE AFB,SAN FRANCISCO,SAN FRANCISCO CRISSY FIELD,STOCKTON (FIELD),SAN RAFAEL (HAMILTON AFB)	27418
915	41.931264502267844	-71.66084580448795	9.2	BEDFORD HANSCOM AP,MANCHESTER (GRENIER FIELD),FALMOUTH OTIS AFB,NORTH TRURO,CAMBRIDGE MIT,BOSTON/LOGAN INTL,WESTHAMPTON SUFFOLK COUNTY AAF,FISHERS ISLAND FORT H G WRIGHT,NANTUCKET MEM AP,POINT JUDITH,NEWBURGH/STEWART AFB,HARTFORD,WINDSOR LOCKS/BRADLEY FIELD,CHICOPEE FALLS (WESTOVER AFB)	69721
916	40.0716375	-74.7037375	9.8	WASHINGTON/NATIONAL,EDGEWOOD,DOVER (AAF),ATLANTIC CITY U-A,WILMINGTON (NEW CASTLE AAB),PHILADELPHIA INTL,CAMDEN,LAKEHURST,SPRING LAKE BELMAR,FT. MONMOUTH,STATEN ISLAND MILLER FIELD,NEW YORK JFK AP,NEWARK,HEMPSTEAD MITCHELL AFB,LA GUARDIA,NEW YORK UNIVERSITY	128579
