	latitude	longitude	radius	station	records
0	-80.017	-119.533	5.0	BYRD STN	7679
1	-79.25	-147.5	5.0	LITTLE ROCKFORD	309
2	-78.45	106.867	5.0	VOSTOK	7319
3	-78.4	87.583	5.0	SOVIETSKAVA	273
4	-76.2667	-147.5	5.0	LITTLE ROCKFORD	389
5	-72.3	170.2167	5.0	ADARE HALLETT	4373
6	-70.4333	24.3167	5.0	BASE ROI BAUDOUIN	1097
7	-70.317	-2.367	5.0	SANAE	9815
8	-69.73	95.05	5.0	PIONERSKAVA	121
9	-69.5	159.4	5.0	LENINGRADSKAJA	2575
10	-67.667	45.85	5.0	MOLODEZNAJA	13014
11	-66.27	100.73	5.0	BUNGER OASIS	548
12	-65.25	-64.2667	5.0	FARADAY	10141
13	-63.4667	-56.2833	5.0	PETREL NAS	1654
14	-62.183	-58.883	5.0	BELLINGSHAUSEN AWS	6342
15	-60.75	-44.7167	5.0	ISLAS ORCADAS (MET)	8699
16	-59.45	-27.267	5.0	CORBETA URUGUAY DN	275
17	-54.8	-68.3167	5.0	USHUAIA	1943
18	-53.8	-67.75	5.0	RIO GRANDE AIRPORT	3267
19	-53.1	73.7167	5.0	HEARD IS.(THESPIT)	2295
20	-52.55	169.15	5.0	CAMPBELL ISLAND	18775
21	-51.7	-57.8667	5.0	STANLEY	4603
22	-51.6333	-69.2167	5.0	RIO GALLEGOS B. A.	4526
23	-49.3522	70.2433	5.0	PORT-AUX-FRANCAIS	15904
24	-46.8831	37.8669	5.0	MARION ISLAND	33482
25	-43.95	-176.5667	5.0	CHATHAM ISL/TUUTA	16837
26	-43.2333	-65.3	5.0	ALMIRANTE ZAR	1150
27	-42.8833	147.3333	5.0	HOBART	1774
28	-42.7167	170.9833	5.0	HOKITIKA AERODROME	26036
29	-42.417	173.7	5.0	KAIKOURA	5055
30	-42.2	145.05	5.0	GEOGERTOWN	2980
31	-41.533	147.2	5.0	LAUNCESTON AIRPORT	53633
32	-41.3	174.63	5.0	OUTLOOK HILL	11385
33	-39.467	175.683	5.0	WAIOURU	2309
34	-39.0167	174.1833	5.0	NEW PLYMOUTH AERO	31454
35	-38.7333	-62.1667	5.0	COMANDANTE ESPORA	13733
36	-38.6667	177.9833	5.0	GISBORNE AERODROME	28600
37	-38.1	147.1333	5.0	EAST SALE (AUS-AFB)	45308
38	-37.867	144.75	5.0	LAVERTON AERODROME	58326
39	-37.7953	77.5692	5.0	MARTIN DE VIVIES	16637
40	-35.367	-57.283	5.0	PUNTA INDIO B.A.	151
41	-35.3	149.183	5.0	CANBERRA AIRPORT	54494
42	-35.1	173.267	5.0	KAITAIA	14537
43	-34.58	-58.48	5.0	BUENOS AIRES	107
44	-34.2358	142.0867	5.0	MILDURA AIRPORT	75371
45	-34.017	22.383	5.0	GEORGE AIRPORT	4491
46	-33.6	115.4667	5.0	LUDLOW	539
47	-33.033	27.833	5.0	EAST LONDON	3098
48	-32.8833	-68.85	5.0	OBSERV MENDOZA	3075
49	-32.78	-71.51	5.0	QUINTERO (MIL)	28938
50	-32.5667	148.95	5.0	WELLINGTON	948
51	-31.6667	128.8667	5.0	EUCLA	12086
52	-31.35	-54.117	5.0	BAGE (AEROPORTO)	1012
53	-30.833	128.1	5.0	FORREST AIRPORT	54264
54	-30.5167	151.65	5.0	ARMIDALE	728
55	-30.3108	153.1186	5.0	COFFS HARBOUR MO	67021
56	-30.0833	145.9667	5.0	BOURKE (S23'05'11'17)	130
57	-30.01	131.583	5.0	MARALINGA	7453
58	-29.9667	30.95	5.0	DURBAN/LOUIS BOTHA	29090
59	-29.2447	-177.9289	5.0	RAOUL ISLAND	25267
60	-28.8	24.767	5.0	KIMBERLEY	9829
61	-28.567	16.533	5.0	KORTDOORN/ALEXANDER	11144
62	-28.25	28.3333	5.0	BETHLEHEM AIRPORT	11390
63	-27.65	152.7167	5.0	AMBERLEY	2455
64	-27.55	135.4833	5.0	OODNADATTA	37900
65	-27.4667	-58.9833	5.0	RESISTENCIA	1200
66	-26.5333	18.1167	5.0	KEETMANSHOOP	6019
67	-26.05	22.45	5.0	TSABONG	836
68	-25.917	32.567	5.0	MAPUTO/MAVALANE	20132
69	-25.783	25.533	5.0	MAFIKENG WO	1154
70	-25.733	28.183	5.0	PRETORIA-EENDRACHT	3937
71	-25.55	45.533	5.0	FAUX-CAP	549
72	-25.2333	-57.5167	5.0	AEROPUERTO SILVIO PETTIROSSI	5464
73	-25.0333	46.95	5.0	TAOLAGNARO	29889
74	-24.8878	113.67	5.0	CARNARVON AIRPORT	71908
75	-24.85	-65.4833	5.0	SALTA AERO	19838
76	-23.867	35.383	5.0	INHAMBANE	4808
77	-23.8667	29.45	5.0	PIETERSBURG (SAAF)	13740
78	-23.85	151.25	5.0	GLADSTONE	46725
79	-23.617	-46.65	5.0	SAO PAULO	16840
80	-23.4372	144.2769	5.0	LONGREACH AERO	47067
81	-23.383	43.733	5.0	TOLIARA	5308
82	-23.35	-149.4833	5.0	TUBUAI ISLAND	19527
83	-22.9833	14.65	5.0	WALVIS BAY AIRPORT	1174
84	-22.8	47.833	5.0	FARAFANGANA	2385
85	-22.55	45.4	5.0	RANOHIRA	1639
86	-22.333	40.333	5.0	ILE EUROPA	7597
87	-22.2761	166.4528	5.0	NOUMEA (NLLE-CALEDONIE)	41494
88	-22.217	30.0	5.0	BEITBRIDGE	3367
89	-22.03	-63.68	5.0	YACUIBA	670
90	-22.0167	-60.6167	5.0	MARISCAL ESTIGARRIBIA	708
91	-21.817	-138.8	5.0	MURUROA	6907
92	-21.75	43.367	5.0	MOROMBE	1328
93	-21.6333	115.1167	5.0	ONSLOW	25950
94	-21.45	47.1	5.0	FIANARANTSOA	1453
95	-21.417	25.6	5.0	LETLHAKANE	693
96	-21.233	-175.15	5.0	FUAAMOTU	5436
97	-21.217	27.5	5.0	FRANCISTOWN	613
98	-21.2	-159.8167	5.0	RAROTONGA	23629
99	-21.2	48.367	5.0	MANANJARY	4840
100	-21.1172	149.2169	5.0	MACKAY M.O	66046
101	-21.017	31.583	5.0	BUFFALO RANGE	6492
102	-20.767	167.233	5.0	OUANAHAM	7206
103	-20.7667	-138.55	5.0	TUREIA	271
104	-20.6667	140.5	5.0	CLONCURRY	33366
105	-20.567	164.283	5.0	KOUMAC	11482
106	-20.5	-29.3167	5.0	TRINDADE (ILHA)	9829
107	-20.283	44.317	5.0	MORONDAVA	3268
108	-20.233	169.767	5.0	ANEITYUM	125
109	-20.15	28.617	5.0	BULAWAYO	14661
110	-20.067	30.867	5.0	MASVINGO	8225
111	-19.9833	23.4167	5.0	MAUN	1796
112	-19.9061	-144.9494	5.0	HEREHERETUE	7607
113	-19.833	48.8	5.0	MAHANORO	1069
114	-19.8	34.9	5.0	BEIRA	8665
115	-19.783	-47.967	5.0	UBERABA	134
116	-19.683	63.417	5.0	RODRIGUES	10891
117	-19.6422	134.1833	5.0	TENNANT CREEK AIRPORT	46728
118	-19.6	18.117	5.0	GROOTFONTEIN	4094
119	-19.45	29.85	5.0	GWERU	5186
120	-19.28	121.5	5.0	TALGARNO	297
121	-19.2483	146.7661	5.0	TOWNSVILLE AERO	87784
122	-18.9	47.5333	5.0	TANANARIVE/SCM	4211
123	-18.633	26.85	5.0	HWANGE NATIONAL PAR	2189
124	-18.533	32.15	5.0	RUSAPE	2604
125	-18.317	29.883	5.0	KADOMA	1432
126	-18.3167	-59.7667	5.0	ROBORE	144
127	-18.2292	127.6636	5.0	HALLS CREEK AIRPORT	52731
128	-18.217	28.933	5.0	GOKWE	1693
129	-18.067	-140.95	5.0	HAO	18186
130	-17.883	36.883	5.0	QUELIMANE	2266
131	-17.8	-63.1833	5.0	SANTA CRUZ/EL TROMPILLO	1454
132	-17.7333	-39.25	5.0	CARAVELAS	5524
133	-17.7333	139.5333	5.0	BURKETOWN	145
134	-17.6833	141.0667	5.0	NORMANTON AIRPORT	229
135	-17.5553	-149.6145	5.0	TAHITI-FAAA	40183
136	-17.417	32.217	5.0	MUTOKO	4155
137	-17.38	-66.17	5.0	COCHABAMBA	1502
138	-17.3167	123.6333	5.0	DERBY	7081
139	-17.083	49.817	5.0	SAINTE-MARIE AERODR	681
140	-17.05	42.717	5.0	ILE JUAN DE NOVA	5730
141	-16.8736	145.7458	5.0	CAIRNS AERO	79304
142	-16.833	29.617	5.0	KAROI	4958
143	-16.517	-68.183	5.0	LA PAZ/ALTO	4156
144	-16.517	28.883	5.0	KARIBA	2203
145	-16.45	-151.75	5.0	BORA-BORA	11160
146	-16.45	59.617	5.0	ST. BRANDON	5725
147	-16.333	-71.567	5.0	AREQUIPA	3138
148	-16.2667	133.3833	5.0	DALY WATERS	20570
149	-16.183	33.583	5.0	TETE	2074
150	-15.8878	54.5206	5.0	SERGE-FROLOW (ILE TROMELIN)	20680
151	-15.683	34.967	5.0	CHILEKA	10079
152	-15.6667	46.35	5.0	MAHAJANGA	36011
153	-15.6	-56.1	5.0	CUIABA	443
154	-15.517	167.217	5.0	PEKOA AIRPORT	661
155	-15.417	28.317	5.0	LUSAKA CITY AIRPORT	9588
156	-15.25	23.15	5.0	MONGU	5748
157	-15.2167	12.1667	5.0	MOCAMEDES	1595
158	-15.1	39.283	5.0	NAMPULA	4237
159	-15.0	50.333	5.0	ANTALAHA	4654
160	-14.95	-147.659	5.0	RANGIROA	5720
161	-14.95	-40.883	5.0	VITORIA DA CONQUIST	123
162	-14.933	13.567	5.0	LUBANGO	236
163	-14.8167	-64.9167	5.0	TRINIDAD	937
164	-14.633	47.767	5.0	ANALALAVA	1607
165	-14.4833	-145.0333	5.0	TAKAROA ATOLL	17249
166	-14.45	-67.53	5.0	RURRENABAQUE	125
167	-14.4167	28.4833	5.0	KABWE	12025
168	-14.3667	-170.7833	5.0	LEONE BAY AMERICAN S	359
169	-14.283	50.167	5.0	SAMBAVA	2763
170	-13.8	-171.783	5.0	APIA	10496
171	-13.75	34.583	5.0	SALIMA	2342
172	-13.733	-76.217	5.0	PISCO	1501
173	-13.55	32.583	5.0	CHIPATA	140
174	-13.367	50.0	5.0	VOHEMAR	807
175	-13.317	48.317	5.0	FASCENE (NOSSI-BE)	786
176	-13.3	35.233	5.0	LICHINGA	1908
177	-13.2667	-43.4167	5.0	BOM JESUS DA LAPA	6605
178	-13.0167	-38.5167	5.0	SALVADOR	7952
179	-13.0	28.65	5.0	NDOLA	2372
180	-12.983	40.533	5.0	PEMBA	3898
181	-12.8	15.75	5.0	HUAMBO	301
182	-12.8	45.2833	5.0	DZAOUDZI/PAMANZI	15117
183	-12.5	177.05	5.0	ROTUMA	6835
184	-12.37	13.53	5.0	LOBITO	100
185	-12.35	49.3	5.0	ANTSIRANANA	8157
186	-12.15	-77.0	5.0	LAS PALMAS	389
187	-12.15	-45.0	5.0	BARREIRAS	1194
188	-12.117	44.433	5.0	OUANI (ANJOUAN)	3271
189	-11.783	19.917	5.0	LUENA (LUSO)	1995
190	-11.75	24.4333	5.0	MWINLUNGA	2872
191	-11.7	43.233	5.0	MORONI AIRPORT	5231
192	-11.583	47.283	5.0	ILES GLORIEUSES	7379
193	-11.3	-41.867	5.0	IRECE	347
194	-11.0333	-68.7833	5.0	COBIJA	222
195	-10.917	-37.05	5.0	ARACAJU	417
196	-10.82	-65.37	5.0	GUAYARAMERIN	618
197	-10.7	-48.4	5.0	PORTO NACIONAL	1005
198	-10.7	152.833	5.0	MISIMA ISLAND	2055
199	-10.7	165.8	5.0	SANTA CRUZ ISLAND	151
200	-10.583	142.217	5.0	THURSDAY IL/HORN IL	21187
201	-10.45	105.7	5.0	CHRISTMAS ISL (PVT)	3447
202	-10.433	56.75	5.0	AGALEGA	2514
203	-10.217	31.133	5.0	KASAMA	3135
204	-9.95	33.883	5.0	KARONGA	2595
205	-9.517	-35.783	5.0	MACEIO (AEROPORTO)	133
206	-9.4167	159.9667	5.0	HONIARA	24636
207	-9.3833	-40.4833	5.0	PETROLINA	9393
208	-9.3833	147.2167	5.0	PORT MORESBY W.O.	50726
209	-9.35	46.533	5.0	ALDABRA	143
210	-9.333	-54.967	5.0	CACHIMBO AERO	2176
211	-9.2	124.367	5.0	OE-CUSSIE	498
212	-9.1	-44.117	5.0	BOM JESUS	376
213	-9.0	-158.05	5.0	PENRHYN	8316
214	-8.933	33.467	5.0	MBEYA	767
215	-8.85	13.233	5.0	LUANDA	8531
216	-8.55	125.55	5.0	DILLI/DILLI AIRPORT	7176
217	-8.367	-74.567	5.0	PUCALLPA	328
218	-8.05	-34.9167	5.0	RECIFE	14978
219	-7.967	112.7	5.0	MALANG/ABDUL (AFB)	586
220	-7.9667	-14.4	5.0	WIDE AWAKE FIELD	18170
221	-7.633	35.767	5.0	IRINGA	677
222	-7.617	111.517	5.0	MADIUN/ISWAHYUD AFB	3443
223	-7.4	20.817	5.0	DUNDO	6240
224	-7.3333	-47.4667	5.0	CAROLINA	5666
225	-7.333	108.25	5.0	CIBEUREM/TASIK(AFB)	625
226	-7.317	-39.3	5.0	BARBALHA	334
227	-7.3	72.4	5.0	DIEGO GARCIA	16326
228	-7.017	-37.267	5.0	PATOS	137
229	-6.8667	39.2	5.0	DAR ES SALAAM INT	10437
230	-6.833	37.65	5.0	MOROGORO	142
231	-6.783	-79.817	5.0	CHICLAYO	1504
232	-6.7667	-43.0167	5.0	FLORIANO	7626
233	-6.733	147.0	5.0	LAE	29138
234	-6.267	-57.733	5.0	JACAREACANGA	287
235	-6.167	35.767	5.0	DODOMA	1096
236	-5.5	-45.267	5.0	BARRA DO CORDA	161
237	-5.217	145.783	5.0	MADANG	18232
238	-5.2	-39.3	5.0	QUIXERAMOBIM	334
239	-5.083	32.833	5.0	TABORA AIRPORT	1062
240	-5.083	39.067	5.0	TANGA	776
241	-5.05	-42.817	5.0	TERESINA	313
242	-4.883	29.667	5.0	KIGOMA	112
243	-4.883	38.283	5.0	MOMBO	113
244	-4.567	-81.233	5.0	TALARA	1823
245	-4.45	105.183	5.0	MENGGALA/ASTRA KSET	181
246	-4.217	12.667	5.0	DOLISIE	7834
247	-4.217	152.183	5.0	RABAUL	27818
248	-4.1	122.433	5.0	KENDARI/WOLTER MONG	1064
249	-4.05	-154.9833	5.0	MALDEN ISLAND AF	274
250	-4.033	39.617	5.0	MOMBASA	3673
251	-3.7667	-38.6	5.0	FORTALEZA	9728
252	-3.417	37.067	5.0	KILIMANJARO AIRPORT	696
253	-3.4	38.567	5.0	VOI	4508
254	-3.2944	-60.6283	5.0	MANACAPURU	2770
255	-3.217	40.1	5.0	MALINDI	1769
256	-3.083	-41.783	5.0	PARNAIBA	665
257	-2.767	-171.717	5.0	KANTON ISLAND	16684
258	-2.533	14.767	5.0	DJAMBALA	1376
259	-2.467	32.917	5.0	MWANZA	383
260	-2.283	37.833	5.0	MAKINDU	5723
261	-2.2	-81.0	5.0	CHINCHIPE	601
262	-2.1581	-79.8839	5.0	GUAYAQUIL AEROPUERTO	5607
263	-2.05	147.4167	5.0	MOMOTE W.O.	23951
264	-1.333	31.817	5.0	BUKOBA	1433
265	-1.133	35.833	5.0	NAROK	4802
266	-0.9	-89.6	5.0	SAN CRISTOBAL RADIOSONDA	3825
267	-0.7	8.75	5.0	PORT-GENTIL	10586
268	-0.617	30.65	5.0	MBARARA	114
269	-0.5167	166.9167	5.0	NAURU ARC-2	6251
270	-0.467	39.633	5.0	GARISSA	7179
271	-0.267	36.1	5.0	NAKURU	7184
272	0.05	32.45	5.0	ENTEBBE AIRPORT	6316
273	0.183	30.1	5.0	KASESE	419
274	0.383	6.717	5.0	S. TOME	5381
275	0.683	34.167	5.0	TORORO	264
276	1.083	154.767	5.0	KAPINGAMARANGI ATOL	487
277	1.617	18.067	5.0	IMPFONDO	986
278	1.683	31.717	5.0	MASINDI	632
279	1.717	33.617	5.0	SOROTI	112
280	1.75	40.067	5.0	WAJIR	3181
281	1.85	-78.767	5.0	TUMACO	344
282	2.0	-157.4	5.0	CHRISTMAS ISLAND	29424
283	2.033	-56.117	5.0	SIPALIWINI	331
284	2.083	11.483	5.0	BITAM	483
285	2.333	37.983	5.0	MARSABIT	1160
286	3.117	35.617	5.0	LODWAR	8644
287	3.367	-57.333	5.0	COEROENI	254
288	3.533	39.05	5.0	MOYALE	3218
289	3.55	-76.3833	5.0	CALI/ALFONSO BONILLA ARAGON	1230
290	3.633	-54.033	5.0	MARIPASOULA	1329
291	3.783	-56.15	5.0	TAFELBERG	228
292	3.833	11.517	5.0	YAOUNDE	7131
293	3.85	-159.367	5.0	FANNING ISLAND	103
294	3.883	-51.8	5.0	SAINT GEORGES	2681
295	3.933	41.867	5.0	MANDERA	3516
296	4.1917	73.5292	5.0	MALE	4090
297	4.2167	100.7	5.0	SITIAWAN	52733
298	4.25	15.8	5.0	BERBERATI	2543
299	4.317	21.183	5.0	MOBAYE	150
300	4.35	-54.417	5.0	STOELMANSEILAND	153
301	4.4	18.5167	5.0	BANGUI	34559
302	4.417	-7.367	5.0	TABOU	12633
303	4.467	14.367	5.0	BATOURI	4064
304	4.55	-70.917	5.0	LAS GAVIOTAS	3770
305	4.6	-61.1167	5.0	SANTA ELENA DE UAIREN	813
306	4.733	22.833	5.0	BANGASSOU	2199
307	4.8222	-52.3653	5.0	CAYENNE MATOURY	27508
308	4.867	31.6	5.0	JUBA	1813
309	4.883	-1.767	5.0	TAKORADI	135
310	5.3333	163.0167	5.0	KUSAIE/CAROLINES	1652
311	5.45	-55.2	5.0	ZANDERIJ	2383
312	5.467	100.383	5.0	BUTTERWORTH AB	24729
313	5.5	-54.033	5.0	SAINT-LAURENT	3207
314	5.55	12.367	5.0	YOKO	1316
315	5.6	-0.1667	5.0	ACCRA/KOTOKA INTL	3276
316	5.65	10.75	5.0	KOUNDJA	5780
317	5.8833	-162.05	5.0	PALMYRA ISLAND	631
318	5.9	43.583	5.0	GODE	237
319	5.9	118.0667	5.0	SANDAKAN	47253
320	5.917	169.65	5.0	JALUIT ATOLL	130
321	5.95	-57.033	5.0	NICKERIE	382
322	5.967	15.633	5.0	BOUAR	2424
323	6.25	-10.35	5.0	ROBERTS FIELD	1457
324	6.467	7.55	5.0	ENUGU	469
325	6.483	17.433	5.0	BOSSANGOA	3181
326	6.8833	81.8333	5.0	POTTUVIL	151
327	6.9	122.067	5.0	ZAMBOANGA	4876
328	7.233	-70.8	5.0	GUASDUALITO	356
329	7.3	-61.45	5.0	TUMEREMO	451
330	7.383	143.917	5.0	WOLEAI ATOLL	106
331	7.7	28.017	5.0	WAU	717
332	7.733	-5.067	5.0	BOUAKE	14811
333	7.85	-72.45	5.0	SAN ANTONIO DEL TACHIRA	3694
334	7.9	-67.4167	5.0	SAN FERNANDO DE APURE	1404
335	8.0333	79.8333	5.0	PUTTALAM	6376
336	8.15	-63.55	5.0	CIUDAD BOLIVAR	641
337	8.28	73.05	5.0	MALIKU	574
338	8.3333	80.4167	5.0	ANURADHAPURA	612
339	8.4	20.65	5.0	NDELE	2173
340	8.4089	124.6119	5.0	LUMBIA AIRPORT	3518
341	8.617	-13.2	5.0	LUNGI	1194
342	8.8667	2.6	5.0	TCHAOUROU	6364
343	8.983	1.15	5.0	SOKODE	5401
344	9.15	18.3833	5.0	SARH	17203
345	9.15	92.81	5.0	CAR NICOBAR	1627
346	9.333	13.383	5.0	GAROUA	10956
347	9.417	-5.617	5.0	KORHOGO	11845
348	9.467	170.25	5.0	WOTJE ATOLL	299
349	9.5	-7.567	5.0	ODIENNE	140
350	9.5	-0.85	5.0	TAMALE	1562
351	9.55	31.65	5.0	MALKAL	4130
352	9.5667	-13.6167	5.0	CONAKRY	13759
353	9.6	105.967	5.0	BA-XUYEN/SOC TRANG	170
354	9.75	-63.183	5.0	MATURIN	1184
355	9.8	125.5	5.0	SURIGAO	347
356	9.817	-70.933	5.0	MENE GRANDE	780
357	9.9333	76.2333	5.0	COCHIN (IN-NAVY)	17051
358	10.067	-69.317	5.0	BARQUISIMETO	741
359	10.117	-64.683	5.0	BARCELONA	1459
360	10.25	-67.65	5.0	MARACAY - B.A. SUCRE	5220
361	10.333	123.9	5.0	LAHUG	2175
362	10.3667	-12.0833	5.0	MAMOU	2746
363	10.3833	-9.3	5.0	KANKAN	11475
364	10.6	-66.983	5.0	CARACAS/MAIQUETIA A	912
365	10.6667	-63.25	5.0	CARUPANO	159
366	10.6833	-61.6167	5.0	TRINIDAD BWI	10395
367	10.717	115.833	5.0	NENSHA ISL	436
368	10.7667	78.7167	5.0	TIRUCHCHIRAPALLI	12612
369	10.85	121.033	5.0	CUYO	270
370	10.917	-63.967	5.0	PORLAMAR	739
371	11.1167	72.7333	5.0	AMINIDIVI	26613
372	11.1333	2.9333	5.0	KANDI	24677
373	11.1667	-4.3	5.0	BOBO-DIOULASSO	51478
374	11.233	169.85	5.0	UTIRIK ATOLL M.ISL	577
375	11.3	167.48	5.0	RONGERIK	145
376	11.3167	-12.3	5.0	LABE	3485
377	11.35	162.35	5.0	ENEWETAK	16361
378	11.52	165.55	5.0	BIKINI	294
379	11.5333	-72.9333	5.0	RIOHACHA/ALMIRANTE PADILLA	2967
380	11.55	43.15	5.0	DJIBOUTI	2487
381	11.783	34.383	5.0	DAMAZINE	1808
382	11.85	13.083	5.0	MAIDUGURI	593
383	11.87	-15.5	5.0	BISSAU	2569
384	12.15	-86.167	5.0	MANAGUA A.C.SANDINO	2831
385	12.35	-1.5167	5.0	OUAGADOUGOU	60904
386	12.433	98.6	5.0	MERGUI	3067
387	12.55	-16.267	5.0	ZIGUINCHOR	40419
388	12.633	-8.033	5.0	BAMAKO	18540
389	12.7	28.433	5.0	EN NAHUD	198
390	12.833	45.033	5.0	ADEN	16467
391	13.0667	-9.4833	5.0	KITA	4283
392	13.167	30.233	5.0	EL OBEID	4005
393	13.167	32.667	5.0	AROMA	298
394	13.3	-87.1833	5.0	CHOLUTECA	767
395	13.433	-6.283	5.0	SEGOU	22146
396	13.467	7.083	5.0	MARADI	18936
397	13.483	22.45	5.0	GENINA	1058
398	13.567	-89.833	5.0	ACAJUTLA	185
399	13.617	25.333	5.0	EL FASHER	2234
400	13.683	44.15	5.0	TAIZ (CIV/MIL)	449
401	13.7	-89.117	5.0	SAN SALVADOR/ILOPAN	689
402	13.75	-60.98	5.0	VIEUX FORT	815
403	13.7833	8.9833	5.0	ZINDER	42219
404	13.8	5.25	5.0	BIRNI-N'KONNI	30210
405	13.85	20.85	5.0	ABECHE	4728
406	13.917	-90.817	5.0	SAN JOSE	1220
407	14.033	35.4	5.0	GEDAREF	238
408	14.067	-83.367	5.0	PUERTO CABEZAS	4028
409	14.1	98.2167	5.0	DAWEI	3999
410	14.117	93.367	5.0	COCO ISLAND	985
411	14.4	33.483	5.0	WAD MEDANI	269
412	14.5	-4.2	5.0	MOPTI-SEVARE	11065
413	14.5333	-90.5667	5.0	GUATEMALA CITY	5620
414	14.6	-61.0	5.0	LAMENTIN AERO	9234
415	14.6833	77.6167	5.0	ANANTAPUR	10993
416	14.75	42.967	5.0	HODEIDAH (CIV/MIL)	542
417	14.8	100.617	5.0	LOP BURI	837
418	14.9	-23.517	5.0	PRAIA	123
419	15.117	105.783	5.0	PAKSE	590
420	15.117	145.733	5.0	SAIPAN/ISLEY (CGS)	7992
421	15.15	76.95	5.0	BELLARY	989
422	15.167	-7.283	5.0	NARA	9645
423	15.283	38.917	5.0	ASMARA	2299
424	15.4167	75.6333	5.0	GADAG	12739
425	15.4167	108.7	5.0	CHU LAI	822
426	15.467	36.4	5.0	KASSALA	4169
427	15.717	-88.6	5.0	PUERTO BARRIOS	639
428	16.05	-16.483	5.0	SAINT-LOUIS	40078
429	16.1667	-95.1667	5.0	SALINA CRUZ	556
430	16.2639	-61.5164	5.0	LE RAIZET AERO	40752
431	16.267	-0.05	5.0	GAO	33723
432	16.433	101.15	5.0	PHETCHABUN	401
433	16.533	80.8	5.0	VIJAYAWADA/GANNAVA	8012
434	16.55	104.65	5.0	SAVANNAKHET	508
435	16.55	111.617	5.0	HOANG SA (PATTLE)	417
436	16.6	-7.267	5.0	NEMA	14295
437	16.633	-11.4	5.0	KIFFA	4608
438	16.7167	-3.0	5.0	TOMBOUCTOU	28543
439	16.7333	-169.5167	5.0	JOHNSTON IS WSO AP	27741
440	16.7333	-9.6333	5.0	AIOUN ELATROUSS	4231
441	16.7419	-22.9489	5.0	SAL	17887
442	16.767	94.767	5.0	PATHEIN	2065
443	16.883	42.583	5.0	GIZAN	1629
444	16.9	96.183	5.0	MINGALADON	945
445	17.117	-61.783	5.0	COOLIDGE FIELD (UA)	13896
446	17.4	-83.9333	5.0	SWAN ISLAND	22712
447	17.417	104.783	5.0	NAKHON PHANOM	2528
448	17.45	78.4667	5.0	HYDERABAD AIRPORT	49864
449	17.68	83.35	5.0	WALTAIR	3498
450	17.7	-64.8	5.0	ST CROIX (BENEDICT FIELD)	346
451	17.7	33.967	5.0	ATBARA	361
452	17.9	-62.85	5.0	ST. BARTHELEMY	4048
453	18.0	19.167	5.0	FAYA	2999
454	18.0167	-66.5	5.0	PONCE LOSEY FIELD	4773
455	18.2167	109.5833	5.0	SANYA	23144
456	18.3	42.8	5.0	KHAMIS MUSHAIT	11138
457	18.433	1.35	5.0	KIDAL	5839
458	18.467	94.35	5.0	SANDOWAY	6057
459	18.55	31.85	5.0	KARIMA	2435
460	18.633	-91.833	5.0	CUIDAD DEL CARMEN	185
461	18.683	12.917	5.0	BILMA	21154
462	18.717	-110.95	5.0	ISLA SOCORRO	9477
463	18.9	72.82	5.0	COLABA	973
464	18.9167	-155.6833	5.0	MORSE FIELD	492
465	19.05	-69.3833	5.0	SABANA DE LA MAR	4059
466	19.0833	82.0333	5.0	JAGDALPUR	26956
467	19.1	108.617	5.0	DONGFANG	6890
468	19.167	30.483	5.0	DONGOLA	1444
469	19.2667	84.8833	5.0	GOPALPUR	9005
470	19.2833	166.65	5.0	WAKE IS	38611
471	19.533	33.317	5.0	ABU HAMED	1995
472	19.583	37.217	5.0	PORT SUDAN	2214
473	19.883	102.133	5.0	LUANG-PRABANG	472
474	19.9	-75.217	5.0	GUANTANAMO BAY NAS	23093
475	20.133	92.883	5.0	SITTWE	9125
476	20.2	0.9833	5.0	TESSALIT	13490
477	20.45	121.967	5.0	BASCO	867
478	20.48	85.87	5.0	CUTTACK	318
479	20.517	-13.067	5.0	ATAR	22233
480	20.57	74.53	5.0	MALEGAON	2563
481	20.667	58.9	5.0	MASIRAH	514
482	20.7167	116.7167	5.0	DONGSHA (=597920)	9110
483	20.883	95.9	5.0	MEIKTILA	5141
484	20.899	-156.43	5.0	KAHULUI ARPT/MAUI	19540
485	20.9	70.367	5.0	VERAVAL	17106
486	20.9333	-17.0333	5.0	NOUADHIBOU	33748
487	21.15	-157.1	5.0	MOLOKAI HOMESTEAD FIELD	1921
488	21.2	72.8333	5.0	SURAT	2307
489	21.217	110.4	5.0	ZHANJIANG	5208
490	21.3	99.617	5.0	KENGTUNG	231
491	21.3333	0.95	5.0	BORDJ-BADJ-MOKHTAR	231
492	21.4	-77.85	5.0	CAMAGUEY	5786
493	21.45	-71.15	5.0	TURKS ISLAND	10548
494	21.4833	109.1	5.0	BEIHAI	9881
495	21.5167	86.9333	5.0	BALASORE	1408
496	21.817	31.35	5.0	WADI HALFA	3487
497	21.8333	111.9667	5.0	YANGJIANG	25007
498	21.983	96.1	5.0	MANDALAY	5055
499	22.0333	-159.7833	5.0	BARKING SANDS	5267
500	22.25	91.82	5.0	CHATTAGRAM	1629
501	22.283	-97.85	5.0	TAMPICO	165
502	22.367	106.75	5.0	LONGZHOU	4011
503	22.37	-73.03	5.0	MAYAGUAN	1160
504	22.45	70.083	5.0	JAMNAGAR	895
505	22.5	103.95	5.0	HEKOU	13535
506	22.6833	121.5	5.0	LU-TAO	3323
507	22.767	81.9	5.0	PENDRA ROAD	5308
508	22.783	115.367	5.0	SHANWEI	2322
509	22.8167	86.1833	5.0	JAMSHEDPUR	7560
510	23.217	113.483	5.0	GUANGZHOU	28004
511	23.2833	77.35	5.0	BHOPAL/BAIRAGHAR	35992
512	23.3833	87.0833	5.0	BANKURA	1420
513	23.5833	119.6167	5.0	MAKUNG AB (=593450)	22564
514	23.6	58.55	5.0	BAIT AL FALAJ	4268
515	23.62	90.05	5.0	DACCA	3646
516	23.73	-99.11	5.0	CIUDAD VICTORIA	1366
517	23.8167	5.15	5.0	IN AMGUEL	144
518	23.8833	91.25	5.0	AGARTALA	37876
519	23.8833	100.0833	5.0	LINCANG	2076
520	23.9833	121.6	5.0	HUA-LIEN CITY	17027
521	24.067	105.067	5.0	GUANGNAN	5390
522	24.183	120.65	5.0	TAICHUNG (TW-AFB)	4776
523	24.217	23.3	5.0	KUFRA	6321
524	24.267	9.467	5.0	DJANET	6261
525	24.35	109.4	5.0	LIUZHOU	4445
526	24.7	46.733	5.0	RIYADH OBS.	11578
527	24.7	108.0333	5.0	HECHI	22855
528	24.7667	93.9	5.0	IMPHAL/TULIHAL	19897
529	24.783	141.333	5.0	IWOTO	16295
530	24.83	92.85	5.0	SILCHAR	1477
531	24.8333	113.5	5.0	CHU CHIANG	1393
532	25.0167	102.8333	5.0	KAN-HAI-TZU	598
533	25.05	-77.4667	5.0	NASSAU AIRPORT NEW PROVIDENCE	14365
534	25.15	75.85	5.0	KOTA AERODROME	1768
535	25.233	-11.617	5.0	BIR MOGHREIN	5175
536	25.25	55.37	5.0	SHARJAH	2477
537	25.2667	-76.3	5.0	ELEUTHERA ISLAND	6389
538	25.2667	63.4833	5.0	PASNI	119
539	25.3667	97.4	5.0	MYITKYINA	3942
540	25.3833	68.4167	5.0	HYDERABAD	934
541	25.433	105.183	5.0	XINGREN	4750
542	25.433	106.767	5.0	LUODIAN	3236
543	25.45	30.533	5.0	KHARGA	5223
544	25.45	81.733	5.0	ALLAHABAD/BAMHRAULI	22124
545	25.517	119.783	5.0	PINGTAN	3181
546	25.533	-103.45	5.0	TORREON AIRPORT	1530
547	25.5667	91.8833	5.0	SHILLONG S06 03Z	280
548	25.6	85.1667	5.0	PATNA	21860
549	25.617	-109.05	5.0	TOPOLOBAMPO	251
550	25.75	71.3833	5.0	BARMER	2587
551	25.77	87.52	5.0	PURNEA	179
552	25.8	21.133	5.0	TAZERBO	3989
553	25.85	116.367	5.0	CHANGTING	5057
554	25.88	89.43	5.0	LALMANIR HAT	407
555	25.9	-81.7167	5.0	DELTA SEVEN	436
556	25.967	108.533	5.0	RONGJIANG	2499
557	26.15	119.95	5.0	MAZU (=588490)	4062
558	26.2	36.483	5.0	AL-WEJH	5395
559	26.4	-98.35	5.0	MISSION (MOORE FIELD)	2133
560	26.45	74.73	5.0	AJMER	3098
561	26.5	8.417	5.0	ILLIZI	502
562	26.6167	-78.3667	5.0	GOLD ROCK CREEK	13583
563	26.867	100.233	5.0	LIJING	20204
564	26.9667	1.0833	5.0	AOULEF	3606
565	26.9667	64.1	5.0	PANJGUR	8843
566	26.983	84.85	5.0	RAXAUL	1140
567	27.0167	14.45	5.0	SEBHA	3998
568	27.117	114.967	5.0	JIAN	4747
569	27.15	33.717	5.0	HURGUADA	2188
570	27.15	77.9667	5.0	AGRA	7839
571	27.2	31.12	5.0	ASYUT	4165
572	27.3	105.233	5.0	BIJIE	1335
573	27.333	120.2	5.0	FUDING	4348
574	27.5333	-99.4833	5.0	LAREDO	5690
575	27.5667	81.6	5.0	BAHRAICH	9170
576	27.6667	98.3833	5.0	LA WANG/TZUKEI	857
577	27.7	68.92	5.0	SUKKUR	668
578	27.7	85.367	5.0	KATHMANDU AIRPORT	651
579	27.75	89.167	5.0	PAGRI	5820
580	27.8333	66.6333	5.0	KHUZDAR	1098
581	27.883	-0.283	5.0	ADRAR	22304
582	27.95	-80.5667	5.0	VALKARIA	798
583	27.95	108.25	5.0	SINAN	3144
584	28.05	9.633	5.0	IN-AMENAS	12360
585	28.083	30.733	5.0	MINYA	2596
586	28.2	-177.3833	5.0	MIDWAY IS NAS	33263
587	28.2	113.0833	5.0	CHANGSHA	43728
588	28.417	92.467	5.0	LHUNZE	9321
589	28.45	98.883	5.0	DEQEN	6169
590	28.45	121.883	5.0	DACHEN DAO	18781
591	28.467	-16.25	5.0	STA. CRUZ DE TENERI	22725
592	28.63	77.2	5.0	NEW DEHLI	2068
593	28.633	87.083	5.0	TINGRI	4882
594	28.8167	62.75	5.0	NOKKUNDI	1323
595	28.817	104.533	5.0	YIBIN	27926
596	28.833	108.767	5.0	YOUYANG	169
597	28.883	-118.3	5.0	ISLA GUADALUPE	13025
598	28.8833	64.4	5.0	DAL BANDIN	8890
599	29.0	135.0	5.0	OCEAN WEATHER SHIP T	5347
600	29.033	21.567	5.0	JALO	3469
601	29.033	101.5	5.0	JIULONG	1437
602	29.0333	66.5833	5.0	KALAT	172
603	29.05	111.683	5.0	CHANGDE	4719
604	29.117	15.933	5.0	HON	3794
605	29.183	25.517	5.0	SIWA	7069
606	29.217	88.917	5.0	XIGAZE	11663
607	29.2425	47.9714	5.0	KUWAIT INTERNATIONAL AIRPORT	36208
608	29.25	0.283	5.0	TIMIMOUN	9666
609	29.2833	-94.85	5.0	GALVESTON (FORT CROCKETT)	597
610	29.3	117.2	5.0	JINGDEZHEN	5385
611	29.383	113.083	5.0	YUEYANG	4823
612	29.55	34.95	5.0	EILAT	6192
613	29.5667	94.4667	5.0	NYINGCHI	6509
614	29.75	24.533	5.0	GIARABUB	2551
615	29.8833	69.7167	5.0	BARKHAN	1029
616	29.95	73.25	5.0	BAHAWALNAGAR	1115
617	29.967	-95.35	5.0	HOUSTON/INTERCONTIN	1796
618	29.967	99.067	5.0	BATANG	19656
619	30.0	-140.0	5.0	OCEAN WEATHER SHIP N	19180
620	30.033	122.117	5.0	DINGHAI	3697
621	30.05	-102.2167	5.0	DRYDEN AAF	854
622	30.05	101.967	5.0	KANGDING	3716
623	30.133	-2.167	5.0	BENI-ABBES	7838
624	30.133	9.5	5.0	GHADAMES	5808
625	30.167	35.783	5.0	MAAN	595
626	30.2	-97.6667	5.0	AUSTIN (BERGSTROM FIELD)	1076
627	30.2667	66.9167	5.0	QUETTA (SHEIKH MANDA)	22046
628	30.3333	76.4667	5.0	PATIALA	23763
629	30.3667	-104.0167	5.0	MARFA MUNI (AMOS)	5463
630	30.383	13.583	5.0	GARIAT EL-SHARGHIA	688
631	30.483	140.3	5.0	TORISHIMA	6556
632	30.517	47.783	5.0	BASRAH-HUSSEN	2290
633	30.5333	-91.15	5.0	BATON ROUGE (HARDING FIELD)	1485
634	30.567	2.867	5.0	EL-GOLEA	31528
635	30.667	104.017	5.0	CHENGDU	34761
636	30.717	20.167	5.0	AGEDABIA	3757
637	30.8	106.083	5.0	NANCHONG	8082
638	30.933	-6.9	5.0	OUARZAZATE	8186
639	30.95	88.633	5.0	XAINZA	12076
640	31.017	46.233	5.0	NASIRIYA	750
641	31.0733	33.8358	5.0	EL ARISH	13389
642	31.08	77.18	5.0	SHIMLA	728
643	31.1	-97.717	5.0	FT HOOD AAF/KILLEEN	2923
644	31.2	16.583	5.0	SIRTE	2738
645	31.217	107.5	5.0	DA XIAN	23565
646	31.25	-82.4	5.0	WAYCROSS WARE CO AP	20191
647	31.2667	-89.25	5.0	HATTIESBURG	1210
648	31.35	69.467	5.0	ZHOB	8789
649	31.367	90.017	5.0	BAINGOIN	11427
650	31.367	130.833	5.0	KANOYA AB	464
651	31.4167	-100.4	5.0	MATHIS FLD/S.ANGELO	2501
652	31.417	95.6	5.0	DENGQEN	6863
653	31.5	65.85	5.0	KANDAHAR AIRPORT	5934
654	31.5167	-103.1333	5.0	PYOTE (AFB)	1395
655	31.533	25.183	5.0	SALLUM PLATEAU	5346
656	31.617	-8.033	5.0	MARRAKECH	9944
657	31.62	25.93	5.0	SIDI BARRANI	1563
658	31.62	74.4	5.0	LAHORE	12639
659	31.683	9.3	5.0	EL BORMA	1728
660	31.867	10.983	5.0	NALUT	2037
661	31.867	93.767	5.0	SOG XIAN	7101
662	31.867	117.233	5.0	HEFEI	9149
663	31.9	54.2833	5.0	YAZD	1516
664	31.9	102.233	5.0	BARKAM	6148
665	31.933	-4.4	5.0	ERRACHIDIA	6598
666	31.9333	5.4	5.0	OUARGLA	2887
667	32.05	72.667	5.0	SARGODHA	19138
668	32.067	108.033	5.0	WANYUAN	3574
669	32.1	20.2667	5.0	BENINA	16181
670	32.1	23.933	5.0	TOBRUK	7553
671	32.133	114.05	5.0	XINYANG	7884
672	32.1667	-110.8833	5.0	TUCSON (DAVIS-MONTHAN AFB)	236
673	32.2167	-98.1833	5.0	STEPHENVILLE	15234
674	32.2333	-101.5	5.0	BIG SPRING	13868
675	32.25	-107.7167	5.0	DEMING AAF	518
676	32.283	-9.233	5.0	SAFI	1179
677	32.317	10.4	5.0	REMADA	9738
678	32.3333	-108.7	5.0	LORDSBURG AAF	1409
679	32.35	-104.25	5.0	CARLSBAD AAF	2356
680	32.35	-94.65	5.0	LONGVIEW WSMO	14445
681	32.35	-88.65	5.0	MERIDIAN (KEY FIELD)	2282
682	32.367	-6.4	5.0	BENI-MELLAL	2448
683	32.383	3.817	5.0	GHARDAIA	31999
684	32.383	111.667	5.0	GUANGHUA	3239
685	32.4167	-99.6833	5.0	ABILENE MUNI AP	19791
686	32.417	15.05	5.0	MISURATA	1073
687	32.43	109.02	5.0	ANKANG	23991
688	32.5	-93.6667	5.0	SHREVEPORT BARKSDALE AFB	8274
689	32.5	74.5333	5.0	SIALKOT	942
690	32.5	80.067	5.0	SHIQUANHE	10631
691	32.5167	-92.05	5.0	MONROE (SELMAN FIELD)	2178
692	32.65	-114.6	5.0	YUMA INTL AIRPORT	13843
693	32.683	-4.733	5.0	MIDELT	2966
694	32.717	133.017	5.0	SHIMIZU	5015
695	32.7333	-117.1667	5.0	SAN DIEGO (LINDBERGH FIELD)	248
696	32.7333	-96.9667	5.0	DALLAS HENSLEY FIELD	505
697	32.883	12.083	5.0	ZUARA	2793
698	32.9	-87.25	5.0	CENTREVILLE WSMO	14447
699	32.9167	-80.6333	5.0	WALTERBORO AAF	499
700	32.933	-112.7	5.0	GILA BEND (AAF)	19204
701	32.967	114.05	5.0	ZHUMADIAN	6626
702	33.033	40.283	5.0	RUTBAH	2392
703	33.3	44.4	5.0	BAGHDAD INT. AIRPORT	14024
704	33.37	43.57	5.0	AL HABBANIYAH	5634
705	33.383	104.917	5.0	WUDU	27511
706	33.417	36.517	5.0	DAMASCUS INT. AIRPO	10082
707	33.45	-94.0	5.0	TEXARKANA	6925
708	33.4667	-82.0333	5.0	AUGUSTA DANIEL FIELD	2266
709	33.48	-90.98	5.0	GREENVILLE	2188
710	33.5	-90.0833	5.0	GREENWOOD AAF	1164
711	33.5	6.783	5.0	EL-OUED	28456
712	33.5333	-0.2833	5.0	MECHERIA	6933
713	33.567	-86.75	5.0	BIRMINGHAM MUNI	14141
714	33.583	102.967	5.0	RUOERGAI	2991
715	33.6	-114.75	5.0	BLYTHE	2084
716	33.6167	73.1	5.0	ISLAMABAD AIRPORT	7050
717	33.6333	-88.45	5.0	COLUMBUS AAF	401
718	33.65	-84.4167	5.0	ATLANTA	23845
719	33.683	1.0	5.0	EL-BAYADH	10962
720	33.6833	-78.9333	5.0	MYRTLE BEACH AAF	2003
721	33.7167	-96.6667	5.0	SHERMAN PERRIN FIELD	1179
722	33.783	114.517	5.0	XIHUA	6675
723	33.8	-106.6667	5.0	STALLION SITE	610
724	33.8	99.8	5.0	DARLAG	12064
725	33.817	35.483	5.0	RAFIC HARIRI INTL	12102
726	33.8667	70.0833	5.0	PARACHINAR	2376
727	33.867	10.767	5.0	DJERBA MELLITA	27692
728	33.883	-5.533	5.0	MEKNES	2167
729	33.95	-83.3167	5.0	ATHENS BEN EPPS AP	28581
730	33.95	92.617	5.0	TUOTUOHE	11291
731	33.98	-98.5	5.0	WICHITA FALLS	113
732	34.0	164.0	5.0	OCEAN WEATHER SHIP V	12375
733	34.05	131.05	5.0	OZUKI AB	303
734	34.0803	111.0728	5.0	LUSHI	26483
735	34.15	132.22	5.0	IWAKUNI	2734
736	34.217	-4.0	5.0	TAZA	2441
737	34.217	62.217	5.0	HERAT	1107
738	34.3	-97.0167	5.0	ARDMORE AFB	1195
739	34.417	8.817	5.0	GAFSA	20537
740	34.583	105.75	5.0	TIANSHUI	6899
741	34.65	-99.2667	5.0	ALTUS AFB (OKLA)	2675
742	34.683	135.517	5.0	OSAKA	7833
743	34.6833	3.25	5.0	DJELFA	9814
744	34.717	10.683	5.0	SFAX EL-MAOU	30654
745	34.783	-1.95	5.0	OUJDA	7639
746	34.8	5.733	5.0	BISKRA	19871
747	34.85	119.133	5.0	GANYU	7452
748	34.917	98.217	5.0	MADOI	6085
749	34.933	136.583	5.0	YOKKAICHI	4758
750	35.0	-48.0	5.0	OCEAN WEATHER SHIP E	8767
751	35.0281	-110.7208	5.0	WINSLOW MUNI AP	47510
752	35.0333	-85.2	5.0	CHATTANOOGA	8998
753	35.05	-89.9833	5.0	MEMPHIS	23896
754	35.083	128.083	5.0	SACHEON AB	8441
755	35.117	36.75	5.0	HAMA	741
756	35.169	128.934	5.0	GIMHAE INTL AIRPORT	5577
757	35.183	-3.85	5.0	AL HOCEIMA	4040
758	35.2	-80.95	5.0	CHARLOTTE MORRIS FIELD	602
759	35.217	93.083	5.0	WUDAOLIANG	5083
760	35.2667	-113.95	5.0	KINGMAN (AAF)	1831
761	35.3333	-94.3667	5.0	FT SMITH CAMP CHAFFEE	5244
762	35.35	1.467	5.0	TIARET	280
763	35.383	-97.6	5.0	OKLAHOMA CITY/W. RO	55703
764	35.4333	133.35	5.0	YONAGO	60127
765	35.533	35.767	5.0	LATTAKIA	458
766	35.633	-0.6	5.0	ORAN-SENIA	38241
767	35.8	140.017	5.0	SHIMOFUSA AB	467
768	35.85	14.483	5.0	LUQA	21963
769	35.867	-78.783	5.0	RALEIGH/RALEIGH-DUR	9591
770	35.9	62.9667	5.0	TAGTABAZAR	13721
771	35.9167	74.3333	5.0	GILGIT	521
772	35.933	39.017	5.0	RAQQA	252
773	35.9667	-116.2667	5.0	SHOSHONE	313
774	36.0333	-102.5333	5.0	DALHART	2180
775	36.05	103.883	5.0	LANZHOU	30960
776	36.05	114.4	5.0	ANYANG	7228
777	36.183	118.15	5.0	YIYUAN	6101
778	36.217	1.333	5.0	CHLEF	3213
779	36.283	6.617	5.0	CONSTANTINE	21262
780	36.2969	-99.775	5.0	GAGE	586
781	36.3	2.233	5.0	MILIANA	14988
782	36.317	43.15	5.0	MOSUL	884
783	36.333	-97.667	5.0	ENID/VANCE AFB	1147
784	36.333	37.217	5.0	ALEPPO INT. AEROPOR	18332
785	36.4	139.067	5.0	MAEBASHI	5175
786	36.617	128.35	5.0	YECHEON AB	5663
787	36.6667	68.9167	5.0	KUNDUZ	4540
788	36.667	-87.5	5.0	FORT CAMPBELL (AAF)	2026
789	36.683	116.983	5.0	JINAN	33391
790	36.7	119.1167	5.0	WEI HSIEN	254
791	36.75	-104.5	5.0	RATON	5905
792	36.767	126.467	5.0	SEOSAN	566
793	36.77	3.05	5.0	ALGER	2691
794	36.833	7.817	5.0	ANNABA	30088
795	36.85	11.083	5.0	KELIBIA	18563
796	36.867	30.733	5.0	ANTALYA	1476
797	36.883	6.9	5.0	SKIKDA	639
798	36.8833	-93.9	5.0	MONETT	18071
799	37.017	-7.967	5.0	FARO/AEROPORTO	1831
800	37.05	41.217	5.0	KAMISHLI	136
801	37.0667	-88.7667	5.0	PADUCAH BARKLEY FLD	4390
802	37.1	-113.6	5.0	ST. GEORGE	591
803	37.1	128.8667	5.0	SANGDONG	294
804	37.1808	114.3589	5.0	XINGTAI	26266
805	37.233	9.817	5.0	BIZERTE	7207
806	37.317	97.217	5.0	DELINGHA	10750
807	37.3333	-79.2	5.0	LYNCHBURG	4148
808	37.3667	-120.5667	5.0	CASTLE AFB	3294
809	37.367	-118.367	5.0	BISHOP AIRPORT	1144
810	37.4	122.683	5.0	CHENGSHANTOU	15581
811	37.433	-105.867	5.0	ALAMOSA MUNI(AWOS)	921
812	37.467	53.967	5.0	ESENGYLY	36098
813	37.47	15.07	5.0	CATANIA	912
814	37.4833	116.3667	5.0	TE HSIEN/TECHOW	498
815	37.5	71.5	5.0	KHOROG	28898
816	37.617	120.317	5.0	LONGKOU	8328
817	37.65	-97.433	5.0	WICHITA/MID-CONTINE	23414
818	37.78	12.45	5.0	MARSALA	112
819	37.783	-81.117	5.0	BECKLEY	114
820	37.783	-0.8	5.0	MURCIA/SAN JAVIER	1000
821	37.8	-113.9	5.0	MODENA	20748
822	37.85	91.65	5.0	MANGYA	1192
823	37.85	95.367	5.0	DA-QAIDAM	5439
824	37.917	139.05	5.0	NIIGATA	2033
825	37.93	83.65	5.0	ANDIR	14362
826	37.966	124.63	5.0	BAENGNYEONGDO	8261
827	37.987	58.361	5.0	ASHGABAT KESHI	38470
828	38.0	-71.0	5.0	OCEAN WEATHER SHIP H	3274
829	38.05	-103.52	5.0	LA JUNTA	164
830	38.05	-87.533	5.0	EVANSVILLE REGIONAL	22434
831	38.0667	-117.0833	5.0	TONAPAH APRT (NEV)	3624
832	38.2	15.55	5.0	MESSINA	5442
833	38.25	90.85	5.0	MANGNAI	15030
834	38.267	140.9	5.0	SENDAI	57672
835	38.3667	-82.55	5.0	HUNTINGTON TRI STATE AP	35391
836	38.373	-81.6	5.0	YEAGER	1619
837	38.417	-113.017	5.0	MILFORD MUNICIPAL	774
838	38.433	77.267	5.0	SHACHE	15714
839	38.55	68.783	5.0	DUSHANBE	35803
840	38.65	-88.9667	5.0	SALEM LECKRONE AP	15223
841	38.733	48.833	5.0	LANKARAN	33653
842	38.733	115.483	5.0	BAODING	9153
843	38.7333	-93.5667	5.0	KNOBNOSTER SEDALIA AFB	1436
844	38.7667	-87.6167	5.0	LAWRENCEVILLE GEORGE FIELD	1385
845	38.8	-97.63	5.0	SALINA	3551
846	38.817	-92.217	5.0	COLUMBIA REGIONAL	19320
847	38.817	35.433	5.0	KAYSERI/ERKILET	1942
848	38.833	93.383	5.0	LENGHU	15645
849	38.8833	-79.85	5.0	ELKINS	10236
850	38.95	-121.07	5.0	AUBURN	133
851	38.95	-95.6667	5.0	TOPEKA (FORBES AFB)	1930
852	39.0333	125.7833	5.0	PYONGYANG	29160
853	39.083	63.6	5.0	CHARDZHEV	36014
854	39.0833	-28.0333	5.0	GRACIOSA/AERODROME	2173
855	39.1	107.983	5.0	OTOG QI	9443
856	39.2	45.417	5.0	NAXCIVAN	914
857	39.2436	9.06	5.0	CAGLIARI ELMAS	48789
858	39.295	-114.8453	5.0	ELY YELLAND FLD AP	48437
859	39.367	-101.7	5.0	GOODLAND/RENNER FIE	8448
860	39.383	111.15	5.0	HEQU	8713
861	39.4333	118.9	5.0	LETING	20578
862	39.55	2.617	5.0	PALMA DE MALLORCA	9948
863	39.6667	-78.6667	5.0	CUMBERLAND	197
864	39.6667	118.1167	5.0	TANG SHAN	251
865	39.7167	-104.9	5.0	DENVER (LOWRY FIELD)	878
866	39.783	105.75	5.0	JARTAI	9470
867	39.8	78.567	5.0	BACHU	9060
868	39.8333	-89.6667	5.0	SPRINGFIELD	11873
869	39.867	4.233	5.0	MENORCA/MAHON	165
870	39.9	-84.2	5.0	DAYTON MCCOOK FIELD	1122
871	39.9	116.47	5.0	PEIPING	701
872	39.9333	127.55	5.0	HAMHEUNG	11836
873	39.983	46.75	5.0	KHANKANDY	657
874	40.0333	52.9833	5.0	TURKMENBASHI	35133
875	40.083	124.333	5.0	DANDONG	24594
876	40.1	113.333	5.0	DATONG	8658
877	40.12	-103.17	5.0	AKRON	214
878	40.2	-8.417	5.0	COIMBRA	458
879	40.217	69.733	5.0	KHUDJAND	382
880	40.267	97.033	5.0	YUMENZHEN	2942
881	40.3	-88.15	5.0	RANTOUL	16640
882	40.5333	50.0	5.0	MASHTAGA	11887
883	40.55	70.95	5.0	KOKAND	7416
884	40.633	87.7	5.0	TIKANLIK	16175
885	40.6667	-89.6833	5.0	PEORIA GTR PEORIA AP	29195
886	40.7053	141.3719	5.0	MISAWA AB	46311
887	40.733	-114.033	5.0	WENDOVER/AF. AUX. F	1089
888	40.75	104.5	5.0	BAYAN MOD	20474
889	40.783	43.833	5.0	GUMRI	147
890	40.7833	114.8833	5.0	ZHANGJIAKOU	23066
891	40.85	35.583	5.0	MERZIFON	1796
892	40.9019	-117.8072	5.0	WINNEMUCCA MUNI AP	43590
893	40.917	72.95	5.0	DZHALAL-ABAD	30741
894	40.933	78.45	5.0	AKQI	5651
895	40.95	-5.5	5.0	SALAMANCA/MATACAN	173
896	40.967	117.917	5.0	CHENGDE	6676
897	40.97	107.17	5.0	XAMBA	1094
898	41.0	-85.2	5.0	FORT WAYNE/BAER FLD	9534
899	41.1167	122.95	5.0	AN SHAN	362
900	41.117	121.067	5.0	JINZHOU	26088
901	41.15	-104.817	5.0	CHEYENNE/WARREN AFB	25238
902	41.22	-103.1	5.0	SYDNEY	677
903	41.233	-8.683	5.0	PORTO/PEDRAS RUBRAS	1615
904	41.25	-76.917	5.0	WILLIAMSPORT/LYCOMI	463
905	41.26	80.3	5.0	WEN-SU	9162
906	41.267	69.267	5.0	TASHKENT	46679
907	41.3333	-96.2667	5.0	DREXEL	2667
908	41.3667	-71.4833	5.0	POINT JUDITH	1724
909	41.433	76.0	5.0	NARYN	13926
910	41.45	-90.5167	5.0	MOLINE	21497
911	41.45	31.8	5.0	ZONGULDAK	304
912	41.45	106.383	5.0	HAILS	4738
913	41.5	-74.1	5.0	NEWBURGH/STEWART AFB	3104
914	41.533	-93.65	5.0	DES MOINES INTL	11917
915	41.55	46.667	5.0	ZAKATALA	424
916	41.5667	108.5167	5.0	HALIUT	23054
917	41.6	-109.0667	5.0	ROCK SPRINGS	20297
918	41.6	-83.8	5.0	TOLEDO EXPRESS	14112
919	41.633	41.6	5.0	BATUMI	7554
920	41.65	25.367	5.0	KURDJALI	9983
921	41.6833	44.95	5.0	TBILISI/NOVOALEXEYE	30083
922	41.7	-86.3167	5.0	SOUTH BEND ST JOSEPH	612
923	41.717	-4.85	5.0	VALLADOLID/VILLANUB	206
924	41.733	64.617	5.0	TAMDY	24209
925	41.7333	123.5167	5.0	SHENYANG	45359
926	41.75	86.133	5.0	KORLA	21640
927	41.75	103.9667	5.0	PANG-TING-TO-TO-KAI	1057
928	41.7833	95.1333	5.0	XING-XING-XIA	122
929	41.8	12.233	5.0	ROMA FIUMICINO	25186
930	41.833	59.983	5.0	DASHKHOVUZ	40766
931	41.9181	8.7928	5.0	AJACCIO	47208
932	41.95	21.633	5.0	SKOPJE- AIRPORT	2454
933	42.0833	-91.6167	5.0	CEDAR RAPIDS ECHO SI	1310
934	42.4	-96.383	5.0	SIOUX CITY MUNI	9727
935	42.4	112.9	5.0	JURH	11935
936	42.45	-2.333	5.0	LOGRONO/AGONCILLO	349
937	42.583	-5.65	5.0	LEON/VIRGEN DEL CAM	200
938	42.5833	-100.0	5.0	AINSWORTH AAF	1523
939	42.7	-68.3	5.0	ENVIRONM BUOY 44005	574
940	42.8167	-108.7333	5.0	LANDER HUNT FLD AP	34519
941	42.833	74.583	5.0	BISHKEK	24813
942	42.9167	-112.5333	5.0	POCATELLO	11754
943	42.933	89.2	5.0	TURPAN	10824
944	42.95	-87.9	5.0	MILWAUKEE WI AIRPORT	11003
945	42.9667	-83.75	5.0	FLINT BISHOP AP	29048
946	43.0	1.1	5.0	SAINT GIRONS	158
947	43.017	41.033	5.0	SUKHUMI (AGMS)	37578
948	43.0667	-76.2667	5.0	SYRACUSE	12089
949	43.167	-86.25	5.0	MUSKEGON	10171
950	43.2	107.167	5.0	HANBOGD	2539
951	43.23	-75.4	5.0	ROME	8975
952	43.3333	145.5833	5.0	NEMURO	57934
953	43.483	91.633	5.0	SHISANJIANFANG	15467
954	43.517	16.433	5.0	SPLIT/MARJAN	4568
955	43.5833	39.7667	5.0	SOCHI	194
956	43.6	118.067	5.0	LINXI	3300
957	43.633	1.367	5.0	TOULOUSE BLAGNAC	1937
958	43.75	24.883	5.0	TR. MAGURELE	218
959	43.88	-69.93	5.0	BRUNSWICK	965
960	43.917	-0.5	5.0	MONT-DE-MARSAN	166
961	43.9322	-60.0094	5.0	SABLE ISLAND	44361
962	43.9333	-91.2833	5.0	LA CROSSE	9613
963	43.983	119.4	5.0	LINDONG	4651
964	44.0	-41.0	5.0	OCEAN WEATHER SHIP D	9766
965	44.017	89.567	5.0	QITAI	9992
966	44.017	145.867	5.0	JUZHNO-KURILSK	37102
967	44.05	43.03	5.0	PJATIGORSK	230
968	44.117	-123.217	5.0	EUGENE/MAHLON SWEET	5856
969	44.117	-77.533	5.0	TRENTON ARPT	142
970	44.167	80.067	5.0	ZHARKENT	23543
971	44.217	28.633	5.0	CONSTANTA	27610
972	44.2667	-71.3	5.0	MOUNT WASHINGTON	506
973	44.317	23.867	5.0	CRAIOVA	548
974	44.3833	-98.2167	5.0	HURON RGNL AP	33451
975	44.55	50.25	5.0	FORT SHEVCHENKO	1177
976	44.567	129.6	5.0	MUDANJIANG	4789
977	44.583	4.733	5.0	MONTELIMAR	189
978	44.583	117.6	5.0	XI UJIMQIN QI	8443
979	44.617	82.9	5.0	JINGHE	10505
980	44.617	114.15	5.0	NARAN BULAG	14093
981	44.633	22.633	5.0	DROBETA TURNU SEVER	953
982	44.767	-106.967	5.0	SHERIDAN CO. ARPT	16448
983	44.7833	20.5333	5.0	BEOGRAD/SELENO BRD	8769
984	44.8306	-0.6914	5.0	BORDEAUX MERIGNAC	62104
985	44.9	110.117	5.0	SAINSHAND	17817
986	44.9333	-93.0667	5.0	ST PAUL	17907
987	45.0	-16.0	5.0	OCEAN WEATHER SHIP K	2558
988	45.0	136.6	5.0	TERNEJ	35417
989	45.0464	34.5989	5.0	KRYMSKA	493
990	45.15	26.817	5.0	BUZAU	652
991	45.15	29.667	5.0	SULINA	178
992	45.367	90.533	5.0	BAYTIK SHAN	19772
993	45.417	-91.767	5.0	RICE LAKE RGNL CARLS	581
994	45.5	28.2	5.0	GALATI	7351
995	45.5333	-122.6833	5.0	PORTLAND INTL	27685
996	45.55	-94.0667	5.0	ST CLOUD MUNI AP	35321
997	45.6	84.85	5.0	KARAMAY	20097
998	45.667	-0.317	5.0	COGNAC	356
999	45.767	106.283	5.0	MANDALGOBI	3030
1000	45.8	-108.533	5.0	BILLINGS/LOGAN INT.	18423
1001	45.867	1.183	5.0	LIMOGES	190
1002	45.867	22.9	5.0	DEVA	887
1003	45.95	-77.317	5.0	PETAWAWA	1273
1004	45.9667	-112.5	5.0	BUTTE	12098
1005	46.0	18.233	5.0	PECS/POGANY	127
1006	46.18	45.35	5.0	YASHKUL	3336
1007	46.2	150.5	5.0	URUP	29544
1008	46.2667	102.7833	5.0	ARVAIHEER	13261
1009	46.374	-117.015	5.0	LEWISTON NEZ PERCE	432
1010	46.4	96.25	5.0	ALTAI	14794
1011	46.4667	-84.35	5.0	SAULT STE MARIE SANDERSON FLD	58659
1012	46.533	24.533	5.0	TG. MURES	1169
1013	46.5667	-87.4	5.0	MARQUETTE	8748
1014	46.583	26.983	5.0	BACAU	1500
1015	46.733	83.0	5.0	TACHENG	22028
1016	46.767	-56.167	5.0	SAINT-PIERRE	690
1017	46.7778	23.5714	5.0	CLUJ-NAPOCA	38157
1018	46.783	61.65	5.0	ARALSKOE MORE	40172
1019	46.8	75.083	5.0	BALHASH	36009
1020	46.81	85.7489	5.0	HOBOKSAR	26741
1021	46.8117	6.9425	5.0	PAYERNE	73319
1022	46.817	130.333	5.0	CHIAMUSSU	2815
1023	46.833	-92.183	5.0	DULUTH INTL AIRPORT	8808
1024	46.85	151.8667	5.0	SIMUSIR	4608
1025	46.9	-96.8	5.0	FARGO/HECTOR FIELD	15380
1026	46.9	-71.483	5.0	VALCARTIER AIRPORT	2371
1027	46.917	-114.083	5.0	MISSOULA/JOHNSON-BE	15882
1028	46.9931	15.4392	5.0	GRAZ-THALERHOF-FLUGHAFEN	10698
1029	47.0	-15.0	5.0	WEATHERSHIP K CIRRUS	477
1030	47.017	28.867	5.0	KISINEV	37217
1031	47.033	21.9	5.0	ORADEA	822
1032	47.15	-1.6	5.0	NANTES	256
1033	47.167	27.633	5.0	IASI	1100
1034	47.1833	-119.3167	5.0	MOSES LAKE (LARSON AFB)	344
1035	47.2603	11.3439	5.0	INNSBRUCK-FLUGHAFEN	7542
1036	47.267	5.083	5.0	DIJON	234
1037	47.267	16.633	5.0	SZOMBATHELY	183
1038	47.3	-54.0	5.0	ARGENTIA	11299
1039	47.383	123.917	5.0	QIQIHAR	17927
1040	47.45	101.467	5.0	TSETSERLEG	2069
1041	47.567	-59.15	5.0	PORT-AUX-BASQUES	2303
1042	47.633	26.25	5.0	SUCEAVA	513
1043	47.6667	-117.3333	5.0	SPOKANE (FELTS FIELD)	7917
1044	47.6667	-52.75	5.0	SAINT JOHN'S ARPT	30095
1045	47.733	130.967	5.0	EKATERINO-NIKOLSKOE	30472
1046	47.75	96.85	5.0	ULIASTAI	1923
1047	47.8	3.55	5.0	AUXERRE	185
1048	47.95	-97.4	5.0	GRAND FORKS AFB	517
1049	48.017	91.567	5.0	HOVD	3097
1050	48.067	-1.733	5.0	RENNES	1102
1051	48.07	5.03	5.0	CHAUMONT	4616
1052	48.0833	114.55	5.0	CHOIBALSAN	11826
1053	48.1333	-123.4167	5.0	PORT ANGELES	3357
1054	48.2353	14.1881	5.0	LINZ/HOERSCHING-FLUGHAFEN	10855
1055	48.354	11.786	5.0	MUNICH/RIEM	20686
1056	48.3667	25.9	5.0	CHERNIVTSI	44140
1057	48.3833	-124.7333	5.0	TATOOSH ISLAND WB	21960
1058	48.633	22.267	5.0	UZHHOROD	40708
1059	48.65	144.75	5.0	M. TERPENIYA (FL)	7763
1060	48.667	116.817	5.0	XIN BARAG YOUQI	12550
1061	48.6833	6.2167	5.0	NANCY/ESSEY	32474
1062	48.7	-8.9167	5.0	ENVIRONM BUOY 62027	215
1063	48.8	103.55	5.0	BULGAN	2639
1064	48.85	2.33	5.0	PARIS	270
1065	48.917	106.067	5.0	BARUUNHARAA	2895
1066	48.95	-97.25	5.0	PEMBINA	2575
1067	49.067	20.25	5.0	POPRAD/TATRY	15541
1068	49.08	16.62	5.0	BRNO REBESOVICE	4516
1069	49.2	-123.167	5.0	VANCOUVER INT. AIRP	14056
1070	49.3	4.033	5.0	REIMS	179
1071	49.6	34.55	5.0	POLTAVA	634
1072	49.633	-112.8	5.0	LETHBRIDGE AWOS	9936
1073	49.7167	-124.9	5.0	COMOX A	104
1074	49.75	10.2	5.0	KITZINGEN AAF	631
1075	49.783	-99.633	5.0	SHILO	6238
1076	49.9031	-98.2842	5.0	PORTAGE SOUTHPORT	554
1077	50.0	-145.0	5.0	OCEAN WEATHER SHIP P	12221
1078	50.0	88.667	5.0	KOS-AGAC	10486
1079	50.017	155.4	5.0	M. VASILYEV	34757
1080	50.033	5.4	5.0	ST-HUBERT	26357
1081	50.1	14.2833	5.0	PRAHA/RUZYNE	8770
1082	50.133	1.833	5.0	ABBEVILLE	116
1083	50.133	65.233	5.0	AMANGELDY	15887
1084	50.28	-64.17	5.0	MINGAN	632
1085	50.28	21.43	5.0	MIELEC	738
1086	50.383	-102.683	5.0	BROADVIEW	8722
1087	50.417	80.3	5.0	SEMIPALATINSK	42269
1088	50.6	137.0333	5.0	KOMSOMOLSK-ON-AMUR	33016
1089	50.7969	4.3581	5.0	UCCLE	42558
1090	51.02	11.03	5.0	ERFURT	465
1091	51.083	-0.217	5.0	CRAWLEY	37592
1092	51.083	2.65	5.0	KOKSIJDE	311
1093	51.1	-100.05	5.0	DAUPHIN AIRPORT	2648
1094	51.11	13.67	5.0	WAHNSDORF	40165
1095	51.117	-114.017	5.0	CALGARY INTL	15534
1096	51.12	17.03	5.0	WROCLAW	146
1097	51.13	9.28	5.0	FRITZLAR/KASSELER	21333
1098	51.133	-106.583	5.0	ELBOW CS	165
1099	51.1333	71.3667	5.0	CELINOGRAD	167
1100	51.1833	40.7	5.0	KAMENNAYA STEP NO2	6225
1101	51.25	51.4	5.0	URALSK	34602
1102	51.3833	179.25	5.0	AMCHITKA ISLAND	1908
1103	51.4	-3.35	5.0	CARDIFF-WALES ARPT	890
1104	51.517	-109.183	5.0	KINDERSLEY ARPT	914
1105	51.55	12.0667	5.0	OPPIN	3700
1106	51.717	126.65	5.0	HUMA	6620
1107	51.733	6.267	5.0	KALKAR	3052
1108	51.75	-1.583	5.0	BRIZE NORTON	1008
1109	51.85	10.7667	5.0	WERNIGERODE	9806
1110	51.883	-176.65	5.0	ADAK (NAS)	33391
1111	51.9833	177.5667	5.0	KISKA ISLAND	308
1112	52.05	29.25	5.0	MOZYR (AMOS)	6912
1113	52.167	-106.717	5.0	SASKATOON DIEFENBAKE	2309
1114	52.167	4.433	5.0	VALKENBURG	583
1115	52.18	20.97	5.0	WARSZAWA	1720
1116	52.267	7.433	5.0	NORDHORN	5346
1117	52.267	104.317	5.0	IRKUTSK	39087
1118	52.4167	-4.0	5.0	CAPEL DEWI	6559
1119	52.417	16.85	5.0	POZNAN	31288
1120	52.433	-114.917	5.0	ROCKY MTN HOUSE	1475
1121	52.467	9.7	5.0	HANNOVER	44613
1122	52.483	13.417	5.0	BERLIN/TEMPELHOF	30570
1123	52.5	-20.0	5.0	OCEAN WEATHER SHIP J	2559
1124	52.67	1.68	5.0	HEMSBY	50217
1125	52.733	41.467	5.0	TAMBOV	38381
1126	52.75	-35.5	5.0	OCEAN WEATHER SHIP C	13900
1127	52.767	-108.25	5.0	NORTH BATTLEFORD	2182
1128	52.8	-2.667	5.0	SHAWBURY	561
1129	52.8	173.16	5.0	ATTU ISLAND	3463
1130	53.05	158.33	5.0	NIKOLAEVKA	127
1131	53.067	132.983	5.0	EKIMCHAN	29232
1132	53.167	-0.517	5.0	WADDINGTON	992
1133	53.2	-70.9	5.0	NITCHEQUON	15444
1134	53.217	-105.667	5.0	PRINCE ALBERT ARPT	9605
1135	53.25	50.45	5.0	SAMARA	39657
1136	53.38	-167.9	5.0	UMNAK ISLAND	2799
1137	53.55	-2.917	5.0	AUGHTON	43285
1138	53.6167	109.6333	5.0	BARGUZIN	6508
1139	53.7333	87.1833	5.0	ABAGUR	181
1140	53.833	-89.867	5.0	TROUT LAKE	15743
1141	53.85	-94.65	5.0	ISLAND LAKE ARPT	4067
1142	53.883	-122.667	5.0	PRINCE GEORGE	30854
1143	53.9	-166.53	5.0	DUTCH HARBOR	2953
1144	53.933	27.633	5.0	MINSK	43880
1145	54.0	123.967	5.0	SKOVORODINO	31293
1146	54.2	16.1833	5.0	KOSZALIN	1537
1147	54.3	-1.533	5.0	LEEMING	777
1148	54.4667	113.5833	5.0	BAGDARIN	52127
1149	54.62	-113.33	5.0	MEANOOK	101
1150	54.7264	20.5583	5.0	KALININGRAD	46905
1151	54.8	105.167	5.0	ZHIGALOVO	35584
1152	54.9333	73.4	5.0	OMSK	59051
1153	55.283	-114.783	5.0	SLAVE LAKE AIRPORT	13183
1154	55.317	-3.2	5.0	ESKDALEMUIR	233
1155	55.35	-131.65	5.0	KETCHIKAN	5932
1156	55.417	-1.6	5.0	BOULMER	13127
1157	55.6075	49.2942	5.0	KAZAN	52427
1158	55.93	37.5183	5.0	MOSKVA (DOLGOPRUDNYJ)	64787
1159	56.0	92.883	5.0	KRASNOYARSK	40900
1160	56.2933	9.1139	5.0	FLYVESTATION KARUP	5675
1161	56.45	138.15	5.0	AYAN	39966
1162	56.483	21.017	5.0	LIEPAJA	26905
1163	56.5	-51.0	5.0	OCEAN WEATHER SHIP B	11583
1164	56.5422	3.2236	5.0	EKOFISK	15135
1165	56.65	-111.217	5.0	FORT MCMURRAY ARPT	11470
1166	56.8	60.6	5.0	SWERDLOWSK	171
1167	56.917	23.967	5.0	RIGA	47749
1168	57.1	9.867	5.0	FLYVESTATION AALBOR	4824
1169	57.2	-2.217	5.0	ABERDEEN/DYCE AIRPO	421
1170	57.58	39.58	5.0	JAROSLAVL	529
1171	57.65	-3.567	5.0	KINLOSS	767
1172	57.65	18.35	5.0	VISBY AEROLOGISKA STATION	28914
1173	57.817	28.333	5.0	PSKOV	39213
1174	58.217	-6.317	5.0	STORNOWAY	52782
1175	58.37	-134.58	5.0	JUNEAU	15260
1176	58.8742	5.665	5.0	STAVANGER/SOLA	44297
1177	59.0	-19.0	5.0	OCEAN WEATHER SHIP I	2647
1178	59.35	17.95	5.0	STOCKHOLM/BROMMA	41574
1179	59.78	21.37	5.0	UTO	674
1180	60.2	-166.1	5.0	NUNIVAK AAF	100
1181	60.3167	24.9667	5.0	HELSINKI/SEUTALA	4544
1182	60.35	166.0	5.0	KORF	42069
1183	60.3667	120.4167	5.0	OLEKMINSK	49772
1184	60.38	5.33	5.0	BERGEN	179
1185	60.4833	-145.5	5.0	CORDOVA	2276
1186	60.57	28.63	5.0	SUUR-MERIJOKI	418
1187	60.8139	23.4975	5.0	JOKIOINEN OBSERVATORY	60413
1188	60.88	26.97	5.0	UTTI	630
1189	61.08	-69.55	5.0	CAPE HOPES ADVANCE STATION	661
1190	61.267	108.2	5.0	ERBOGACEN	35974
1191	61.717	30.717	5.0	SORTAVALA	36442
1192	61.95	160.8667	5.0	GIZIGA	28015
1193	62.0	-33.0	5.0	OCEAN WEATHER SHIP A	7562
1194	62.1	42.9	5.0	SENKURSK	255
1195	62.1167	-163.75	5.0	MOUNTAIN VILLAGE	147
1196	62.3975	25.6708	5.0	JYVASKYLA AIRPORT	54064
1197	62.7833	148.1333	5.0	SUSUMAN	12807
1198	62.85	149.76	5.0	SHTURMOVOY	2661
1199	62.97	-141.96	5.0	NORTHWAY	12371
1200	63.017	179.283	5.0	BERINGOVSKAJA	25831
1201	63.12	23.08	5.0	KAUHAVA	611
1202	63.183	14.5	5.0	OSTERSUND/FROSON	16859
1203	63.32	30.5	5.0	LIEKSA	148
1204	63.3333	-149.15	5.0	SUMMIT	2843
1205	63.43	-51.18	5.0	MARRAK POINT	353
1206	63.5	-90.7	5.0	CHESTERFIELD INLET	472
1207	63.7056	9.6117	5.0	ORLAND III	40241
1208	63.85	-171.6	5.0	GAMBELL	8490
1209	63.9	-160.7833	5.0	UNALAKLEET	1191
1210	64.0	-145.733	5.0	FT GREELY/ALLEN AAF	1398
1211	64.13	-21.9	5.0	REYKJAVIK	270
1212	64.2	-83.3667	5.0	CORAL HARBOUR UA	45390
1213	64.22	27.73	5.0	KAJAANI	181
1214	64.383	-173.233	5.0	BUHTA PROVIDENJA	27529
1215	64.683	170.417	5.0	MARKOVO	33706
1216	64.7167	-156.9	5.0	GALENA	571
1217	64.7833	177.5667	5.0	ANADYR	38190
1218	64.917	77.817	5.0	TARKO-SALE	33211
1219	65.5433	22.1144	5.0	LULEA-KALLAX	41162
1220	65.6167	-168.05	5.0	WALES	863
1221	65.7333	150.9	5.0	ZYRYANKA	35043
1222	65.93	-36.68	5.0	IKATEQ	111
1223	66.0	2.0	5.0	OCEAN WEATHER SHIP M	2031
1224	66.167	-169.833	5.0	MYS UELEN	30932
1225	66.567	-145.267	5.0	FORT YUKON	133
1226	67.0	-50.8	5.0	KANGERLUSSUAK	3155
1227	67.2669	14.3586	5.0	BODO VI	38387
1228	67.3667	26.6289	5.0	SODANKYLA ARCTIC RESEARCH CENT	63539
1229	67.47	86.57	5.0	IGARKA	13709
1230	67.8167	-115.0833	5.0	COPPERMINE	14703
1231	68.23	-135.0	5.0	AKLAVIK	7053
1232	68.47	17.5	5.0	NARVIK	128
1233	68.47	73.6	5.0	MYS KAMENNY	29022
1234	68.5	112.4333	5.0	OLENEK	41890
1235	68.65	43.3	5.0	KANIN NOS	4393
1236	68.92	-179.48	5.0	MYS SHMIDTA	33429
1237	68.9833	33.1167	5.0	MURMANSK	57431
1238	69.3153	16.1308	5.0	ANDOYA	3633
1239	69.3667	-152.1333	5.0	UMIAT	611
1240	69.4	86.17	5.0	DUDINKA	5076
1241	69.7	19.02	5.0	TROMSO	3783
1242	69.783	61.783	5.0	AMDERMA	34229
1243	69.9333	167.9667	5.0	AJON ISLAND	9137
1244	70.1333	-143.6333	5.0	BARTER ISLAND WSO AP	25677
1245	70.42	-21.97	5.0	KAP TOBIN	18381
1246	70.45	-68.55	5.0	CLYDE RIVER	13851
1247	70.63	162.4	5.0	OSTROV CHETYREKHSTOLBO	32761
1248	70.9397	-8.6678	5.0	JAN MAYEN	48594
1249	70.967	-178.65	5.0	OSTROV VRANGELYA	29474
1250	71.17	-24.4	5.0	OSTSTATION	106
1251	71.317	-156.617	5.0	SANDIA LAB. D	523
1252	71.9772	102.4664	5.0	HATANGA	34969
1253	72.0	-125.27	5.0	SACHS HARBOUR	22298
1254	73.0	-85.3	5.0	ARCTIC BAY (NWT)	7539
1255	73.2	143.533	5.0	MYS SHALAUROVA	27652
1256	73.33	70.03	5.0	IM POPOVA	11828
1257	74.5039	19.0011	5.0	BJORNOYA	46944
1258	74.67	112.93	5.0	OSTROV PREOBRAZHENIA	28488
1259	76.15	152.83	5.0	OSTROV ZOHOVA	20328
1260	76.1833	62.5667	5.0	RUSSKAJA GAVAN	246
1261	76.25	-119.35	5.0	MOULD BAY	34676
1262	76.533	-68.75	5.0	PITUFFIK	50379
1263	76.95	68.58	5.0	MYS ZHELANIA	29248
1264	77.23	-62.33	5.0	THULE	119
1265	77.5	82.23	5.0	OSTROV UEDINENIA	24206
1266	77.72	104.28	5.0	MYS CHELIUSKINA	657
1267	78.8	-103.5	5.0	ISACHSEN	21510
1268	79.5	76.98	5.0	OSTROV VIZE	26148
1269	80.05	18.3	5.0	KINNVIKA STATION	259
1270	80.45	52.8	5.0	BUKHTA TIKHAYA/GUKER IS.	4385
1271	81.6	-16.67	5.0	NORD	10981
1272	-78.37698113207547	-163.10320754716983	5.9	LITTLE AMERICA,LITTLE AMERICA I,LITTLE AMERICA	2784
1273	-77.85	-39.95835	5.6	GENERAL BELGRANO,ELLSWORTH IGY	3920
1274	-43.6315	172.285	5.6	RAKAIA,CHRISTCHURCH	44077
1275	-36.63467924528302	174.74754716981133	5.9	MT TAMAHUNGA,AUCKLAND AIRPORT,AUCKLAND	40740
1276	-24.6085	25.91685	5.6	GABORONE,SERETSE KHAMA INTERNATIONAL AI	6466
1277	-22.52485	17.283499999999997	5.6	WINDHOEK,HOSEA KUTAKO INTL A	20028
1278	-21.11275	55.5058	5.6	ST. PIERRE/FONDS,SAINT-DENIS/GILLOT (REUNION)	30468
1279	-17.9585	25.833500000000004	5.6	VICTORIA FALLS,LIVINGSTONE	14079
1280	-17.87515	31.074850000000005	5.6	HARARE (KUTSAGA),HARARE (BELVEDERE)	19508
1281	-17.725	168.3	5.6	VILA (EFATE),BAUERFIELD (EFATE)	20259
1282	-14.989999999999998	40.67	5.6	LUMBO,MOSSURIL	5616
1283	-13.771499999999998	33.73350000000001	5.6	LILONGWE INTL AIRPO,LILONGWE	15098
1284	-11.6665	33.81699999999999	5.6	MZIMBA,MZUZU	8106
1285	-8.525	126.4835	5.6	KOMORO,BAU CAU	6939
1286	-7.649850000000001	110.5915	5.6	ADISUCIPTO/JOGYAKAR,SURAKARTA/ADISUMARM	6614
1287	-6.725	107.625	5.6	BANDUNG/HUSEIN,KALIJATI	3518
1288	-5.19165	-80.6	5.6	PIURA,PIURA GRUP7	1436
1289	-4.375	15.3415	5.6	KINSHASA/NDJILI,KINSHASA/BINZA	1037
1290	-3.7581499999999997	-73.275	5.6	IQUITOS,MORONA	1396
1291	-0.23349999999999999	35.008500000000005	5.6	KERICHO,KISUMU	10864
1292	0.7499999999999999	35.15	5.6	ELDORET,KITALE	11263
1293	3.1085000000000003	101.6	5.6	PETALING JAYA,KUALA LUMPUR SUBANG	34224
1294	6.541499999999999	3.3581499999999997	5.6	LAGOS/OSHODI,LAGOS/IKEJA	4663
1295	9.4335	6.766499999999999	5.6	ABUJA,MINNA	1412
1296	9.975	98.6	5.6	VICTORIA POINT,RANONG	4161
1297	10.541999999999998	-71.69149999999999	5.6	LA CANADA,MARACAIBO-LA CHINIT	1487
1298	10.807311320754717	106.94964716981131	5.9	BIEN HOA (VVBH),BARIA (PHUOC LE),AN LOC	1812
1299	12.948500000000001	74.88149999999999	5.6	MANGALORE/BAJPE,MANGALORE/MANGALURU	5531
1300	13.825	100.5835	5.6	BANGKOK METROPOLIS,DON MUANG	59253
1301	13.983350000000002	108.33335	5.6	AN KHE (VVAK),PLEIKU AB	922
1302	14.208350000000001	-87.43334999999999	5.6	TEGUCIGALPA,SOTO CANO AB	5791
1303	14.457650000000001	-11.43665	5.6	KAYES,KAYES/DAG-DAG	28913
1304	14.765	-17.283350000000002	5.6	DAKAR/YOFF,THIES	76177
1305	15.140811320754716	120.40096226415095	5.9	CROW VALLEY GUNNERY,SUBIC BAY WEATHER,CLARK AB	40252
1306	15.45	44.1915	5.6	SANAA,SANA'A (CIV/MIL)	2841
1307	15.616499999999998	73.72349999999999	5.6	GOA/DABOLIM AIRPORT,VENGURLA	2023
1308	15.59	32.55	5.6	AL-KHARTUM,KHARTOUM	13664
1309	16.68459811320755	107.26820566037736	5.9	DONG HA,HUE/PHU BAI,QUANG TRI	2118
1310	17.66345	102.68820000000001	5.6	UDON THANI,VIENTIANE	50356
1311	18.375	-67.1333	5.6	MAYAGUEZ,AGUADILLA RAMEY AFB	6815
1312	21.69335	84.03165	5.6	SAMBALPUR,JHARSIGUDA	12771
1313	22.2335	120.5915	5.6	467590,DONGGANG (=595530)	26550
1314	22.7165	-12.5915	5.6	FORT GOURAUD,ZOUERATE	12816
1315	22.55075471698113	88.32773584905661	5.9	BARAKPUR,DIAMOND HARBOUR,ALIPORE	5335
1316	23.1335	-82.39000000000001	5.6	VILLA SAN CRISTOBAL DE LA HABA,CASA BLANCA	9746
1317	23.265	69.735	5.6	BHUJ-RUDRAMATA,BHUJ	14118
1318	23.119033962264147	120.35684905660378	5.9	CHIAYI (TW-AFB),PINGTUNG SOUTH(AFB),TAINAN (TW-AFB)	23974
1319	24.0835	114.60815	5.6	HEYUAN,LIANPING	23767
1320	24.3665	118.258	5.6	CHIANGYANG,CHINMEM/SHATOU(AFB)	10508
1321	24.816499999999998	73.78999999999999	5.6	UDAIPUR,KANKROLI/RAJSAMAND	2786
1322	25.050150000000002	121.37485	5.6	TAIBEI,TAOYUAN AB	48226
1323	25.09835	62.06	5.6	JIWANI,GWADAR	21894
1324	25.5	28.993499999999994	5.6	DAKHLA,AL-DAKHLA	7513
1325	25.93365	32.723349999999996	5.6	LUXOR,SOUTH OF VALLEY UNIVERSITY	11210
1326	26.058299999999996	-97.60835	5.6	BROWNSVILLE (FORT BROWN),HARLINGEN AAF	2478
1327	26.267000000000003	50.391999999999996	5.6	DHAHRAN,BAHRAIN/MUHARRAQ	35913
1328	26.5257	-80.09970000000001	5.6	BOCA RATON (AAF),WEST PALM BEACH INTL AP	15396
1329	26.608299999999996	-81.78335	5.6	FORT MYERS (PAIGE FIELD),FORT MYERS (BUCKINGHAM AAF)	1286
1330	26.6935	92.80999999999999	5.6	TEZPUR,TEZPUR/BINDUKURI	5178
1331	26.483490566037734	127.7478679245283	5.9	IEJIMA AUXILIARY AB,NAHA,KADENA AB	71318
1332	26.8122641509434	88.42769056603773	5.9	DARJEELING,JALPAIGURI,SILIGURI	21257
1333	27.558349999999997	-81.34984999999999	5.6	SEBRING HENDRICKS FIELD,AVON PARK GUNNERY R	13029
1334	27.524196226415096	-82.49558867924529	5.9	TAMPA MACDILL FIELD,VENICE (AAF),SARASOTA AAF	2510
1335	28.351499999999998	28.898500000000002	5.6	BAHARIA,AL-WAHAT AL-BAHRIYA	7028
1336	28.80835	-97.01669999999999	5.6	VICTORIA (ALOE AAF),VICTORIA RGNL AP	19942
1337	28.641509433962266	-81.54464528301887	5.9	LEESBURG (AAF),ORLANDO (PINECASTLE AAF),ORLANDO (AAB)	3240
1338	29.158299999999997	-89.38335	5.6	BURRWOOD,BOOTHVILLE WSCMO CIT	27347
1339	29.201250943396232	-100.66759433962265	5.9	DEL RIO TEXAS,EAGLE PASS (AAF),BRACKETTVILLE (FORT CLARK)	18583
1340	29.511296226415098	-98.38019056603773	5.9	SAN ANTONIO RANDOLPH AFB,SAN ANTONIO FORT SAM HOUSTON,SAN ANTONIO INTL AP	26399
1341	30.00665	-90.14165	5.6	NEW ORLEANS,NEW ORLEANS (AAB)	24687
1342	29.877277358490566	-85.37631132075471	5.9	PANAMA CITY (TYNDALL FIELD),CAPE SAN BLAS SITE D 3,APALACHICOLA MUNI	16111
1343	30.0179716981132	31.44429245283019	5.9	CAIRO,AL-MINYA,ALMAZA	11488
1344	30.357999999999997	-9.492	5.6	AGADIR AL MASSIRA,AGADIR INEZGANNE	17056
1345	30.38335	-89.25	5.6	NASA MISS. TEST,BILOXI (KEESLER AFB)	3082
1346	30.47428301886792	-86.67775094339622	5.9	EGLIN AFB RANGE NO.,PENSACOLA FOREST SHERMAN NAS,HURLBURT FIELD (AF)	4240
1347	30.64835	-96.51500000000001	5.6	BRYAN,COLLEGE STATION (BRYAN AFB)	2651
1348	30.658299999999997	-88.15	5.6	MOBILE (BROOKLEY AFB),MOBILE	11613
1349	30.93315	-93.19985	5.6	DE RIDDER (AFB),FORT POLK (ARMY)	2376
1350	31.05	-83.45	5.6	VALDOSTA MOODY AFB,MOULTRIE SPENCE FIELD	3706
1351	31.1385	29.866499999999995	5.6	DEKHEILA/AL DAKHELA,ALEXANDRIA/NOUZHA	2862
1352	31.2665	32.26649999999999	5.6	BUR SAID,PORT SAID/EL GAMIL	5607
1353	31.100941509433966	-85.16823018867925	5.9	DOTHAN (NAPIER FIELD),MARIANNA (AAF),BAINBRIDGE AAF	3917
1354	31.32418867924528	-92.454	5.9	ALEXANDRIA (ESLER FIELD),CLAIBORNE RNG (AFS),ALEXANDRIA	5329
1355	31.524849999999997	-109.97484999999999	5.6	DOUGLAS (AAF),FORT HUACHUCA	11003
1356	31.589999999999996	-84.10164999999999	5.6	ALBANY,ALBANY TURNER FIELD	1030
1357	31.625149999999998	-97.14185	5.6	WACO RGNL,WACO (JAMES CONNALLY AFB)	11745
1358	31.58529811320755	34.769871698113214	5.9	BEER-SHEVA,ASHDOD NORTH,BEER-YA AQOV TO 401790	6343
1359	31.94185	-81.38315	5.6	FORT STEWART RESERV,SAVANNAH HUNTER AFB	5591
1360	32.26649999999999	35.9165	5.6	AMMAN AIRPORT,IRBED	2006
1361	32.341499999999996	-84.9165	5.6	FORT BENNING,FORT BENNING LAWSON AAF	8029
1362	32.34165	-90.5583	5.6	JACKSON (AAB),VICKSBURG	4967
1363	32.66665	-83.625	5.6	WARNER ROBINS ROBINS AFB,MACON COCHRAN FIELD	3363
1364	32.791650000000004	13.225	5.6	TRIPOLI INTL ARPT,WHEELUS	36796
1365	32.7915	22.232999999999997	5.6	DERNA,SHAHAT	6120
1366	32.84185	-116.04985000000002	5.6	EL CENTRO NAF,MOUNT LAGUNA	1966
1367	33.033500000000004	-106.3	5.6	HOLLOMAN AFB,WHITE SANDS MISSILE	12487
1368	33.033500000000004	130.1085	5.6	NAGASAKI AIRPORT,SAGA AIRPORT	1005
1369	33.26345	126.2064	5.6	MOESULPO AB,GOSAN	38973
1370	33.35	-104.53315	5.6	ROSWELL/INDUSTRIAL,ROSWELL	11787
1371	33.61665000000001	-102.025	5.6	REESE AFB,LUBBOCK/MUNI (TEX)	3650
1372	33.7333	-116.35835000000002	5.6	THERMAL (AAF),PALM SPRINGS (AAF)	1759
1373	34.075	-77.95835	5.6	OAK ISLAND,WILMINGTON (NEW HANOVER AP)	2682
1374	33.931603773584904	-80.65039245283019	5.9	SHAW AFB/SUMTER,POINSETT RANGE,COLUMBIA AAB	7611
1375	34.066500000000005	134.6165	5.6	KOMATSUSHIMA AB,TOKUSHIMA AB	5729
1376	34.175	-6.68335	5.6	RABAT,KENITRA PORT LYAUTEY	12678
1377	34.275	108.9315	5.6	SIAN,XIAN	36871
1378	34.34165	-103.55834999999999	5.6	MELROSE GUNNERY RAN,CLOVIS AAF	2278
1379	34.270730188679245	-117.30846603773585	5.9	VICTORVILLE (GEORGE AFB),RIVERSIDE (MARCH AFB),SAN BERNARDINO (NORTON AFB)	11023
1380	34.63334999999999	-86.98330000000001	5.6	REDSTONE ARSENAL,COURTLAND (AAF)	4074
1381	34.67515	137.95999999999998	5.6	OMAEZAKI,HAMAMATSU AB	41615
1382	34.775	-120.5085	5.6	SOUTH VANDENBERG AF,SANTA MARIA/PUBLIC (CAL)	16004
1383	34.9665	-79.14984999999999	5.6	LAURINBURG (MAXTON AAB),FORT BRAGG/SIMMONS	2213
1384	34.72738301886793	-82.1745283018868	5.9	SPARTANBURG,DUE WEST,GREENVILLE DONALDSON AFB	26800
1385	35.1315	139.7515	5.6	TATEYAMA AB,YOKOSUKA	1947
1386	34.87252830188679	33.13415094339623	5.9	ATHALASSA,AKROTIRI,EPISKOPI	57136
1387	35.27385	-116.35664999999999	5.6	BAKER,BICYCLE LAKE (AAF)	2252
1388	35.46685	-75.725	5.6	CAPE HATTERAS WB BLDG,DARE COUNTY GUNNERY	48399
1389	35.3	-117.2665	5.6	CUDDLEBACK GUNNERY,SUPERIOR VALLEY GUN	6790
1390	35.48350000000001	8.4	5.6	TEBESSA,THALA	16947
1391	35.7085	10.425	5.6	KAIROUAN,MONASTIR-SKANES	45397
1392	35.9415	-5.625	5.6	TANGER (AERODROME),GIBRALTAR	52989
1393	35.975	-95.62485	5.6	MUSKOGEE (HATBOX FIELD/AAF),TULSA INTL ARPT(AW)	11755
1394	35.89185	-83.94985	5.6	KNOXVILLE MUNICIPAL,KNOXVILLE (ISLAND AIRPORT)	22111
1395	35.933499999999995	-89.675	5.6	DYERSBURG AAF,BLYTHEVILLE AFB	2196
1396	35.9415	129.0335	5.6	DAEGU AB,POHANG AB	6547
1397	35.81509433962264	-86.43646226415095	5.9	SMYRNA SEWART AFB,TULLAHOMA WILLIAM NORTHERN AAF,MURFREESBORO	6918
1398	36.45	5.1585	5.6	SETIF,BEJAIA-AEROPORT	17970
1399	36.508500000000005	-119.8335	5.6	LEMOORE,FRESNO AIRTERM	25709
1400	36.716499999999996	8.775	5.6	JENDOUBA,TABARKA	24747
1401	36.6665	127.4665	5.6	CHEONGJU,CHEONGJU INTL AIRPO	6428
1402	36.75	-121.50835	5.6	SALINAS (AAB),HOLLISTER	1219
1403	36.966499999999996	67.2335	5.6	MAZAR-I-SHARIF,TERMEZ	22278
1404	37.0083	-76.4	5.6	NORFOLK/MUNI (VA),NEWPORT NEWS (FORT EUSTIS)	27619
1405	37.4667	-122.125	5.6	SAN JOSE/EMSU,SAN FRANCISCO	1623
1406	37.66775	127.84290000000001	5.6	WONJU AB,CHUNCHEON	6742
1407	37.51665	-77.37485	5.6	RICHMOND/BYRD FIELD,RICHMOND CITY	17848
1408	37.47428301886792	126.90662264150944	5.9	GIMPO INTL AIRPORT,SV RI SAN,SEOUL AB	23474
1409	38.0004	128.75735	5.6	GANGNEUNG AB,SOKCHO	16895
1410	38.208515094339624	-122.62830188679244	5.9	SANTA ROSA (AAF),SAN FRANCISCO CRISSY FIELD,SAN RAFAEL (HAMILTON AFB)	5409
1411	38.23909056603773	-121.3213679245283	5.9	STOCKTON (FIELD),SACRAMENTO/EXECUTIV,SACRAMENTO (MATHER AFB)	15740
1412	38.74335	-9.14165	5.6	LISBOA/GEOFISICO,LISBOA/GAGO COUTINHO	42202
1413	38.66634339622642	-90.18632075471699	5.9	ST. LOUIS/LAMBERT,BELLEVILLE SCOTT FIELD,ST LOUIS	36722
1414	38.6959679245283	-76.97617924528302	5.9	WASHINGTON (BOLLING FIELD),DAHLGREN,CAMP SPRINGS (ANDREWS AFB)	5951
1415	38.885000000000005	-98.96834999999999	5.6	RUSSELL,VICTORIA (WALKER AAF)	1573
1416	39.075	-96.76685	5.6	MARSHALL FIELD FORT RILEY,FT RILEY/MARSHALL A	4841
1417	39.075	-84.54185	5.6	CINCINNATI/GREATER,CINCINNATI (LUNKEN AIRPORT)	19027
1418	39.24335	-94.75165	5.6	KANSAS CITY,FT. LEAVENWORTH	32196
1419	39.55815	109.86665	5.6	CHASAKOCHI,DONGSHENG	27085
1420	39.618716981132074	-86.15416037735848	5.9	INDIANAPOLIS STOUT FIELD,COLUMBUS,INDIANAPOLIS/I.-MUN	22205
1421	39.90835	-82.90830000000001	5.6	COLUMBUS LOCKBOURNE AFB,COLUMBUS	20915
1422	40.13315	-79.875	5.6	UNIONTOWN BURGESS FIELD,PITTSBURGH/EMSU	1016
1423	40.29087358490566	-76.41134528301886	5.9	READING AAF,MIDDLETOWN OLMSTED AFB,HARRISBURG	15524
1424	40.666999999999994	46.783500000000004	5.6	EVLAKH AIRPORT,GANDJA	982
1425	41.058350000000004	-72.325	5.6	WESTHAMPTON SUFFOLK COUNTY AAF,FISHERS ISLAND FORT H G WRIGHT	993
1426	40.94275849056604	-78.02580188679245	5.9	KYLERTOWN,PHILIPSBURG,BELLEFONTE	17876
1427	41.22515	-81.67515	5.6	AKRON,CLEVELAND	26607
1428	41.15	-111.9917	5.6	OGDEN (HILL AFB),OGDEN	7026
1429	41.9393	-1.2615500000000002	5.6	ZARAGOZA/BASE AEREA,BARDENAS REALES	24597
1430	41.7162641509434	-87.78931698113207	5.9	CHICAGO UNIVERSITY,JOLIET,CHICAGO/MIDWAY	33598
1431	41.98335	-103.20829999999998	5.6	SCOTTSBLUFF AAF,ALLIANCE AAF	1598
1432	41.72514150943396	-70.16981320754716	5.9	NORTH TRURO,NANTUCKET MEM AP,FALMOUTH OTIS AFB	24582
1433	42.2	42.833000000000006	5.6	SAKARA,KUTAISI	571
1434	42.0062716981132	-72.60374905660377	5.9	CHICOPEE FALLS (WESTOVER AFB),HARTFORD,WINDSOR LOCKS/BRADLEY FIELD	14999
1435	42.16839622641509	-76.25613207547171	5.9	BINGHAMTON/BROOME C,BINGHAMTON,ELMIRA	10922
1436	42.33396226415095	-83.20249811320754	5.9	DETROIT,YPSILANTI,DETROIT METRO.	30075
1437	42.616499999999995	-92.44149999999999	5.6	WATERLOO,WAVERLY	1548
1438	42.91685	-106.40014999999998	5.6	CASPER WYO,CASPER/NATRONA COUN	11626
1439	43.533500000000004	6.975	5.6	SAINT-RAPHAEL,NICE	667
1440	43.575	-1.3	5.6	BIARRITZ,DAX	1383
1441	43.58315	-119.0	5.6	BURNS MUNI (AMOS),BURNS	9056
1442	44.651650000000004	33.83165	5.6	SEWASTOPOL,SIMFEROPOL	44303
1443	45.17682641509435	-83.16989056603775	5.9	ENVIRONM BUOY 45003,ALPENA,ALPENA/PHELPS COLLI	9906
1444	45.641999999999996	-73.583	5.6	MONTREAL/TRUDEAU INT,LASSOMPTION CDA	17931
1445	45.6	25.558	5.6	PREDEAL,BRASOV-GHIMBAV	1501
1446	45.97485	-118.98335	5.6	PENDLETON MUNICIPAL,PASCO	23100
1447	45.7217	5.0139	5.6	LYON-BRON,LYON-ST EXUPERY	45954
1448	45.967	21.2835	5.6	TIMISOARA,ARAD	8037
1449	45.80800000000001	24.508	5.6	SIBIU,FAGARAS	967
1450	46.0318	12.89125	5.6	AVIANO,UDINE/CAMPOFORMIDO	59580
1451	46.36	121.705	5.6	ULANHOT,TE-PO-SU-K/-MIAO	13962
1452	46.800149999999995	-120.52484999999999	5.6	YAKIMA AIRTERM,ELLENSBURG	12346
1453	46.9585	2.04185	5.6	CHATEAUROUX,BOURGES	8557
1454	47.69199999999999	23.191499999999998	5.6	BAIA MARE,SATU MARE	2659
1455	48.0415	9.075	5.6	NEUHAUSEN OB ECK,SIGMARINGEN	21411
1456	48.285000000000004	7.731649999999999	5.6	FREIBURG,STRASBOURG	2880
1457	48.1665	-103.60814999999998	5.6	WILLISTON,WILLISTON/SLOULIN F	6802
1458	48.55835	-109.71685000000002	5.6	HAVRE (AMOS),HAVRE	20908
1459	49.5415	11.5585	5.6	FEUCHT(USA-AF),GRAFENWOEHR	4679
1460	49.85	-97.18315	5.6	WINNIPEG UA,WINNIPEG INT.AIRPOR	16919
1461	50.0869	-119.34164999999999	5.6	KELOWNA UA,VERNON AUTO	32630
1462	49.81792452830188	6.8711320754716985	5.9	BITBURG,BAUMHOLDER (USA-AF),TRIER	5322
1463	50.09647169811321	8.711471698113208	5.9	HANAU,LANGEN,WIESBADEN	10990
1464	50.3165	-104.68350000000001	5.6	BRATT'S LAKE UA,REGINA INTL	6506
1465	51.05	7.36665	5.6	KOLN/BONN,LUDENSCHEID	2763
1466	51.83585000000001	0.89695	5.6	SHOEBURYNESS,WATTISHAM	11190
1467	53.08845	4.84905	5.6	DE KOOIJ VK,VLIELAND	9783
1468	53.492000000000004	-113.525	5.6	EDMONTON INTL ARPT,EDMONTON NAMAO ARPT	10372
1469	53.461349999999996	7.555099999999999	5.6	EMDEN-FLUGPLATZ,JEVER	47267
1470	54.50815	9.75	5.6	KEIL/HOLTENAU,EGGEBECK	18072
1471	54.5835	-110.1665	5.6	COLD LAKE,PRIMROSE LAKE	6241
1472	54.565	-6.15835	5.6	LONG KESH,BELFAST/ALDERGROVE ARPT	52711
1473	55.70015000000001	12.59985	5.6	KOBENHAVN/KASTRUP,JAEGERSBORG	49140
1474	56.408	-2.867	5.6	LEUCHARS,SHANWELL	38226
1475	57.95	11.9665	5.6	GOTEBURG/TORSLANDA,TORPABRON	20845
1476	59.87418867924529	30.53279245283019	5.9	ST.PETERSBURG (VOEJKOVO),SLUTSK,LENINGRAD/CHOSSEYNOR	60114
1477	60.07130566037736	10.972954716981134	5.9	OSLO/GARDERMOEN,OSLO-BLINDERN,KJELLER	30348
1478	61.25834999999999	-149.725	5.6	ANCHORAGE ELMENDORF FIELD,FT. RICHARDSON/BRYANT AHP	1195
1479	68.225	-166.275	5.6	CAPE THOMPSON,POINT HOPE	525
1480	78.06834999999998	13.92665	5.6	ISFJORD RADIO,BARENTSBURG	31038
1481	-0.20425	37.275000000000006	6.2	EMBU,NYERI,NANUYKI,MERU	7361
1482	21.468944915254237	-157.9627156779661	6.8	WAHIAWA,KAHUKU AAB,BARBERS POINT NAS,HONOLULU HICKAM FIELD,HONOLULU INTL,KANEOHE BAY (MCAF)	42626
1483	32.12915	-106.40010000000002	6.2	EL PASO (FORT BLISS),EL PASO (BIGGS AFB),WHITE SANDS TEST RG,FRYE SITE	11497
1484	32.408325	-86.33749999999999	6.2	SELMA CRAIG AFB,MONTGOMERY (MAXWELL FIELD),MONTGOMERY (GUNTER FIELD),TUSKEGEE (AAF)	8380
1485	33.381727118644065	-111.98539364406777	6.8	WFO PHOENIX,PHOENIX (LUKE FIELD),COOLIDGE (AAF),CHANDLER (WILLIAMS FIELD),PHOENIX/SKY HARBOR,PHOENIX	39786
1486	35.073030508474574	-119.05094576271186	6.8	BAKERSFIELD,BAKERSFIELD (MINTER FIELD),OXNARD (FLIGHT STRIP),SANDBURG (AUT),LEBEC,TAFT (GARDNER FIELD)	28389
1487	36.7259	-116.002875	6.2	INDIAN SPRINGS GUNN,MERCURY DESERT ROCK AP,JACKASS FLATS,YUCCA FLATS TEST 21	40991
1488	38.541650000000004	-85.68335	6.2	LOUISVILLE,LOUISVILLE (BOWMAN FIELD),MADISON JEFFERSON PRVGR,SEYMOUR FREEMAN FIELD	13143
1489	38.545825	-104.67932500000002	6.2	PUEBLO,PUEBLO MEMORIAL(AW),FORT CARSON/BUTTS,AIR FORCE ACADEMY	22772
1490	39.433324999999996	-75.88335	6.2	DOVER (AAF),WILMINGTON (NEW CASTLE AAB),EDGEWOOD,ABERDEEN PRVGR	8207
1491	39.824075	-74.8275	6.2	ATLANTIC CITY U-A,PHILADELPHIA INTL,CAMDEN,LAKEHURST	27626
1492	40.254175000000004	-122.204175	6.2	CHICO MUNI,RED BLUFF MUNICIPAL,REDDING (AAF),REDDING	25609
1493	40.603618556058	-73.98520127085607	7.1	NEW YORK UNIVERSITY,SPRING LAKE BELMAR,FT. MONMOUTH,STATEN ISLAND MILLER FIELD,NEW YORK JFK AP,NEWARK,LA GUARDIA	49776
1494	42.53342500000001	-71.2124	6.2	CAMBRIDGE MIT,BOSTON/LOGAN INTL,BEDFORD HANSCOM AP,MANCHESTER (GRENIER FIELD)	24319
1495	47.431620762711866	-122.42250805084745	6.8	SEATTLE (BOEING FIELD),EVERETT (PAINE FIELD),OLYMPIA MUN I AP,GRAY AAF,TACOMA (MCCHORD AFB),SEATTLE-TACOMA INTL	42783
1496	33.8941375	-118.24996249999998	7.4	CAMP PENDLETON,CA SANTA ANA/ORANGE COUNTY AAF,LOMITA (AAF),LONG BEACH,LOS ANGELES INTL,POINT MUGU/NAS,GLENDALE,BURBANK	62749
