	latitude	longitude	radius	station	records
0	-80.017	-119.533	5.0	BYRD STN	7679
1	-79.25	-147.5	5.0	LITTLE ROCKFORD	309
2	-78.5	-163.8	5.0	LITTLE AMERICA	207
3	-78.45	106.867	5.0	VOSTOK	7319
4	-78.4	87.583	5.0	SOVIETSKAVA	273
5	-78.2	-162.25	5.0	LITTLE AMERICA	1612
6	-77.9667	-38.8	5.0	GENERAL BELGRANO	1782
7	-77.7333	-41.1167	5.0	ELLSWORTH IGY	2138
8	-76.2667	-147.5	5.0	LITTLE ROCKFORD	389
9	-72.3	170.2167	5.0	ADARE HALLETT	4373
10	-70.4333	24.3167	5.0	BASE ROI BAUDOUIN	1097
11	-70.317	-2.367	5.0	SANAE	9815
12	-69.73	95.05	5.0	PIONERSKAVA	121
13	-69.5	159.4	5.0	LENINGRADSKAJA	2575
14	-67.667	45.85	5.0	MOLODEZNAJA	13014
15	-66.27	100.73	5.0	BUNGER OASIS	548
16	-65.25	-64.2667	5.0	FARADAY	10141
17	-63.4667	-56.2833	5.0	PETREL NAS	1654
18	-62.183	-58.883	5.0	BELLINGSHAUSEN AWS	6342
19	-60.75	-44.7167	5.0	ISLAS ORCADAS (MET)	8699
20	-59.45	-27.267	5.0	CORBETA URUGUAY DN	275
21	-54.8	-68.3167	5.0	USHUAIA	1943
22	-53.8	-67.75	5.0	RIO GRANDE AIRPORT	3267
23	-53.1	73.7167	5.0	HEARD IS.(THESPIT)	2295
24	-52.55	169.15	5.0	CAMPBELL ISLAND	18775
25	-51.7	-57.8667	5.0	STANLEY	4603
26	-51.6333	-69.2167	5.0	RIO GALLEGOS B. A.	4526
27	-49.3522	70.2433	5.0	PORT-AUX-FRANCAIS	15904
28	-46.8831	37.8669	5.0	MARION ISLAND	33482
29	-43.95	-176.5667	5.0	CHATHAM ISL/TUUTA	16837
30	-43.78	172.02	5.0	RAKAIA	12147
31	-43.483	172.55	5.0	CHRISTCHURCH	31930
32	-43.2333	-65.3	5.0	ALMIRANTE ZAR	1150
33	-42.8833	147.3333	5.0	HOBART	1774
34	-42.7167	170.9833	5.0	HOKITIKA AERODROME	26036
35	-42.417	173.7	5.0	KAIKOURA	5055
36	-42.2	145.05	5.0	GEOGERTOWN	2980
37	-41.3	174.63	5.0	OUTLOOK HILL	11385
38	-39.467	175.683	5.0	WAIOURU	2309
39	-39.0167	174.1833	5.0	NEW PLYMOUTH AERO	31454
40	-38.7333	-62.1667	5.0	COMANDANTE ESPORA	13733
41	-38.6667	177.9833	5.0	GISBORNE AERODROME	28600
42	-38.1	147.1333	5.0	EAST SALE (AUS-AFB)	45308
43	-37.867	144.75	5.0	LAVERTON AERODROME	58326
44	-37.7953	77.5692	5.0	MARTIN DE VIVIES	16637
45	-36.3	174.7	5.0	MT TAMAHUNGA	14698
46	-35.367	-57.283	5.0	PUNTA INDIO B.A.	151
47	-35.3	149.183	5.0	CANBERRA AIRPORT	54494
48	-35.1	173.267	5.0	KAITAIA	14537
49	-34.58	-58.48	5.0	BUENOS AIRES	107
50	-34.2358	142.0867	5.0	MILDURA AIRPORT	75371
51	-34.017	22.383	5.0	GEORGE AIRPORT	4491
52	-33.6	115.4667	5.0	LUDLOW	539
53	-33.033	27.833	5.0	EAST LONDON	3098
54	-32.8833	-68.85	5.0	OBSERV MENDOZA	3075
55	-32.78	-71.51	5.0	QUINTERO (MIL)	28938
56	-32.5667	148.95	5.0	WELLINGTON	948
57	-31.6667	128.8667	5.0	EUCLA	12086
58	-31.35	-54.117	5.0	BAGE (AEROPORTO)	1012
59	-30.833	128.1	5.0	FORREST AIRPORT	54264
60	-30.5167	151.65	5.0	ARMIDALE	728
61	-30.3108	153.1186	5.0	COFFS HARBOUR MO	67021
62	-30.0833	145.9667	5.0	BOURKE (S23'05'11'17)	130
63	-30.01	131.583	5.0	MARALINGA	7453
64	-29.9667	30.95	5.0	DURBAN/LOUIS BOTHA	29090
65	-29.2447	-177.9289	5.0	RAOUL ISLAND	25267
66	-28.8	24.767	5.0	KIMBERLEY	9829
67	-28.567	16.533	5.0	KORTDOORN/ALEXANDER	11144
68	-28.25	28.3333	5.0	BETHLEHEM AIRPORT	11390
69	-27.65	152.7167	5.0	AMBERLEY	2455
70	-27.55	135.4833	5.0	OODNADATTA	37900
71	-27.4667	-58.9833	5.0	RESISTENCIA	1200
72	-26.5333	18.1167	5.0	KEETMANSHOOP	6019
73	-26.05	22.45	5.0	TSABONG	836
74	-25.783	25.533	5.0	MAFIKENG WO	1154
75	-25.733	28.183	5.0	PRETORIA-EENDRACHT	3937
76	-25.55	45.533	5.0	FAUX-CAP	549
77	-25.2333	-57.5167	5.0	AEROPUERTO SILVIO PETTIROSSI	5464
78	-25.0333	46.95	5.0	TAOLAGNARO	29889
79	-24.8878	113.67	5.0	CARNARVON AIRPORT	71908
80	-24.85	-65.4833	5.0	SALTA AERO	19838
81	-23.867	35.383	5.0	INHAMBANE	4808
82	-23.8667	29.45	5.0	PIETERSBURG (SAAF)	13740
83	-23.85	151.25	5.0	GLADSTONE	46725
84	-23.617	-46.65	5.0	SAO PAULO	16840
85	-23.4372	144.2769	5.0	LONGREACH AERO	47067
86	-23.383	43.733	5.0	TOLIARA	5308
87	-23.35	-149.4833	5.0	TUBUAI ISLAND	19527
88	-22.9833	14.65	5.0	WALVIS BAY AIRPORT	1174
89	-22.8	47.833	5.0	FARAFANGANA	2385
90	-22.5667	17.1	5.0	WINDHOEK	12545
91	-22.55	45.4	5.0	RANOHIRA	1639
92	-22.483	17.467	5.0	HOSEA KUTAKO INTL A	7483
93	-22.333	40.333	5.0	ILE EUROPA	7597
94	-22.2761	166.4528	5.0	NOUMEA (NLLE-CALEDONIE)	41494
95	-22.217	30.0	5.0	BEITBRIDGE	3367
96	-22.03	-63.68	5.0	YACUIBA	670
97	-22.0167	-60.6167	5.0	MARISCAL ESTIGARRIBIA	708
98	-21.817	-138.8	5.0	MURUROA	6907
99	-21.75	43.367	5.0	MOROMBE	1328
100	-21.6333	115.1167	5.0	ONSLOW	25950
101	-21.45	47.1	5.0	FIANARANTSOA	1453
102	-21.417	25.6	5.0	LETLHAKANE	693
103	-21.333	55.483	5.0	ST. PIERRE/FONDS	5723
104	-21.233	-175.15	5.0	FUAAMOTU	5436
105	-21.217	27.5	5.0	FRANCISTOWN	613
106	-21.2	-159.8167	5.0	RAROTONGA	23629
107	-21.2	48.367	5.0	MANANJARY	4840
108	-21.1172	149.2169	5.0	MACKAY M.O	66046
109	-21.017	31.583	5.0	BUFFALO RANGE	6492
110	-20.8925	55.5286	5.0	SAINT-DENIS/GILLOT (REUNION)	24745
111	-20.767	167.233	5.0	OUANAHAM	7206
112	-20.7667	-138.55	5.0	TUREIA	271
113	-20.6667	140.5	5.0	CLONCURRY	33366
114	-20.567	164.283	5.0	KOUMAC	11482
115	-20.5	-29.3167	5.0	TRINDADE (ILHA)	9829
116	-20.283	44.317	5.0	MORONDAVA	3268
117	-20.233	169.767	5.0	ANEITYUM	125
118	-20.15	28.617	5.0	BULAWAYO	14661
119	-20.067	30.867	5.0	MASVINGO	8225
120	-19.9833	23.4167	5.0	MAUN	1796
121	-19.9061	-144.9494	5.0	HEREHERETUE	7607
122	-19.833	48.8	5.0	MAHANORO	1069
123	-19.783	-47.967	5.0	UBERABA	134
124	-19.683	63.417	5.0	RODRIGUES	10891
125	-19.6422	134.1833	5.0	TENNANT CREEK AIRPORT	46728
126	-19.6	18.117	5.0	GROOTFONTEIN	4094
127	-19.45	29.85	5.0	GWERU	5186
128	-19.28	121.5	5.0	TALGARNO	297
129	-19.2483	146.7661	5.0	TOWNSVILLE AERO	87784
130	-18.9	47.5333	5.0	TANANARIVE/SCM	4211
131	-18.633	26.85	5.0	HWANGE NATIONAL PAR	2189
132	-18.533	32.15	5.0	RUSAPE	2604
133	-18.317	29.883	5.0	KADOMA	1432
134	-18.3167	-59.7667	5.0	ROBORE	144
135	-18.2292	127.6636	5.0	HALLS CREEK AIRPORT	52731
136	-18.217	28.933	5.0	GOKWE	1693
137	-18.1	25.85	5.0	VICTORIA FALLS	6409
138	-18.067	-140.95	5.0	HAO	18186
139	-17.883	36.883	5.0	QUELIMANE	2266
140	-17.817	25.817	5.0	LIVINGSTONE	7670
141	-17.8	-63.1833	5.0	SANTA CRUZ/EL TROMPILLO	1454
142	-17.7333	-39.25	5.0	CARAVELAS	5524
143	-17.7333	139.5333	5.0	BURKETOWN	145
144	-17.6833	141.0667	5.0	NORMANTON AIRPORT	229
145	-17.5553	-149.6145	5.0	TAHITI-FAAA	40183
146	-17.417	32.217	5.0	MUTOKO	4155
147	-17.38	-66.17	5.0	COCHABAMBA	1502
148	-17.3167	123.6333	5.0	DERBY	7081
149	-17.083	49.817	5.0	SAINTE-MARIE AERODR	681
150	-17.05	42.717	5.0	ILE JUAN DE NOVA	5730
151	-16.8736	145.7458	5.0	CAIRNS AERO	79304
152	-16.833	29.617	5.0	KAROI	4958
153	-16.517	-68.183	5.0	LA PAZ/ALTO	4156
154	-16.517	28.883	5.0	KARIBA	2203
155	-16.45	-151.75	5.0	BORA-BORA	11160
156	-16.45	59.617	5.0	ST. BRANDON	5725
157	-16.333	-71.567	5.0	AREQUIPA	3138
158	-16.2667	133.3833	5.0	DALY WATERS	20570
159	-16.183	33.583	5.0	TETE	2074
160	-15.8878	54.5206	5.0	SERGE-FROLOW (ILE TROMELIN)	20680
161	-15.683	34.967	5.0	CHILEKA	10079
162	-15.6667	46.35	5.0	MAHAJANGA	36011
163	-15.6	-56.1	5.0	CUIABA	443
164	-15.517	167.217	5.0	PEKOA AIRPORT	661
165	-15.417	28.317	5.0	LUSAKA CITY AIRPORT	9588
166	-15.25	23.15	5.0	MONGU	5748
167	-15.2167	12.1667	5.0	MOCAMEDES	1595
168	-15.1	39.283	5.0	NAMPULA	4237
169	-15.03	40.67	5.0	LUMBO	2531
170	-15.0	50.333	5.0	ANTALAHA	4654
171	-14.95	-147.659	5.0	RANGIROA	5720
172	-14.95	-40.883	5.0	VITORIA DA CONQUIST	123
173	-14.933	13.567	5.0	LUBANGO	236
174	-14.8167	-64.9167	5.0	TRINIDAD	937
175	-14.633	47.767	5.0	ANALALAVA	1607
176	-14.4833	-145.0333	5.0	TAKAROA ATOLL	17249
177	-14.45	-67.53	5.0	RURRENABAQUE	125
178	-14.4167	28.4833	5.0	KABWE	12025
179	-14.3667	-170.7833	5.0	LEONE BAY AMERICAN S	359
180	-14.283	50.167	5.0	SAMBAVA	2763
181	-13.8	-171.783	5.0	APIA	10496
182	-13.75	34.583	5.0	SALIMA	2342
183	-13.733	-76.217	5.0	PISCO	1501
184	-13.55	32.583	5.0	CHIPATA	140
185	-13.367	50.0	5.0	VOHEMAR	807
186	-13.317	48.317	5.0	FASCENE (NOSSI-BE)	786
187	-13.3	35.233	5.0	LICHINGA	1908
188	-13.2667	-43.4167	5.0	BOM JESUS DA LAPA	6605
189	-13.0167	-38.5167	5.0	SALVADOR	7952
190	-13.0	28.65	5.0	NDOLA	2372
191	-12.983	40.533	5.0	PEMBA	3898
192	-12.8	15.75	5.0	HUAMBO	301
193	-12.8	45.2833	5.0	DZAOUDZI/PAMANZI	15117
194	-12.5	177.05	5.0	ROTUMA	6835
195	-12.37	13.53	5.0	LOBITO	100
196	-12.35	49.3	5.0	ANTSIRANANA	8157
197	-12.15	-77.0	5.0	LAS PALMAS	389
198	-12.15	-45.0	5.0	BARREIRAS	1194
199	-12.117	44.433	5.0	OUANI (ANJOUAN)	3271
200	-11.883	33.617	5.0	MZIMBA	4451
201	-11.783	19.917	5.0	LUENA (LUSO)	1995
202	-11.75	24.4333	5.0	MWINLUNGA	2872
203	-11.7	43.233	5.0	MORONI AIRPORT	5231
204	-11.583	47.283	5.0	ILES GLORIEUSES	7379
205	-11.45	34.017	5.0	MZUZU	3655
206	-11.3	-41.867	5.0	IRECE	347
207	-11.0333	-68.7833	5.0	COBIJA	222
208	-10.917	-37.05	5.0	ARACAJU	417
209	-10.82	-65.37	5.0	GUAYARAMERIN	618
210	-10.7	-48.4	5.0	PORTO NACIONAL	1005
211	-10.7	152.833	5.0	MISIMA ISLAND	2055
212	-10.7	165.8	5.0	SANTA CRUZ ISLAND	151
213	-10.583	142.217	5.0	THURSDAY IL/HORN IL	21187
214	-10.45	105.7	5.0	CHRISTMAS ISL (PVT)	3447
215	-10.433	56.75	5.0	AGALEGA	2514
216	-10.217	31.133	5.0	KASAMA	3135
217	-9.95	33.883	5.0	KARONGA	2595
218	-9.517	-35.783	5.0	MACEIO (AEROPORTO)	133
219	-9.4167	159.9667	5.0	HONIARA	24636
220	-9.3833	-40.4833	5.0	PETROLINA	9393
221	-9.3833	147.2167	5.0	PORT MORESBY W.O.	50726
222	-9.35	46.533	5.0	ALDABRA	143
223	-9.333	-54.967	5.0	CACHIMBO AERO	2176
224	-9.2	124.367	5.0	OE-CUSSIE	498
225	-9.1	-44.117	5.0	BOM JESUS	376
226	-9.0	-158.05	5.0	PENRHYN	8316
227	-8.933	33.467	5.0	MBEYA	767
228	-8.85	13.233	5.0	LUANDA	8531
229	-8.55	125.55	5.0	DILLI/DILLI AIRPORT	7176
230	-8.367	-74.567	5.0	PUCALLPA	328
231	-8.05	-34.9167	5.0	RECIFE	14978
232	-7.967	112.7	5.0	MALANG/ABDUL (AFB)	586
233	-7.9667	-14.4	5.0	WIDE AWAKE FIELD	18170
234	-7.783	110.433	5.0	ADISUCIPTO/JOGYAKAR	3047
235	-7.633	35.767	5.0	IRINGA	677
236	-7.617	111.517	5.0	MADIUN/ISWAHYUD AFB	3443
237	-7.5167	110.75	5.0	SURAKARTA/ADISUMARM	3567
238	-7.4	20.817	5.0	DUNDO	6240
239	-7.3333	-47.4667	5.0	CAROLINA	5666
240	-7.333	108.25	5.0	CIBEUREM/TASIK(AFB)	625
241	-7.317	-39.3	5.0	BARBALHA	334
242	-7.3	72.4	5.0	DIEGO GARCIA	16326
243	-7.017	-37.267	5.0	PATOS	137
244	-6.9	107.583	5.0	BANDUNG/HUSEIN	2478
245	-6.8667	39.2	5.0	DAR ES SALAAM INT	10437
246	-6.833	37.65	5.0	MOROGORO	142
247	-6.783	-79.817	5.0	CHICLAYO	1504
248	-6.7667	-43.0167	5.0	FLORIANO	7626
249	-6.733	147.0	5.0	LAE	29138
250	-6.55	107.667	5.0	KALIJATI	1040
251	-6.267	-57.733	5.0	JACAREACANGA	287
252	-6.167	35.767	5.0	DODOMA	1096
253	-5.5	-45.267	5.0	BARRA DO CORDA	161
254	-5.217	145.783	5.0	MADANG	18232
255	-5.2	-39.3	5.0	QUIXERAMOBIM	334
256	-5.083	32.833	5.0	TABORA AIRPORT	1062
257	-5.083	39.067	5.0	TANGA	776
258	-5.05	-42.817	5.0	TERESINA	313
259	-4.883	29.667	5.0	KIGOMA	112
260	-4.883	38.283	5.0	MOMBO	113
261	-4.567	-81.233	5.0	TALARA	1823
262	-4.45	105.183	5.0	MENGGALA/ASTRA KSET	181
263	-4.217	12.667	5.0	DOLISIE	7834
264	-4.217	152.183	5.0	RABAUL	27818
265	-4.1	122.433	5.0	KENDARI/WOLTER MONG	1064
266	-4.05	-154.9833	5.0	MALDEN ISLAND AF	274
267	-4.033	39.617	5.0	MOMBASA	3673
268	-3.7667	-38.6	5.0	FORTALEZA	9728
269	-3.417	37.067	5.0	KILIMANJARO AIRPORT	696
270	-3.4	38.567	5.0	VOI	4508
271	-3.2944	-60.6283	5.0	MANACAPURU	2770
272	-3.217	40.1	5.0	MALINDI	1769
273	-3.083	-41.783	5.0	PARNAIBA	665
274	-2.767	-171.717	5.0	KANTON ISLAND	16684
275	-2.533	14.767	5.0	DJAMBALA	1376
276	-2.467	32.917	5.0	MWANZA	383
277	-2.283	37.833	5.0	MAKINDU	5723
278	-2.2	-81.0	5.0	CHINCHIPE	601
279	-2.1581	-79.8839	5.0	GUAYAQUIL AEROPUERTO	5607
280	-2.05	147.4167	5.0	MOMOTE W.O.	23951
281	-1.333	31.817	5.0	BUKOBA	1433
282	-1.133	35.833	5.0	NAROK	4802
283	-0.9	-89.6	5.0	SAN CRISTOBAL RADIOSONDA	3825
284	-0.7	8.75	5.0	PORT-GENTIL	10586
285	-0.617	30.65	5.0	MBARARA	114
286	-0.5167	166.9167	5.0	NAURU ARC-2	6251
287	-0.5	37.45	5.0	EMBU	862
288	-0.467	39.633	5.0	GARISSA	7179
289	-0.433	36.967	5.0	NYERI	426
290	-0.367	35.267	5.0	KERICHO	1787
291	-0.267	36.1	5.0	NAKURU	7184
292	-0.1	34.75	5.0	KISUMU	9077
293	0.033	37.033	5.0	NANUYKI	3435
294	0.05	32.45	5.0	ENTEBBE AIRPORT	6316
295	0.083	37.65	5.0	MERU	2638
296	0.183	30.1	5.0	KASESE	419
297	0.383	6.717	5.0	S. TOME	5381
298	0.483	35.3	5.0	ELDORET	1687
299	0.683	34.167	5.0	TORORO	264
300	1.017	35.0	5.0	KITALE	9576
301	1.083	154.767	5.0	KAPINGAMARANGI ATOL	487
302	1.617	18.067	5.0	IMPFONDO	986
303	1.683	31.717	5.0	MASINDI	632
304	1.717	33.617	5.0	SOROTI	112
305	1.75	40.067	5.0	WAJIR	3181
306	1.85	-78.767	5.0	TUMACO	344
307	2.0	-157.4	5.0	CHRISTMAS ISLAND	29424
308	2.033	-56.117	5.0	SIPALIWINI	331
309	2.083	11.483	5.0	BITAM	483
310	2.333	37.983	5.0	MARSABIT	1160
311	3.117	35.617	5.0	LODWAR	8644
312	3.367	-57.333	5.0	COEROENI	254
313	3.533	39.05	5.0	MOYALE	3218
314	3.55	-76.3833	5.0	CALI/ALFONSO BONILLA ARAGON	1230
315	3.633	-54.033	5.0	MARIPASOULA	1329
316	3.783	-56.15	5.0	TAFELBERG	228
317	3.833	11.517	5.0	YAOUNDE	7131
318	3.85	-159.367	5.0	FANNING ISLAND	103
319	3.883	-51.8	5.0	SAINT GEORGES	2681
320	3.933	41.867	5.0	MANDERA	3516
321	4.1917	73.5292	5.0	MALE	4090
322	4.2167	100.7	5.0	SITIAWAN	52733
323	4.25	15.8	5.0	BERBERATI	2543
324	4.317	21.183	5.0	MOBAYE	150
325	4.35	-54.417	5.0	STOELMANSEILAND	153
326	4.4	18.5167	5.0	BANGUI	34559
327	4.417	-7.367	5.0	TABOU	12633
328	4.467	14.367	5.0	BATOURI	4064
329	4.55	-70.917	5.0	LAS GAVIOTAS	3770
330	4.6	-61.1167	5.0	SANTA ELENA DE UAIREN	813
331	4.733	22.833	5.0	BANGASSOU	2199
332	4.8222	-52.3653	5.0	CAYENNE MATOURY	27508
333	4.883	-1.767	5.0	TAKORADI	135
334	5.3333	163.0167	5.0	KUSAIE/CAROLINES	1652
335	5.45	-55.2	5.0	ZANDERIJ	2383
336	5.467	100.383	5.0	BUTTERWORTH AB	24729
337	5.5	-54.033	5.0	SAINT-LAURENT	3207
338	5.55	12.367	5.0	YOKO	1316
339	5.6	-0.1667	5.0	ACCRA/KOTOKA INTL	3276
340	5.65	10.75	5.0	KOUNDJA	5780
341	5.8833	-162.05	5.0	PALMYRA ISLAND	631
342	5.9	43.583	5.0	GODE	237
343	5.9	118.0667	5.0	SANDAKAN	47253
344	5.917	169.65	5.0	JALUIT ATOLL	130
345	5.95	-57.033	5.0	NICKERIE	382
346	5.967	15.633	5.0	BOUAR	2424
347	6.25	-10.35	5.0	ROBERTS FIELD	1457
348	6.467	7.55	5.0	ENUGU	469
349	6.483	17.433	5.0	BOSSANGOA	3181
350	6.8833	81.8333	5.0	POTTUVIL	151
351	6.9	122.067	5.0	ZAMBOANGA	4876
352	7.233	-70.8	5.0	GUASDUALITO	356
353	7.3	-61.45	5.0	TUMEREMO	451
354	7.383	143.917	5.0	WOLEAI ATOLL	106
355	7.7	28.017	5.0	WAU	717
356	7.733	-5.067	5.0	BOUAKE	14811
357	7.85	-72.45	5.0	SAN ANTONIO DEL TACHIRA	3694
358	7.9	-67.4167	5.0	SAN FERNANDO DE APURE	1404
359	8.0333	79.8333	5.0	PUTTALAM	6376
360	8.15	-63.55	5.0	CIUDAD BOLIVAR	641
361	8.28	73.05	5.0	MALIKU	574
362	8.3333	80.4167	5.0	ANURADHAPURA	612
363	8.4	20.65	5.0	NDELE	2173
364	8.4089	124.6119	5.0	LUMBIA AIRPORT	3518
365	8.617	-13.2	5.0	LUNGI	1194
366	8.8667	2.6	5.0	TCHAOUROU	6364
367	8.983	1.15	5.0	SOKODE	5401
368	9.15	18.3833	5.0	SARH	17203
369	9.15	92.81	5.0	CAR NICOBAR	1627
370	9.25	7.0	5.0	ABUJA	972
371	9.333	13.383	5.0	GAROUA	10956
372	9.417	-5.617	5.0	KORHOGO	11845
373	9.467	170.25	5.0	WOTJE ATOLL	299
374	9.5	-7.567	5.0	ODIENNE	140
375	9.5	-0.85	5.0	TAMALE	1562
376	9.5667	-13.6167	5.0	CONAKRY	13759
377	9.6	105.967	5.0	BA-XUYEN/SOC TRANG	170
378	9.617	6.533	5.0	MINNA	440
379	9.75	-63.183	5.0	MATURIN	1184
380	9.8	125.5	5.0	SURIGAO	347
381	9.817	-70.933	5.0	MENE GRANDE	780
382	9.9333	76.2333	5.0	COCHIN (IN-NAVY)	17051
383	9.983	98.617	5.0	RANONG	194
384	10.067	-69.317	5.0	BARQUISIMETO	741
385	10.117	-64.683	5.0	BARCELONA	1459
386	10.25	-67.65	5.0	MARACAY - B.A. SUCRE	5220
387	10.333	123.9	5.0	LAHUG	2175
388	10.3667	-12.0833	5.0	MAMOU	2746
389	10.3833	-9.3	5.0	KANKAN	11475
390	10.5	107.1667	5.0	BARIA (PHUOC LE)	747
391	10.6	-66.983	5.0	CARACAS/MAIQUETIA A	912
392	10.6667	-63.25	5.0	CARUPANO	159
393	10.6833	-61.6167	5.0	TRINIDAD BWI	10395
394	10.717	115.833	5.0	NENSHA ISL	436
395	10.85	121.033	5.0	CUYO	270
396	10.917	-63.967	5.0	PORLAMAR	739
397	11.1167	72.7333	5.0	AMINIDIVI	26613
398	11.1333	2.9333	5.0	KANDI	24677
399	11.1667	-4.3	5.0	BOBO-DIOULASSO	51478
400	11.233	169.85	5.0	UTIRIK ATOLL M.ISL	577
401	11.3	167.48	5.0	RONGERIK	145
402	11.3167	-12.3	5.0	LABE	3485
403	11.35	162.35	5.0	ENEWETAK	16361
404	11.52	165.55	5.0	BIKINI	294
405	11.5333	-72.9333	5.0	RIOHACHA/ALMIRANTE PADILLA	2967
406	11.55	43.15	5.0	DJIBOUTI	2487
407	11.783	34.383	5.0	DAMAZINE	1808
408	11.85	13.083	5.0	MAIDUGURI	593
409	11.87	-15.5	5.0	BISSAU	2569
410	12.15	-86.167	5.0	MANAGUA A.C.SANDINO	2831
411	12.35	-1.5167	5.0	OUAGADOUGOU	60904
412	12.433	98.6	5.0	MERGUI	3067
413	12.55	-16.267	5.0	ZIGUINCHOR	40419
414	12.633	-8.033	5.0	BAMAKO	18540
415	12.7	28.433	5.0	EN NAHUD	198
416	12.917	74.883	5.0	MANGALORE/BAJPE	2209
417	13.0667	-9.4833	5.0	KITA	4283
418	13.167	32.667	5.0	AROMA	298
419	13.3	-87.1833	5.0	CHOLUTECA	767
420	13.433	-6.283	5.0	SEGOU	22146
421	13.467	7.083	5.0	MARADI	18936
422	13.567	-89.833	5.0	ACAJUTLA	185
423	13.683	44.15	5.0	TAIZ (CIV/MIL)	449
424	13.7	-89.117	5.0	SAN SALVADOR/ILOPAN	689
425	13.75	-60.98	5.0	VIEUX FORT	815
426	13.7833	8.9833	5.0	ZINDER	42219
427	13.8	5.25	5.0	BIRNI-N'KONNI	30210
428	13.85	20.85	5.0	ABECHE	4728
429	13.917	-90.817	5.0	SAN JOSE	1220
430	13.9667	108.65	5.0	AN KHE (VVAK)	224
431	14.0	108.0167	5.0	PLEIKU AB	698
432	14.033	35.4	5.0	GEDAREF	238
433	14.05	-87.25	5.0	TEGUCIGALPA	5493
434	14.067	-83.367	5.0	PUERTO CABEZAS	4028
435	14.117	93.367	5.0	COCO ISLAND	985
436	14.3667	-87.6167	5.0	SOTO CANO AB	298
437	14.4	33.483	5.0	WAD MEDANI	269
438	14.5	-4.2	5.0	MOPTI-SEVARE	11065
439	14.5333	-90.5667	5.0	GUATEMALA CITY	5620
440	14.6	-61.0	5.0	LAMENTIN AERO	9234
441	14.6833	77.6167	5.0	ANANTAPUR	10993
442	14.73	-17.5	5.0	DAKAR/YOFF	72333
443	14.75	42.967	5.0	HODEIDAH (CIV/MIL)	542
444	14.8	-17.0667	5.0	THIES	3844
445	14.8	100.617	5.0	LOP BURI	837
446	14.8	120.267	5.0	SUBIC BAY WEATHER	1333
447	14.9	-23.517	5.0	PRAIA	123
448	15.117	105.783	5.0	PAKSE	590
449	15.117	145.733	5.0	SAIPAN/ISLEY (CGS)	7992
450	15.167	-7.283	5.0	NARA	9645
451	15.283	38.917	5.0	ASMARA	2299
452	15.383	73.817	5.0	GOA/DABOLIM AIRPORT	1902
453	15.4167	75.6333	5.0	GADAG	12739
454	15.4167	108.7	5.0	CHU LAI	822
455	15.6	32.55	5.0	KHARTOUM	10644
456	15.717	-88.6	5.0	PUERTO BARRIOS	639
457	15.85	73.63	5.0	VENGURLA	121
458	16.05	-16.483	5.0	SAINT-LOUIS	40078
459	16.1667	-95.1667	5.0	SALINA CRUZ	556
460	16.2639	-61.5164	5.0	LE RAIZET AERO	40752
461	16.267	-0.05	5.0	GAO	33723
462	16.4	107.6833	5.0	HUE/PHU BAI	508
463	16.433	101.15	5.0	PHETCHABUN	401
464	16.533	80.8	5.0	VIJAYAWADA/GANNAVA	8012
465	16.55	104.65	5.0	SAVANNAKHET	508
466	16.55	111.617	5.0	HOANG SA (PATTLE)	417
467	16.6	-7.267	5.0	NEMA	14295
468	16.633	-11.4	5.0	KIFFA	4608
469	16.7167	-3.0	5.0	TOMBOUCTOU	28543
470	16.7333	-169.5167	5.0	JOHNSTON IS WSO AP	27741
471	16.7333	-9.6333	5.0	AIOUN ELATROUSS	4231
472	16.7419	-22.9489	5.0	SAL	17887
473	16.767	94.767	5.0	PATHEIN	2065
474	16.883	42.583	5.0	GIZAN	1629
475	16.9	96.183	5.0	MINGALADON	945
476	17.117	-61.783	5.0	COOLIDGE FIELD (UA)	13896
477	17.3769	102.8094	5.0	UDON THANI	48194
478	17.4	-83.9333	5.0	SWAN ISLAND	22712
479	17.417	104.783	5.0	NAKHON PHANOM	2528
480	17.7	-64.8	5.0	ST CROIX (BENEDICT FIELD)	346
481	17.7	33.967	5.0	ATBARA	361
482	17.9	-62.85	5.0	ST. BARTHELEMY	4048
483	17.95	102.567	5.0	VIENTIANE	2162
484	18.0	19.167	5.0	FAYA	2999
485	18.0167	-66.5	5.0	PONCE LOSEY FIELD	4773
486	18.2167	109.5833	5.0	SANYA	23144
487	18.3	42.8	5.0	KHAMIS MUSHAIT	11138
488	18.433	1.35	5.0	KIDAL	5839
489	18.633	-91.833	5.0	CUIDAD DEL CARMEN	185
490	18.683	12.917	5.0	BILMA	21154
491	18.717	-110.95	5.0	ISLA SOCORRO	9477
492	18.9167	-155.6833	5.0	MORSE FIELD	492
493	19.05	-69.3833	5.0	SABANA DE LA MAR	4059
494	19.0833	82.0333	5.0	JAGDALPUR	26956
495	19.1	108.617	5.0	DONGFANG	6890
496	19.167	30.483	5.0	DONGOLA	1444
497	19.2667	84.8833	5.0	GOPALPUR	9005
498	19.2833	166.65	5.0	WAKE IS	38611
499	19.533	33.317	5.0	ABU HAMED	1995
500	19.583	37.217	5.0	PORT SUDAN	2214
501	19.883	102.133	5.0	LUANG-PRABANG	472
502	19.9	-75.217	5.0	GUANTANAMO BAY NAS	23093
503	20.2	0.9833	5.0	TESSALIT	13490
504	20.45	121.967	5.0	BASCO	867
505	20.48	85.87	5.0	CUTTACK	318
506	20.517	-13.067	5.0	ATAR	22233
507	20.667	58.9	5.0	MASIRAH	514
508	20.7167	116.7167	5.0	DONGSHA (=597920)	9110
509	20.883	95.9	5.0	MEIKTILA	5141
510	20.899	-156.43	5.0	KAHULUI ARPT/MAUI	19540
511	20.9	70.367	5.0	VERAVAL	17106
512	20.9333	-17.0333	5.0	NOUADHIBOU	33748
513	21.15	-157.1	5.0	MOLOKAI HOMESTEAD FIELD	1921
514	21.2	72.8333	5.0	SURAT	2307
515	21.217	110.4	5.0	ZHANJIANG	5208
516	21.3	99.617	5.0	KENGTUNG	231
517	21.3333	0.95	5.0	BORDJ-BADJ-MOKHTAR	231
518	21.4	-77.85	5.0	CAMAGUEY	5786
519	21.45	-71.15	5.0	TURKS ISLAND	10548
520	21.4833	109.1	5.0	BEIHAI	9881
521	21.5167	86.9333	5.0	BALASORE	1408
522	21.7	-157.9667	5.0	KAHUKU AAB	373
523	21.8333	111.9667	5.0	YANGJIANG	25007
524	21.9167	84.0833	5.0	JHARSIGUDA	8456
525	22.0	120.75	5.0	467590	4646
526	22.0333	-159.7833	5.0	BARKING SANDS	5267
527	22.283	-97.85	5.0	TAMPICO	165
528	22.367	106.75	5.0	LONGZHOU	4011
529	22.37	-73.03	5.0	MAYAGUAN	1160
530	22.45	70.083	5.0	JAMNAGAR	895
531	22.5	103.95	5.0	HEKOU	13535
532	22.6833	121.5	5.0	LU-TAO	3323
533	22.767	81.9	5.0	PENDRA ROAD	5308
534	22.77	88.37	5.0	BARAKPUR	388
535	22.783	115.367	5.0	SHANWEI	2322
536	22.8167	86.1833	5.0	JAMSHEDPUR	7560
537	22.95	120.217	5.0	TAINAN (TW-AFB)	6094
538	23.167	-82.35	5.0	CASA BLANCA	8864
539	23.217	113.483	5.0	GUANGZHOU	28004
540	23.25	69.8	5.0	BHUJ-RUDRAMATA	12439
541	23.2833	77.35	5.0	BHOPAL/BAIRAGHAR	35992
542	23.3833	87.0833	5.0	BANKURA	1420
543	23.467	120.383	5.0	CHIAYI (TW-AFB)	6409
544	23.5833	119.6167	5.0	MAKUNG AB (=593450)	22564
545	23.73	-99.11	5.0	CIUDAD VICTORIA	1366
546	23.8	114.7333	5.0	HEYUAN	2983
547	23.8167	5.15	5.0	IN AMGUEL	144
548	23.8833	91.25	5.0	AGARTALA	37876
549	23.8833	100.0833	5.0	LINCANG	2076
550	23.9833	121.6	5.0	HUA-LIEN CITY	17027
551	24.067	105.067	5.0	GUANGNAN	5390
552	24.183	120.65	5.0	TAICHUNG (TW-AFB)	4776
553	24.217	23.3	5.0	KUFRA	6321
554	24.267	9.467	5.0	DJANET	6261
555	24.3	118.083	5.0	CHIANGYANG	188
556	24.35	109.4	5.0	LIUZHOU	4445
557	24.367	114.483	5.0	LIANPING	20784
558	24.433	118.433	5.0	CHINMEM/SHATOU(AFB)	10320
559	24.583	73.7	5.0	UDAIPUR	1174
560	24.7	46.733	5.0	RIYADH OBS.	11578
561	24.7	108.0333	5.0	HECHI	22855
562	24.7667	93.9	5.0	IMPHAL/TULIHAL	19897
563	24.783	141.333	5.0	IWOTO	16295
564	24.8333	113.5	5.0	CHU CHIANG	1393
565	25.0167	102.8333	5.0	KAN-HAI-TZU	598
566	25.05	-77.4667	5.0	NASSAU AIRPORT NEW PROVIDENCE	14365
567	25.15	75.85	5.0	KOTA AERODROME	1768
568	25.233	-11.617	5.0	BIR MOGHREIN	5175
569	25.2667	-76.3	5.0	ELEUTHERA ISLAND	6389
570	25.2667	63.4833	5.0	PASNI	119
571	25.3667	97.4	5.0	MYITKYINA	3942
572	25.3833	68.4167	5.0	HYDERABAD	934
573	25.433	105.183	5.0	XINGREN	4750
574	25.433	106.767	5.0	LUODIAN	3236
575	25.45	30.533	5.0	KHARGA	5223
576	25.517	119.783	5.0	PINGTAN	3181
577	25.533	-103.45	5.0	TORREON AIRPORT	1530
578	25.5667	91.8833	5.0	SHILLONG S06 03Z	280
579	25.617	-109.05	5.0	TOPOLOBAMPO	251
580	25.667	32.7	5.0	LUXOR	7013
581	25.75	71.3833	5.0	BARMER	2587
582	25.8	21.133	5.0	TAZERBO	3989
583	25.85	116.367	5.0	CHANGTING	5057
584	25.88	89.43	5.0	LALMANIR HAT	407
585	25.9	-81.7167	5.0	DELTA SEVEN	436
586	25.967	108.533	5.0	RONGJIANG	2499
587	26.15	119.95	5.0	MAZU (=588490)	4062
588	26.2	36.483	5.0	AL-WEJH	5395
589	26.2003	32.7467	5.0	SOUTH OF VALLEY UNIVERSITY	4197
590	26.2333	-97.6667	5.0	HARLINGEN AAF	2317
591	26.267	50.167	5.0	DHAHRAN	17304
592	26.3667	-80.1	5.0	BOCA RATON (AAF)	1394
593	26.4	-98.35	5.0	MISSION (MOORE FIELD)	2133
594	26.5	8.417	5.0	ILLIZI	502
595	26.5333	88.7167	5.0	JALPAIGURI	1807
596	26.6167	-78.3667	5.0	GOLD ROCK CREEK	13583
597	26.6667	88.3667	5.0	SILIGURI	19334
598	26.6847	-80.0994	5.0	WEST PALM BEACH INTL AP	14002
599	26.717	92.8	5.0	TEZPUR/BINDUKURI	424
600	26.717	127.783	5.0	IEJIMA AUXILIARY AB	1571
601	26.867	100.233	5.0	LIJING	20204
602	26.9667	1.0833	5.0	AOULEF	3606
603	26.9667	64.1	5.0	PANJGUR	8843
604	26.983	84.85	5.0	RAXAUL	1140
605	27.0167	14.45	5.0	SEBHA	3998
606	27.0833	-82.4333	5.0	VENICE (AAF)	496
607	27.117	114.967	5.0	JIAN	4747
608	27.15	33.717	5.0	HURGUADA	2188
609	27.3	105.233	5.0	BIJIE	1335
610	27.333	120.2	5.0	FUDING	4348
611	27.3833	-82.55	5.0	SARASOTA AAF	1808
612	27.5333	-99.4833	5.0	LAREDO	5690
613	27.5667	81.6	5.0	BAHRAICH	9170
614	27.6667	98.3833	5.0	LA WANG/TZUKEI	857
615	27.7	85.367	5.0	KATHMANDU AIRPORT	651
616	27.75	89.167	5.0	PAGRI	5820
617	27.8333	66.6333	5.0	KHUZDAR	1098
618	27.85	-82.5	5.0	TAMPA MACDILL FIELD	206
619	27.883	-0.283	5.0	ADRAR	22304
620	27.95	-80.5667	5.0	VALKARIA	798
621	27.95	108.25	5.0	SINAN	3144
622	28.05	9.633	5.0	IN-AMENAS	12360
623	28.083	30.733	5.0	MINYA	2596
624	28.2	-177.3833	5.0	MIDWAY IS NAS	33263
625	28.2	113.0833	5.0	CHANGSHA	43728
626	28.417	92.467	5.0	LHUNZE	9321
627	28.45	98.883	5.0	DEQEN	6169
628	28.45	121.883	5.0	DACHEN DAO	18781
629	28.467	-16.25	5.0	STA. CRUZ DE TENERI	22725
630	28.633	87.083	5.0	TINGRI	4882
631	28.8	-81.8	5.0	LEESBURG (AAF)	133
632	28.8167	62.75	5.0	NOKKUNDI	1323
633	28.817	104.533	5.0	YIBIN	27926
634	28.833	108.767	5.0	YOUYANG	169
635	28.8667	-100.5167	5.0	EAGLE PASS (AAF)	311
636	28.883	-118.3	5.0	ISLA GUADALUPE	13025
637	28.8833	64.4	5.0	DAL BANDIN	8890
638	28.9833	-89.3667	5.0	BURRWOOD	1458
639	29.0	135.0	5.0	OCEAN WEATHER SHIP T	5347
640	29.033	21.567	5.0	JALO	3469
641	29.033	101.5	5.0	JIULONG	1437
642	29.0333	66.5833	5.0	KALAT	172
643	29.05	111.683	5.0	CHANGDE	4719
644	29.117	15.933	5.0	HON	3794
645	29.183	25.517	5.0	SIWA	7069
646	29.217	88.917	5.0	XIGAZE	11663
647	29.2425	47.9714	5.0	KUWAIT INTERNATIONAL AIRPORT	36208
648	29.25	0.283	5.0	TIMIMOUN	9666
649	29.3	117.2	5.0	JINGDEZHEN	5385
650	29.3333	-89.4	5.0	BOOTHVILLE WSCMO CIT	25889
651	29.383	113.083	5.0	YUEYANG	4823
652	29.5333	-98.2833	5.0	SAN ANTONIO RANDOLPH AFB	861
653	29.55	34.95	5.0	EILAT	6192
654	29.5667	94.4667	5.0	NYINGCHI	6509
655	29.6833	-85.35	5.0	CAPE SAN BLAS SITE D 3	2507
656	29.733	-85.033	5.0	APALACHICOLA MUNI	12530
657	29.75	24.533	5.0	GIARABUB	2551
658	29.8833	69.7167	5.0	BARKHAN	1029
659	29.95	73.25	5.0	BAHAWALNAGAR	1115
660	29.967	-95.35	5.0	HOUSTON/INTERCONTIN	1796
661	29.967	99.067	5.0	BATANG	19656
662	30.0	-140.0	5.0	OCEAN WEATHER SHIP N	19180
663	30.033	122.117	5.0	DINGHAI	3697
664	30.0333	-90.0333	5.0	NEW ORLEANS (AAB)	436
665	30.05	101.967	5.0	KANGDING	3716
666	30.0667	-85.5833	5.0	PANAMA CITY (TYNDALL FIELD)	1074
667	30.133	-2.167	5.0	BENI-ABBES	7838
668	30.133	9.5	5.0	GHADAMES	5808
669	30.167	35.783	5.0	MAAN	595
670	30.2	-97.6667	5.0	AUSTIN (BERGSTROM FIELD)	1076
671	30.3333	76.4667	5.0	PATIALA	23763
672	30.35	-87.3167	5.0	PENSACOLA FOREST SHERMAN NAS	3463
673	30.3667	-89.5833	5.0	NASA MISS. TEST	1068
674	30.383	13.583	5.0	GARIAT EL-SHARGHIA	688
675	30.4	-88.9167	5.0	BILOXI (KEESLER AFB)	2014
676	30.433	-86.683	5.0	HURLBURT FIELD (AF)	375
677	30.483	140.3	5.0	TORISHIMA	6556
678	30.517	47.783	5.0	BASRAH-HUSSEN	2290
679	30.5333	-91.15	5.0	BATON ROUGE (HARDING FIELD)	1485
680	30.567	-86.317	5.0	EGLIN AFB RANGE NO.	402
681	30.567	2.867	5.0	EL-GOLEA	31528
682	30.6333	-88.0667	5.0	MOBILE (BROOKLEY AFB)	661
683	30.667	104.017	5.0	CHENGDU	34761
684	30.717	20.167	5.0	AGEDABIA	3757
685	30.8	106.083	5.0	NANCHONG	8082
686	30.8333	-93.3667	5.0	DE RIDDER (AFB)	1154
687	30.8333	-85.2	5.0	MARIANNA (AAF)	1082
688	30.933	-6.9	5.0	OUARZAZATE	8186
689	30.95	88.633	5.0	XAINZA	12076
690	30.9667	-83.2	5.0	VALDOSTA MOODY AFB	1437
691	30.9833	-84.6333	5.0	BAINBRIDGE AAF	1172
692	31.017	46.233	5.0	NASIRIYA	750
693	31.033	-93.033	5.0	FORT POLK (ARMY)	1222
694	31.0733	33.8358	5.0	EL ARISH	13389
695	31.1	-97.717	5.0	FT HOOD AAF/KILLEEN	2923
696	31.1333	-83.7	5.0	MOULTRIE SPENCE FIELD	2269
697	31.167	29.933	5.0	ALEXANDRIA/NOUZHA	2335
698	31.2	16.583	5.0	SIRTE	2738
699	31.217	107.5	5.0	DA XIAN	23565
700	31.233	34.783	5.0	BEER-SHEVA	2318
701	31.25	-82.4	5.0	WAYCROSS WARE CO AP	20191
702	31.2667	-89.25	5.0	HATTIESBURG	1210
703	31.283	32.233	5.0	PORT SAID/EL GAMIL	1814
704	31.3167	-85.45	5.0	DOTHAN (NAPIER FIELD)	1663
705	31.367	90.017	5.0	BAINGOIN	11427
706	31.367	130.833	5.0	KANOYA AB	464
707	31.4	-92.3	5.0	ALEXANDRIA (ESLER FIELD)	1127
708	31.4167	-100.4	5.0	MATHIS FLD/S.ANGELO	2501
709	31.417	95.6	5.0	DENGQEN	6863
710	31.4667	-109.6167	5.0	DOUGLAS (AAF)	1752
711	31.5	65.85	5.0	KANDAHAR AIRPORT	5934
712	31.5167	-103.1333	5.0	PYOTE (AFB)	1395
713	31.583	-110.333	5.0	FORT HUACHUCA	9251
714	31.617	-8.033	5.0	MARRAKECH	9944
715	31.62	25.93	5.0	SIDI BARRANI	1563
716	31.683	9.3	5.0	EL BORMA	1728
717	31.867	-81.633	5.0	FORT STEWART RESERV	3618
718	31.867	10.983	5.0	NALUT	2037
719	31.867	93.767	5.0	SOG XIAN	7101
720	31.867	117.233	5.0	HEFEI	9149
721	31.9	54.2833	5.0	YAZD	1516
722	31.9	102.233	5.0	BARKAM	6148
723	31.933	-4.4	5.0	ERRACHIDIA	6598
724	31.9333	5.4	5.0	OUARGLA	2887
725	31.983	35.983	5.0	AMMAN AIRPORT	1315
726	32.0167	-81.1333	5.0	SAVANNAH HUNTER AFB	1973
727	32.05	72.667	5.0	SARGODHA	19138
728	32.067	108.033	5.0	WANYUAN	3574
729	32.1	20.2667	5.0	BENINA	16181
730	32.1	23.933	5.0	TOBRUK	7553
731	32.133	114.05	5.0	XINYANG	7884
732	32.1667	-110.8833	5.0	TUCSON (DAVIS-MONTHAN AFB)	236
733	32.2167	-98.1833	5.0	STEPHENVILLE	15234
734	32.25	-107.7167	5.0	DEMING AAF	518
735	32.283	-9.233	5.0	SAFI	1179
736	32.317	10.4	5.0	REMADA	9738
737	32.333	-84.833	5.0	FORT BENNING	3790
738	32.3333	-90.2333	5.0	JACKSON (AAB)	400
739	32.35	-104.25	5.0	CARLSBAD AAF	2356
740	32.35	-94.65	5.0	LONGVIEW WSMO	14445
741	32.35	-88.65	5.0	MERIDIAN (KEY FIELD)	2282
742	32.35	-86.9833	5.0	SELMA CRAIG AFB	1440
743	32.367	-6.4	5.0	BENI-MELLAL	2448
744	32.383	3.817	5.0	GHARDAIA	31999
745	32.383	111.667	5.0	GUANGHUA	3239
746	32.4	-86.25	5.0	MONTGOMERY (GUNTER FIELD)	1317
747	32.417	15.05	5.0	MISURATA	1073
748	32.43	109.02	5.0	ANKANG	23991
749	32.5	-85.7667	5.0	TUSKEGEE (AAF)	1157
750	32.5	74.5333	5.0	SIALKOT	942
751	32.5	80.067	5.0	SHIQUANHE	10631
752	32.5167	-92.05	5.0	MONROE (SELMAN FIELD)	2178
753	32.55	35.85	5.0	IRBED	691
754	32.683	-4.733	5.0	MIDELT	2966
755	32.717	133.017	5.0	SHIMIZU	5015
756	32.7333	-117.1667	5.0	SAN DIEGO (LINDBERGH FIELD)	248
757	32.783	22.583	5.0	DERNA	4590
758	32.8	21.883	5.0	SHAHAT	1530
759	32.817	-115.683	5.0	EL CENTRO NAF	1361
760	32.8667	-116.4167	5.0	MOUNT LAGUNA	605
761	32.883	12.083	5.0	ZUARA	2793
762	32.9	-106.1	5.0	HOLLOMAN AFB	10948
763	32.9	-87.25	5.0	CENTREVILLE WSMO	14447
764	32.9167	-80.6333	5.0	WALTERBORO AAF	499
765	32.917	129.917	5.0	NAGASAKI AIRPORT	506
766	32.933	-112.7	5.0	GILA BEND (AAF)	19204
767	32.9333	-111.4333	5.0	COOLIDGE (AAF)	100
768	32.967	114.05	5.0	ZHUMADIAN	6626
769	33.033	40.283	5.0	RUTBAH	2392
770	33.15	130.3	5.0	SAGA AIRPORT	499
771	33.167	-106.5	5.0	WHITE SANDS MISSILE	1539
772	33.3	-111.6667	5.0	CHANDLER (WILLIAMS FIELD)	1909
773	33.3	44.4	5.0	BAGHDAD INT. AIRPORT	14024
774	33.37	43.57	5.0	AL HABBANIYAH	5634
775	33.383	104.917	5.0	WUDU	27511
776	33.4	-117.5	5.0	CAMP PENDLETON	207
777	33.417	36.517	5.0	DAMASCUS INT. AIRPO	10082
778	33.45	-94.0	5.0	TEXARKANA	6925
779	33.4667	-82.0333	5.0	AUGUSTA DANIEL FIELD	2266
780	33.48	-90.98	5.0	GREENVILLE	2188
781	33.5	-90.0833	5.0	GREENWOOD AAF	1164
782	33.5	6.783	5.0	EL-OUED	28456
783	33.5333	-0.2833	5.0	MECHERIA	6933
784	33.583	102.967	5.0	RUOERGAI	2991
785	33.5833	-102.2333	5.0	REESE AFB	2957
786	33.6	-114.75	5.0	BLYTHE	2084
787	33.6167	73.1	5.0	ISLAMABAD AIRPORT	7050
788	33.6333	-116.1667	5.0	THERMAL (AAF)	348
789	33.6333	-88.45	5.0	COLUMBUS AAF	401
790	33.65	-101.8167	5.0	LUBBOCK/MUNI (TEX)	693
791	33.683	1.0	5.0	EL-BAYADH	10962
792	33.6833	-78.9333	5.0	MYRTLE BEACH AAF	2003
793	33.7	-117.833	5.0	CA SANTA ANA/ORANGE COUNTY AAF	1551
794	33.7167	-96.6667	5.0	SHERMAN PERRIN FIELD	1179
795	33.783	114.517	5.0	XIHUA	6675
796	33.8	-106.6667	5.0	STALLION SITE	610
797	33.8	99.8	5.0	DARLAG	12064
798	33.817	35.483	5.0	RAFIC HARIRI INTL	12102
799	33.8333	-116.55	5.0	PALM SPRINGS (AAF)	1411
800	33.8667	70.0833	5.0	PARACHINAR	2376
801	33.867	10.767	5.0	DJERBA MELLITA	27692
802	33.883	-5.533	5.0	MEKNES	2167
803	33.8833	-78.0167	5.0	OAK ISLAND	1470
804	33.95	-83.3167	5.0	ATHENS BEN EPPS AP	28581
805	33.95	-81.1167	5.0	COLUMBIA AAB	2011
806	33.95	92.617	5.0	TUOTUOHE	11291
807	33.98	-98.5	5.0	WICHITA FALLS	113
808	34.0	164.0	5.0	OCEAN WEATHER SHIP V	12375
809	34.05	-6.7667	5.0	RABAT	612
810	34.05	131.05	5.0	OZUKI AB	303
811	34.0803	111.0728	5.0	LUSHI	26483
812	34.1	-117.2333	5.0	SAN BERNARDINO (NORTON AFB)	855
813	34.15	132.22	5.0	IWAKUNI	2734
814	34.217	-4.0	5.0	TAZA	2441
815	34.217	62.217	5.0	HERAT	1107
816	34.2667	-77.9	5.0	WILMINGTON (NEW HANOVER AP)	1212
817	34.3	-103.8	5.0	MELROSE GUNNERY RAN	151
818	34.3	-97.0167	5.0	ARDMORE AFB	1195
819	34.3	-6.6	5.0	KENITRA PORT LYAUTEY	12066
820	34.3	108.933	5.0	XIAN	36675
821	34.3833	-103.3167	5.0	CLOVIS AAF	2127
822	34.417	8.817	5.0	GAFSA	20537
823	34.583	105.75	5.0	TIANSHUI	6899
824	34.5833	-117.3833	5.0	VICTORVILLE (GEORGE AFB)	3313
825	34.6	-86.6333	5.0	REDSTONE ARSENAL	2583
826	34.6	138.217	5.0	OMAEZAKI	4148
827	34.65	-99.2667	5.0	ALTUS AFB (OKLA)	2675
828	34.6667	-87.3333	5.0	COURTLAND (AAF)	1491
829	34.683	135.517	5.0	OSAKA	7833
830	34.6833	3.25	5.0	DJELFA	9814
831	34.717	10.683	5.0	SFAX EL-MAOU	30654
832	34.7503	137.703	5.0	HAMAMATSU AB	37467
833	34.7667	-82.3833	5.0	GREENVILLE DONALDSON AFB	1649
834	34.783	-1.95	5.0	OUJDA	7639
835	34.8	-79.3667	5.0	LAURINBURG (MAXTON AAB)	2054
836	34.8	5.733	5.0	BISKRA	19871
837	34.85	119.133	5.0	GANYU	7452
838	34.917	98.217	5.0	MADOI	6085
839	34.933	136.583	5.0	YOKKAICHI	4758
840	34.983	139.833	5.0	TATEYAMA AB	533
841	35.0	-48.0	5.0	OCEAN WEATHER SHIP E	8767
842	35.0333	-85.2	5.0	CHATTANOOGA	8998
843	35.083	128.083	5.0	SACHEON AB	8441
844	35.1167	-119.3	5.0	TAFT (GARDNER FIELD)	436
845	35.117	36.75	5.0	HAMA	741
846	35.133	-78.933	5.0	FORT BRAGG/SIMMONS	159
847	35.1408	33.3964	5.0	ATHALASSA	35235
848	35.169	128.934	5.0	GIMHAE INTL AIRPORT	5577
849	35.183	-3.85	5.0	AL HOCEIMA	4040
850	35.2	-80.95	5.0	CHARLOTTE MORRIS FIELD	602
851	35.217	93.083	5.0	WUDAOLIANG	5083
852	35.2667	-116.0833	5.0	BAKER	592
853	35.2667	-113.95	5.0	KINGMAN (AAF)	1831
854	35.2667	-75.55	5.0	CAPE HATTERAS WB BLDG	42554
855	35.267	-117.433	5.0	CUDDLEBACK GUNNERY	2651
856	35.28	139.67	5.0	YOKOSUKA	1414
857	35.281	-116.63	5.0	BICYCLE LAKE (AAF)	1660
858	35.333	-117.1	5.0	SUPERIOR VALLEY GUN	4139
859	35.3333	-94.3667	5.0	FT SMITH CAMP CHAFFEE	5244
860	35.35	1.467	5.0	TIARET	280
861	35.3833	-86.2333	5.0	TULLAHOMA WILLIAM NORTHERN AAF	537
862	35.417	8.117	5.0	TEBESSA	6009
863	35.4333	133.35	5.0	YONAGO	60127
864	35.533	35.767	5.0	LATTAKIA	458
865	35.55	8.683	5.0	THALA	10938
866	35.633	-0.6	5.0	ORAN-SENIA	38241
867	35.667	-75.9	5.0	DARE COUNTY GUNNERY	5845
868	35.667	10.1	5.0	KAIROUAN	22918
869	35.733	-5.9	5.0	TANGER (AERODROME)	389
870	35.75	10.75	5.0	MONASTIR-SKANES	22479
871	35.8	140.017	5.0	SHIMOFUSA AB	467
872	35.85	14.483	5.0	LUQA	21963
873	35.867	-78.783	5.0	RALEIGH/RALEIGH-DUR	9591
874	35.9	-89.4	5.0	DYERSBURG AAF	821
875	35.9	62.9667	5.0	TAGTABAZAR	13721
876	35.9	128.65	5.0	DAEGU AB	5685
877	35.9167	74.3333	5.0	GILGIT	521
878	35.933	39.017	5.0	RAQQA	252
879	35.9667	-116.2667	5.0	SHOSHONE	313
880	35.967	-89.95	5.0	BLYTHEVILLE AFB	1375
881	35.983	129.417	5.0	POHANG AB	862
882	36.0	-86.5333	5.0	SMYRNA SEWART AFB	1139
883	36.0333	-102.5333	5.0	DALHART	2180
884	36.05	103.883	5.0	LANZHOU	30960
885	36.05	114.4	5.0	ANYANG	7228
886	36.15	-5.35	5.0	GIBRALTAR	52600
887	36.183	5.25	5.0	SETIF	5598
888	36.183	118.15	5.0	YIYUAN	6101
889	36.217	1.333	5.0	CHLEF	3213
890	36.25	-119.95	5.0	LEMOORE	1341
891	36.283	6.617	5.0	CONSTANTINE	21262
892	36.2969	-99.775	5.0	GAGE	586
893	36.3	2.233	5.0	MILIANA	14988
894	36.317	43.15	5.0	MOSUL	884
895	36.333	-97.667	5.0	ENID/VANCE AFB	1147
896	36.333	37.217	5.0	ALEPPO INT. AEROPOR	18332
897	36.4	139.067	5.0	MAEBASHI	5175
898	36.483	8.8	5.0	JENDOUBA	19808
899	36.533	-115.667	5.0	INDIAN SPRINGS GUNN	335
900	36.617	128.35	5.0	YECHEON AB	5663
901	36.6667	-121.6167	5.0	SALINAS (AAB)	782
902	36.6667	68.9167	5.0	KUNDUZ	4540
903	36.667	-87.5	5.0	FORT CAMPBELL (AAF)	2026
904	36.683	116.983	5.0	JINAN	33391
905	36.7	67.2	5.0	MAZAR-I-SHARIF	2179
906	36.7	119.1167	5.0	WEI HSIEN	254
907	36.717	5.067	5.0	BEJAIA-AEROPORT	12372
908	36.75	-104.5	5.0	RATON	5905
909	36.767	126.467	5.0	SEOSAN	566
910	36.833	7.817	5.0	ANNABA	30088
911	36.85	11.083	5.0	KELIBIA	18563
912	36.867	30.733	5.0	ANTALYA	1476
913	36.883	6.9	5.0	SKIKDA	639
914	36.8833	-93.9	5.0	MONETT	18071
915	36.8833	-76.2	5.0	NORFOLK/MUNI (VA)	27148
916	36.95	8.75	5.0	TABARKA	4939
917	37.017	-7.967	5.0	FARO/AEROPORTO	1831
918	37.05	41.217	5.0	KAMISHLI	136
919	37.0667	-88.7667	5.0	PADUCAH BARKLEY FLD	4390
920	37.1	-113.6	5.0	ST. GEORGE	591
921	37.1	128.8667	5.0	SANGDONG	294
922	37.1808	114.3589	5.0	XINGTAI	26266
923	37.233	9.817	5.0	BIZERTE	7207
924	37.233	67.267	5.0	TERMEZ	20099
925	37.3167	-121.8667	5.0	SAN JOSE/EMSU	188
926	37.317	97.217	5.0	DELINGHA	10750
927	37.3333	-79.2	5.0	LYNCHBURG	4148
928	37.3667	-120.5667	5.0	CASTLE AFB	3294
929	37.367	-118.367	5.0	BISHOP AIRPORT	1144
930	37.4	122.683	5.0	CHENGSHANTOU	15581
931	37.433	-105.867	5.0	ALAMOSA MUNI(AWOS)	921
932	37.433	127.95	5.0	WONJU AB	6345
933	37.467	53.967	5.0	ESENGYLY	36098
934	37.47	15.07	5.0	CATANIA	912
935	37.4833	116.3667	5.0	TE HSIEN/TECHOW	498
936	37.5	-77.333	5.0	RICHMOND/BYRD FIELD	4674
937	37.5	71.5	5.0	KHOROG	28898
938	37.617	120.317	5.0	LONGKOU	8328
939	37.75	128.95	5.0	GANGNEUNG AB	6015
940	37.78	12.45	5.0	MARSALA	112
941	37.783	-81.117	5.0	BECKLEY	114
942	37.783	-0.8	5.0	MURCIA/SAN JAVIER	1000
943	37.85	91.65	5.0	MANGYA	1192
944	37.85	95.367	5.0	DA-QAIDAM	5439
945	37.9	-121.2333	5.0	STOCKTON (FIELD)	1204
946	37.9025	127.7358	5.0	CHUNCHEON	397
947	37.917	139.05	5.0	NIIGATA	2033
948	37.93	83.65	5.0	ANDIR	14362
949	37.966	124.63	5.0	BAENGNYEONGDO	8261
950	37.987	58.361	5.0	ASHGABAT KESHI	38470
951	38.0	-71.0	5.0	OCEAN WEATHER SHIP H	3274
952	38.05	-103.52	5.0	LA JUNTA	164
953	38.0667	-117.0833	5.0	TONAPAH APRT (NEV)	3624
954	38.2	15.55	5.0	MESSINA	5442
955	38.25	90.85	5.0	MANGNAI	15030
956	38.2508	128.5647	5.0	SOKCHO	10880
957	38.267	140.9	5.0	SENDAI	57672
958	38.283	-104.5	5.0	PUEBLO MEMORIAL(AW)	1430
959	38.33	-77.03	5.0	DAHLGREN	2797
960	38.3667	-82.55	5.0	HUNTINGTON TRI STATE AP	35391
961	38.373	-81.6	5.0	YEAGER	1619
962	38.417	-113.017	5.0	MILFORD MUNICIPAL	774
963	38.433	77.267	5.0	SHACHE	15714
964	38.5167	-122.8	5.0	SANTA ROSA (AAF)	213
965	38.55	68.783	5.0	DUSHANBE	35803
966	38.5667	-121.3	5.0	SACRAMENTO (MATHER AFB)	415
967	38.65	-88.9667	5.0	SALEM LECKRONE AP	15223
968	38.7	-104.767	5.0	FORT CARSON/BUTTS	5776
969	38.733	48.833	5.0	LANKARAN	33653
970	38.733	115.483	5.0	BAODING	9153
971	38.7333	-93.5667	5.0	KNOBNOSTER SEDALIA AFB	1436
972	38.7667	-87.6167	5.0	LAWRENCEVILLE GEORGE FIELD	1385
973	38.7667	-9.1333	5.0	LISBOA/GAGO COUTINHO	41533
974	38.8	-97.63	5.0	SALINA	3551
975	38.8167	-76.85	5.0	CAMP SPRINGS (ANDREWS AFB)	737
976	38.817	-92.217	5.0	COLUMBIA REGIONAL	19320
977	38.817	35.433	5.0	KAYSERI/ERKILET	1942
978	38.833	93.383	5.0	LENGHU	15645
979	38.8333	-85.4167	5.0	MADISON JEFFERSON PRVGR	842
980	38.9333	-85.9167	5.0	SEYMOUR FREEMAN FIELD	1697
981	38.95	-121.07	5.0	AUBURN	133
982	38.95	-95.6667	5.0	TOPEKA (FORBES AFB)	1930
983	38.967	-104.817	5.0	AIR FORCE ACADEMY	4234
984	39.0333	125.7833	5.0	PYONGYANG	29160
985	39.05	-84.667	5.0	CINCINNATI/GREATER	1311
986	39.083	63.6	5.0	CHARDZHEV	36014
987	39.0833	-28.0333	5.0	GRACIOSA/AERODROME	2173
988	39.1	-96.767	5.0	FT RILEY/MARSHALL A	1222
989	39.1	107.983	5.0	OTOG QI	9443
990	39.1333	-75.4667	5.0	DOVER (AAF)	888
991	39.2	45.417	5.0	NAXCIVAN	914
992	39.2436	9.06	5.0	CAGLIARI ELMAS	48789
993	39.27	-85.9	5.0	COLUMBUS	1153
994	39.283	109.75	5.0	CHASAKOCHI	3515
995	39.367	-101.7	5.0	GOODLAND/RENNER FIE	8448
996	39.383	111.15	5.0	HEQU	8713
997	39.4333	118.9	5.0	LETING	20578
998	39.45	-74.6667	5.0	ATLANTIC CITY U-A	10118
999	39.5	-76.1667	5.0	ABERDEEN PRVGR	5475
1000	39.55	2.617	5.0	PALMA DE MALLORCA	9948
1001	39.6667	118.1167	5.0	TANG SHAN	251
1002	39.6833	-75.6	5.0	WILMINGTON (NEW CASTLE AAB)	1021
1003	39.7167	-104.9	5.0	DENVER (LOWRY FIELD)	878
1004	39.75	-86.2333	5.0	INDIANAPOLIS STOUT FIELD	891
1005	39.783	105.75	5.0	JARTAI	9470
1006	39.7833	-121.85	5.0	CHICO MUNI	2664
1007	39.8	78.567	5.0	BACHU	9060
1008	39.8167	-82.9333	5.0	COLUMBUS LOCKBOURNE AFB	1438
1009	39.8333	109.9833	5.0	DONGSHENG	23570
1010	39.867	4.233	5.0	MENORCA/MAHON	165
1011	39.883	-75.25	5.0	PHILADELPHIA INTL	10695
1012	39.9333	127.55	5.0	HAMHEUNG	11836
1013	39.983	46.75	5.0	KHANKANDY	657
1014	40.0333	52.9833	5.0	TURKMENBASHI	35133
1015	40.083	124.333	5.0	DANDONG	24594
1016	40.1	113.333	5.0	DATONG	8658
1017	40.12	-103.17	5.0	AKRON	214
1018	40.15	-122.25	5.0	RED BLUFF MUNICIPAL	4637
1019	40.2	-8.417	5.0	COIMBRA	458
1020	40.217	69.733	5.0	KHUDJAND	382
1021	40.267	97.033	5.0	YUMENZHEN	2942
1022	40.3833	-75.9667	5.0	READING AAF	1035
1023	40.433	-80.0	5.0	PITTSBURGH/EMSU	544
1024	40.5167	-122.3	5.0	REDDING (AAF)	109
1025	40.5333	50.0	5.0	MASHTAGA	11887
1026	40.55	70.95	5.0	KOKAND	7416
1027	40.617	47.15	5.0	EVLAKH AIRPORT	164
1028	40.633	87.7	5.0	TIKANLIK	16175
1029	40.65	-73.7833	5.0	NEW YORK JFK AP	24923
1030	40.6667	-89.6833	5.0	PEORIA GTR PEORIA AP	29195
1031	40.7053	141.3719	5.0	MISAWA AB	46311
1032	40.717	46.417	5.0	GANDJA	818
1033	40.733	-114.033	5.0	WENDOVER/AF. AUX. F	1089
1034	40.75	104.5	5.0	BAYAN MOD	20474
1035	40.783	43.833	5.0	GUMRI	147
1036	40.7833	114.8833	5.0	ZHANGJIAKOU	23066
1037	40.85	-72.6333	5.0	WESTHAMPTON SUFFOLK COUNTY AAF	828
1038	40.85	35.583	5.0	MERZIFON	1796
1039	40.8833	-78.0833	5.0	PHILIPSBURG	5127
1040	40.917	72.95	5.0	DZHALAL-ABAD	30741
1041	40.933	78.45	5.0	AKQI	5651
1042	40.95	-5.5	5.0	SALAMANCA/MATACAN	173
1043	40.967	117.917	5.0	CHENGDE	6676
1044	40.97	107.17	5.0	XAMBA	1094
1045	41.0	-85.2	5.0	FORT WAYNE/BAER FLD	9534
1046	41.1167	122.95	5.0	AN SHAN	362
1047	41.117	121.067	5.0	JINZHOU	26088
1048	41.22	-103.1	5.0	SYDNEY	677
1049	41.233	-8.683	5.0	PORTO/PEDRAS RUBRAS	1615
1050	41.25	-76.917	5.0	WILLIAMSPORT/LYCOMI	463
1051	41.25	-70.0667	5.0	NANTUCKET MEM AP	22618
1052	41.26	80.3	5.0	WEN-SU	9162
1053	41.2667	-72.0167	5.0	FISHERS ISLAND FORT H G WRIGHT	165
1054	41.3667	-71.4833	5.0	POINT JUDITH	1724
1055	41.433	76.0	5.0	NARYN	13926
1056	41.45	31.8	5.0	ZONGULDAK	304
1057	41.45	106.383	5.0	HAILS	4738
1058	41.5	-88.1667	5.0	JOLIET	7402
1059	41.5	-74.1	5.0	NEWBURGH/STEWART AFB	3104
1060	41.55	46.667	5.0	ZAKATALA	424
1061	41.5667	108.5167	5.0	HALIUT	23054
1062	41.633	41.6	5.0	BATUMI	7554
1063	41.65	-70.5167	5.0	FALMOUTH OTIS AFB	383
1064	41.65	25.367	5.0	KURDJALI	9983
1065	41.6786	-1.0731	5.0	ZARAGOZA/BASE AEREA	19731
1066	41.6833	44.95	5.0	TBILISI/NOVOALEXEYE	30083
1067	41.7	-86.3167	5.0	SOUTH BEND ST JOSEPH	612
1068	41.717	-4.85	5.0	VALLADOLID/VILLANUB	206
1069	41.733	64.617	5.0	TAMDY	24209
1070	41.7333	123.5167	5.0	SHENYANG	45359
1071	41.75	86.133	5.0	KORLA	21640
1072	41.75	103.9667	5.0	PANG-TING-TO-TO-KAI	1057
1073	41.7833	95.1333	5.0	XING-XING-XIA	122
1074	41.8	12.233	5.0	ROMA FIUMICINO	25186
1075	41.833	59.983	5.0	DASHKHOVUZ	40766
1076	41.8667	-103.5833	5.0	SCOTTSBLUFF AAF	987
1077	41.9181	8.7928	5.0	AJACCIO	47208
1078	41.9333	-72.6833	5.0	WINDSOR LOCKS/BRADLEY FIELD	1786
1079	41.95	21.633	5.0	SKOPJE- AIRPORT	2454
1080	42.0333	-70.0333	5.0	NORTH TRURO	1581
1081	42.0833	-91.6167	5.0	CEDAR RAPIDS ECHO SI	1310
1082	42.1	-102.8333	5.0	ALLIANCE AAF	611
1083	42.133	43.033	5.0	SAKARA	126
1084	42.2	-72.5333	5.0	CHICOPEE FALLS (WESTOVER AFB)	2791
1085	42.2	-1.45	5.0	BARDENAS REALES	4866
1086	42.267	42.633	5.0	KUTAISI	445
1087	42.4	-96.383	5.0	SIOUX CITY MUNI	9727
1088	42.4	112.9	5.0	JURH	11935
1089	42.45	-2.333	5.0	LOGRONO/AGONCILLO	349
1090	42.583	-5.65	5.0	LEON/VIRGEN DEL CAM	200
1091	42.5833	-100.0	5.0	AINSWORTH AAF	1523
1092	42.7	-68.3	5.0	ENVIRONM BUOY 44005	574
1093	42.8167	-108.7333	5.0	LANDER HUNT FLD AP	34519
1094	42.833	74.583	5.0	BISHKEK	24813
1095	42.933	89.2	5.0	TURPAN	10824
1096	42.9333	-71.4333	5.0	MANCHESTER (GRENIER FIELD)	1073
1097	42.9667	-83.75	5.0	FLINT BISHOP AP	29048
1098	43.0	1.1	5.0	SAINT GIRONS	158
1099	43.017	41.033	5.0	SUKHUMI (AGMS)	37578
1100	43.167	-86.25	5.0	MUSKEGON	10171
1101	43.2	107.167	5.0	HANBOGD	2539
1102	43.23	-75.4	5.0	ROME	8975
1103	43.3333	145.5833	5.0	NEMURO	57934
1104	43.417	6.75	5.0	SAINT-RAPHAEL	230
1105	43.467	-1.533	5.0	BIARRITZ	1055
1106	43.483	91.633	5.0	SHISANJIANFANG	15467
1107	43.517	16.433	5.0	SPLIT/MARJAN	4568
1108	43.5833	39.7667	5.0	SOCHI	194
1109	43.6	118.067	5.0	LINXI	3300
1110	43.633	1.367	5.0	TOULOUSE BLAGNAC	1937
1111	43.65	7.2	5.0	NICE	437
1112	43.683	-1.067	5.0	DAX	328
1113	43.75	24.883	5.0	TR. MAGURELE	218
1114	43.88	-69.93	5.0	BRUNSWICK	965
1115	43.917	-0.5	5.0	MONT-DE-MARSAN	166
1116	43.9322	-60.0094	5.0	SABLE ISLAND	44361
1117	43.9333	-91.2833	5.0	LA CROSSE	9613
1118	43.983	119.4	5.0	LINDONG	4651
1119	44.0	-41.0	5.0	OCEAN WEATHER SHIP D	9766
1120	44.017	89.567	5.0	QITAI	9992
1121	44.017	145.867	5.0	JUZHNO-KURILSK	37102
1122	44.05	43.03	5.0	PJATIGORSK	230
1123	44.117	-123.217	5.0	EUGENE/MAHLON SWEET	5856
1124	44.117	-77.533	5.0	TRENTON ARPT	142
1125	44.167	80.067	5.0	ZHARKENT	23543
1126	44.217	28.633	5.0	CONSTANTA	27610
1127	44.2667	-71.3	5.0	MOUNT WASHINGTON	506
1128	44.317	23.867	5.0	CRAIOVA	548
1129	44.55	50.25	5.0	FORT SHEVCHENKO	1177
1130	44.567	129.6	5.0	MUDANJIANG	4789
1131	44.583	4.733	5.0	MONTELIMAR	189
1132	44.583	117.6	5.0	XI UJIMQIN QI	8443
1133	44.617	82.9	5.0	JINGHE	10505
1134	44.617	114.15	5.0	NARAN BULAG	14093
1135	44.633	22.633	5.0	DROBETA TURNU SEVER	953
1136	44.6833	34.1333	5.0	SIMFEROPOL	43580
1137	44.7833	20.5333	5.0	BEOGRAD/SELENO BRD	8769
1138	44.9	110.117	5.0	SAINSHAND	17817
1139	45.0	-16.0	5.0	OCEAN WEATHER SHIP K	2558
1140	45.0	136.6	5.0	TERNEJ	35417
1141	45.0464	34.5989	5.0	KRYMSKA	493
1142	45.15	26.817	5.0	BUZAU	652
1143	45.15	29.667	5.0	SULINA	178
1144	45.3	-82.8	5.0	ENVIRONM BUOY 45003	574
1145	45.367	90.533	5.0	BAYTIK SHAN	19772
1146	45.417	-91.767	5.0	RICE LAKE RGNL CARLS	581
1147	45.467	-73.733	5.0	MONTREAL/TRUDEAU INT	17827
1148	45.5	28.2	5.0	GALATI	7351
1149	45.55	-94.0667	5.0	ST CLOUD MUNI AP	35321
1150	45.6	84.85	5.0	KARAMAY	20097
1151	45.667	-0.317	5.0	COGNAC	356
1152	45.767	21.25	5.0	TIMISOARA	862
1153	45.767	106.283	5.0	MANDALGOBI	3030
1154	45.783	24.083	5.0	SIBIU	813
1155	45.817	-73.433	5.0	LASSOMPTION CDA	104
1156	45.833	24.933	5.0	FAGARAS	154
1157	45.867	1.183	5.0	LIMOGES	190
1158	45.867	22.9	5.0	DEVA	887
1159	45.95	-77.317	5.0	PETAWAWA	1273
1160	46.0	18.233	5.0	PECS/POGANY	127
1161	46.0303	12.5992	5.0	AVIANO	1508
1162	46.0333	13.1833	5.0	UDINE/CAMPOFORMIDO	58072
1163	46.167	21.317	5.0	ARAD	7175
1164	46.18	45.35	5.0	YASHKUL	3336
1165	46.2	150.5	5.0	URUP	29544
1166	46.22	122.05	5.0	ULANHOT	2278
1167	46.2667	102.7833	5.0	ARVAIHEER	13261
1168	46.374	-117.015	5.0	LEWISTON NEZ PERCE	432
1169	46.4	96.25	5.0	ALTAI	14794
1170	46.5	121.36	5.0	TE-PO-SU-K/-MIAO	11684
1171	46.533	24.533	5.0	TG. MURES	1169
1172	46.5667	-87.4	5.0	MARQUETTE	8748
1173	46.583	26.983	5.0	BACAU	1500
1174	46.733	83.0	5.0	TACHENG	22028
1175	46.767	-56.167	5.0	SAINT-PIERRE	690
1176	46.7778	23.5714	5.0	CLUJ-NAPOCA	38157
1177	46.783	61.65	5.0	ARALSKOE MORE	40172
1178	46.8	75.083	5.0	BALHASH	36009
1179	46.81	85.7489	5.0	HOBOKSAR	26741
1180	46.8117	6.9425	5.0	PAYERNE	73319
1181	46.817	130.333	5.0	CHIAMUSSU	2815
1182	46.833	-92.183	5.0	DULUTH INTL AIRPORT	8808
1183	46.85	1.7167	5.0	CHATEAUROUX	5082
1184	46.85	151.8667	5.0	SIMUSIR	4608
1185	46.9	-71.483	5.0	VALCARTIER AIRPORT	2371
1186	46.9667	-122.9	5.0	OLYMPIA MUN I AP	1217
1187	46.9931	15.4392	5.0	GRAZ-THALERHOF-FLUGHAFEN	10698
1188	47.0	-15.0	5.0	WEATHERSHIP K CIRRUS	477
1189	47.017	28.867	5.0	KISINEV	37217
1190	47.033	21.9	5.0	ORADEA	822
1191	47.0333	-120.5167	5.0	ELLENSBURG	10146
1192	47.067	2.367	5.0	BOURGES	3475
1193	47.15	-122.4833	5.0	TACOMA (MCCHORD AFB)	538
1194	47.15	-1.6	5.0	NANTES	256
1195	47.167	27.633	5.0	IASI	1100
1196	47.1833	-119.3167	5.0	MOSES LAKE (LARSON AFB)	344
1197	47.2603	11.3439	5.0	INNSBRUCK-FLUGHAFEN	7542
1198	47.267	5.083	5.0	DIJON	234
1199	47.267	16.633	5.0	SZOMBATHELY	183
1200	47.3	-54.0	5.0	ARGENTIA	11299
1201	47.383	123.917	5.0	QIQIHAR	17927
1202	47.45	-122.3	5.0	SEATTLE-TACOMA INTL	18573
1203	47.45	101.467	5.0	TSETSERLEG	2069
1204	47.567	-59.15	5.0	PORT-AUX-BASQUES	2303
1205	47.633	26.25	5.0	SUCEAVA	513
1206	47.6667	-117.3333	5.0	SPOKANE (FELTS FIELD)	7917
1207	47.6667	-52.75	5.0	SAINT JOHN'S ARPT	30095
1208	47.667	23.5	5.0	BAIA MARE	1152
1209	47.717	22.883	5.0	SATU MARE	1507
1210	47.733	130.967	5.0	EKATERINO-NIKOLSKOE	30472
1211	47.75	96.85	5.0	ULIASTAI	1923
1212	47.8	3.55	5.0	AUXERRE	185
1213	47.9	-122.2833	5.0	EVERETT (PAINE FIELD)	200
1214	47.95	-97.4	5.0	GRAND FORKS AFB	517
1215	48.017	91.567	5.0	HOVD	3097
1216	48.02	7.83	5.0	FREIBURG	1516
1217	48.07	5.03	5.0	CHAUMONT	4616
1218	48.0833	114.55	5.0	CHOIBALSAN	11826
1219	48.1333	-123.4167	5.0	PORT ANGELES	3357
1220	48.2353	14.1881	5.0	LINZ/HOERSCHING-FLUGHAFEN	10855
1221	48.354	11.786	5.0	MUNICH/RIEM	20686
1222	48.3667	25.9	5.0	CHERNIVTSI	44140
1223	48.3833	-124.7333	5.0	TATOOSH ISLAND WB	21960
1224	48.55	-109.767	5.0	HAVRE (AMOS)	690
1225	48.633	22.267	5.0	UZHHOROD	40708
1226	48.65	144.75	5.0	M. TERPENIYA (FL)	7763
1227	48.667	116.817	5.0	XIN BARAG YOUQI	12550
1228	48.6833	6.2167	5.0	NANCY/ESSEY	32474
1229	48.7	-8.9167	5.0	ENVIRONM BUOY 62027	215
1230	48.8	103.55	5.0	BULGAN	2639
1231	48.917	106.067	5.0	BARUUNHARAA	2895
1232	49.067	20.25	5.0	POPRAD/TATRY	15541
1233	49.08	16.62	5.0	BRNO REBESOVICE	4516
1234	49.2	-123.167	5.0	VANCOUVER INT. AIRP	14056
1235	49.3	4.033	5.0	REIMS	179
1236	49.383	11.167	5.0	FEUCHT(USA-AF)	1528
1237	49.6	34.55	5.0	POLTAVA	634
1238	49.633	-112.8	5.0	LETHBRIDGE AWOS	9936
1239	49.65	7.3	5.0	BAUMHOLDER (USA-AF)	1342
1240	49.7	11.95	5.0	GRAFENWOEHR	3151
1241	49.7167	-124.9	5.0	COMOX A	104
1242	49.75	10.2	5.0	KITZINGEN AAF	631
1243	49.783	-99.633	5.0	SHILO	6238
1244	49.9031	-98.2842	5.0	PORTAGE SOUTHPORT	554
1245	49.9408	-119.4003	5.0	KELOWNA UA	16898
1246	49.95	6.57	5.0	BITBURG	3760
1247	50.0	-145.0	5.0	OCEAN WEATHER SHIP P	12221
1248	50.0	88.667	5.0	KOS-AGAC	10486
1249	50.017	155.4	5.0	M. VASILYEV	34757
1250	50.033	5.4	5.0	ST-HUBERT	26357
1251	50.1	14.2833	5.0	PRAHA/RUZYNE	8770
1252	50.133	1.833	5.0	ABBEVILLE	116
1253	50.133	65.233	5.0	AMANGELDY	15887
1254	50.167	8.95	5.0	HANAU	804
1255	50.233	-119.283	5.0	VERNON AUTO	15732
1256	50.28	-64.17	5.0	MINGAN	632
1257	50.28	21.43	5.0	MIELEC	738
1258	50.383	-102.683	5.0	BROADVIEW	8722
1259	50.417	80.3	5.0	SEMIPALATINSK	42269
1260	50.6	137.0333	5.0	KOMSOMOLSK-ON-AMUR	33016
1261	50.7969	4.3581	5.0	UCCLE	42558
1262	50.8667	7.1333	5.0	KOLN/BONN	1759
1263	51.083	-0.217	5.0	CRAWLEY	37592
1264	51.083	2.65	5.0	KOKSIJDE	311
1265	51.1	-100.05	5.0	DAUPHIN AIRPORT	2648
1266	51.11	13.67	5.0	WAHNSDORF	40165
1267	51.117	-114.017	5.0	CALGARY INTL	15534
1268	51.13	9.28	5.0	FRITZLAR/KASSELER	21333
1269	51.133	-106.583	5.0	ELBOW CS	165
1270	51.1333	71.3667	5.0	CELINOGRAD	167
1271	51.1833	40.7	5.0	KAMENNAYA STEP NO2	6225
1272	51.2333	7.6	5.0	LUDENSCHEID	1004
1273	51.25	51.4	5.0	URALSK	34602
1274	51.3833	179.25	5.0	AMCHITKA ISLAND	1908
1275	51.4	-3.35	5.0	CARDIFF-WALES ARPT	890
1276	51.517	-109.183	5.0	KINDERSLEY ARPT	914
1277	51.55	12.0667	5.0	OPPIN	3700
1278	51.5547	0.8269	5.0	SHOEBURYNESS	10753
1279	51.717	126.65	5.0	HUMA	6620
1280	51.733	6.267	5.0	KALKAR	3052
1281	51.75	-1.583	5.0	BRIZE NORTON	1008
1282	51.85	10.7667	5.0	WERNIGERODE	9806
1283	51.883	-176.65	5.0	ADAK (NAS)	33391
1284	51.9833	177.5667	5.0	KISKA ISLAND	308
1285	52.05	29.25	5.0	MOZYR (AMOS)	6912
1286	52.117	0.967	5.0	WATTISHAM	437
1287	52.167	-106.717	5.0	SASKATOON DIEFENBAKE	2309
1288	52.167	4.433	5.0	VALKENBURG	583
1289	52.267	7.433	5.0	NORDHORN	5346
1290	52.267	104.317	5.0	IRKUTSK	39087
1291	52.4167	-4.0	5.0	CAPEL DEWI	6559
1292	52.417	16.85	5.0	POZNAN	31288
1293	52.433	-114.917	5.0	ROCKY MTN HOUSE	1475
1294	52.467	9.7	5.0	HANNOVER	44613
1295	52.483	13.417	5.0	BERLIN/TEMPELHOF	30570
1296	52.5	-20.0	5.0	OCEAN WEATHER SHIP J	2559
1297	52.67	1.68	5.0	HEMSBY	50217
1298	52.733	41.467	5.0	TAMBOV	38381
1299	52.75	-35.5	5.0	OCEAN WEATHER SHIP C	13900
1300	52.767	-108.25	5.0	NORTH BATTLEFORD	2182
1301	52.8	-2.667	5.0	SHAWBURY	561
1302	52.8	173.16	5.0	ATTU ISLAND	3463
1303	53.05	158.33	5.0	NIKOLAEVKA	127
1304	53.067	132.983	5.0	EKIMCHAN	29232
1305	53.167	-0.517	5.0	WADDINGTON	992
1306	53.2	-70.9	5.0	NITCHEQUON	15444
1307	53.217	-105.667	5.0	PRINCE ALBERT ARPT	9605
1308	53.25	4.917	5.0	VLIELAND	6803
1309	53.317	-113.583	5.0	EDMONTON INTL ARPT	4780
1310	53.38	-167.9	5.0	UMNAK ISLAND	2799
1311	53.3894	7.2269	5.0	EMDEN-FLUGPLATZ	46395
1312	53.5333	7.8833	5.0	JEVER	872
1313	53.55	-2.917	5.0	AUGHTON	43285
1314	53.6167	109.6333	5.0	BARGUZIN	6508
1315	53.667	-113.467	5.0	EDMONTON NAMAO ARPT	5592
1316	53.7333	87.1833	5.0	ABAGUR	181
1317	53.833	-89.867	5.0	TROUT LAKE	15743
1318	53.85	-94.65	5.0	ISLAND LAKE ARPT	4067
1319	53.883	-122.667	5.0	PRINCE GEORGE	30854
1320	53.9	-166.53	5.0	DUTCH HARBOR	2953
1321	54.0	123.967	5.0	SKOVORODINO	31293
1322	54.2	16.1833	5.0	KOSZALIN	1537
1323	54.3	-1.533	5.0	LEEMING	777
1324	54.383	10.15	5.0	KEIL/HOLTENAU	15248
1325	54.417	-110.283	5.0	COLD LAKE	5396
1326	54.4667	113.5833	5.0	BAGDARIN	52127
1327	54.6333	9.35	5.0	EGGEBECK	2824
1328	54.75	-110.05	5.0	PRIMROSE LAKE	845
1329	54.8	105.167	5.0	ZHIGALOVO	35584
1330	54.9333	73.4	5.0	OMSK	59051
1331	55.283	-114.783	5.0	SLAVE LAKE AIRPORT	13183
1332	55.317	-3.2	5.0	ESKDALEMUIR	233
1333	55.35	-131.65	5.0	KETCHIKAN	5932
1334	55.417	-1.6	5.0	BOULMER	13127
1335	55.6075	49.2942	5.0	KAZAN	52427
1336	56.0	92.883	5.0	KRASNOYARSK	40900
1337	56.2933	9.1139	5.0	FLYVESTATION KARUP	5675
1338	56.45	138.15	5.0	AYAN	39966
1339	56.483	21.017	5.0	LIEPAJA	26905
1340	56.5	-51.0	5.0	OCEAN WEATHER SHIP B	11583
1341	56.5422	3.2236	5.0	EKOFISK	15135
1342	56.65	-111.217	5.0	FORT MCMURRAY ARPT	11470
1343	56.8	60.6	5.0	SWERDLOWSK	171
1344	56.917	23.967	5.0	RIGA	47749
1345	57.1	9.867	5.0	FLYVESTATION AALBOR	4824
1346	57.2	-2.217	5.0	ABERDEEN/DYCE AIRPO	421
1347	57.58	39.58	5.0	JAROSLAVL	529
1348	57.65	-3.567	5.0	KINLOSS	767
1349	57.65	18.35	5.0	VISBY AEROLOGISKA STATION	28914
1350	57.717	11.783	5.0	GOTEBURG/TORSLANDA	20557
1351	57.817	28.333	5.0	PSKOV	39213
1352	58.183	12.15	5.0	TORPABRON	288
1353	58.217	-6.317	5.0	STORNOWAY	52782
1354	58.8742	5.665	5.0	STAVANGER/SOLA	44297
1355	59.0	-19.0	5.0	OCEAN WEATHER SHIP I	2647
1356	59.35	17.95	5.0	STOCKHOLM/BROMMA	41574
1357	59.9428	10.7194	5.0	OSLO-BLINDERN	934
1358	60.2	-166.1	5.0	NUNIVAK AAF	100
1359	60.2	11.083	5.0	OSLO/GARDERMOEN	27726
1360	60.3167	24.9667	5.0	HELSINKI/SEUTALA	4544
1361	60.35	166.0	5.0	KORF	42069
1362	60.3667	120.4167	5.0	OLEKMINSK	49772
1363	60.38	5.33	5.0	BERGEN	179
1364	60.4833	-145.5	5.0	CORDOVA	2276
1365	60.8139	23.4975	5.0	JOKIOINEN OBSERVATORY	60413
1366	61.267	108.2	5.0	ERBOGACEN	35974
1367	61.95	160.8667	5.0	GIZIGA	28015
1368	62.0	-33.0	5.0	OCEAN WEATHER SHIP A	7562
1369	62.1	42.9	5.0	SENKURSK	255
1370	62.1167	-163.75	5.0	MOUNTAIN VILLAGE	147
1371	62.3975	25.6708	5.0	JYVASKYLA AIRPORT	54064
1372	62.7833	148.1333	5.0	SUSUMAN	12807
1373	62.85	149.76	5.0	SHTURMOVOY	2661
1374	62.97	-141.96	5.0	NORTHWAY	12371
1375	63.017	179.283	5.0	BERINGOVSKAJA	25831
1376	63.183	14.5	5.0	OSTERSUND/FROSON	16859
1377	63.3333	-149.15	5.0	SUMMIT	2843
1378	63.43	-51.18	5.0	MARRAK POINT	353
1379	63.7056	9.6117	5.0	ORLAND III	40241
1380	63.85	-171.6	5.0	GAMBELL	8490
1381	63.9	-160.7833	5.0	UNALAKLEET	1191
1382	64.0	-145.733	5.0	FT GREELY/ALLEN AAF	1398
1383	64.2	-83.3667	5.0	CORAL HARBOUR UA	45390
1384	64.383	-173.233	5.0	BUHTA PROVIDENJA	27529
1385	64.683	170.417	5.0	MARKOVO	33706
1386	64.7167	-156.9	5.0	GALENA	571
1387	64.7833	177.5667	5.0	ANADYR	38190
1388	64.917	77.817	5.0	TARKO-SALE	33211
1389	65.5433	22.1144	5.0	LULEA-KALLAX	41162
1390	65.6167	-168.05	5.0	WALES	863
1391	65.7333	150.9	5.0	ZYRYANKA	35043
1392	65.93	-36.68	5.0	IKATEQ	111
1393	66.0	2.0	5.0	OCEAN WEATHER SHIP M	2031
1394	66.167	-169.833	5.0	MYS UELEN	30932
1395	66.567	-145.267	5.0	FORT YUKON	133
1396	67.0	-50.8	5.0	KANGERLUSSUAK	3155
1397	67.2669	14.3586	5.0	BODO VI	38387
1398	67.47	86.57	5.0	IGARKA	13709
1399	68.1	-165.7667	5.0	CAPE THOMPSON	100
1400	68.23	-135.0	5.0	AKLAVIK	7053
1401	68.35	-166.7833	5.0	POINT HOPE	425
1402	68.47	17.5	5.0	NARVIK	128
1403	68.47	73.6	5.0	MYS KAMENNY	29022
1404	68.5	112.4333	5.0	OLENEK	41890
1405	68.65	43.3	5.0	KANIN NOS	4393
1406	69.3153	16.1308	5.0	ANDOYA	3633
1407	69.3667	-152.1333	5.0	UMIAT	611
1408	69.4	86.17	5.0	DUDINKA	5076
1409	69.783	61.783	5.0	AMDERMA	34229
1410	69.9333	167.9667	5.0	AJON ISLAND	9137
1411	70.1333	-143.6333	5.0	BARTER ISLAND WSO AP	25677
1412	70.42	-21.97	5.0	KAP TOBIN	18381
1413	70.45	-68.55	5.0	CLYDE RIVER	13851
1414	70.9397	-8.6678	5.0	JAN MAYEN	48594
1415	70.967	-178.65	5.0	OSTROV VRANGELYA	29474
1416	71.317	-156.617	5.0	SANDIA LAB. D	523
1417	71.9772	102.4664	5.0	HATANGA	34969
1418	72.0	-125.27	5.0	SACHS HARBOUR	22298
1419	73.0	-85.3	5.0	ARCTIC BAY (NWT)	7539
1420	73.2	143.533	5.0	MYS SHALAUROVA	27652
1421	73.33	70.03	5.0	IM POPOVA	11828
1422	74.5039	19.0011	5.0	BJORNOYA	46944
1423	74.67	112.93	5.0	OSTROV PREOBRAZHENIA	28488
1424	76.15	152.83	5.0	OSTROV ZOHOVA	20328
1425	76.1833	62.5667	5.0	RUSSKAJA GAVAN	246
1426	76.25	-119.35	5.0	MOULD BAY	34676
1427	76.533	-68.75	5.0	PITUFFIK	50379
1428	77.23	-62.33	5.0	THULE	119
1429	77.5	82.23	5.0	OSTROV UEDINENIA	24206
1430	77.72	104.28	5.0	MYS CHELIUSKINA	657
1431	78.0667	13.6333	5.0	ISFJORD RADIO	1297
1432	78.8	-103.5	5.0	ISACHSEN	21510
1433	79.5	76.98	5.0	OSTROV VIZE	26148
1434	80.05	18.3	5.0	KINNVIKA STATION	259
1435	81.6	-16.67	5.0	NORD	10981
1436	-36.9335	174.79000000000002	5.6	AUCKLAND AIRPORT,AUCKLAND	26042
1437	-24.6085	25.91685	5.6	GABORONE,SERETSE KHAMA INTERNATIONAL AI	6466
1438	-17.87515	31.074850000000005	5.6	HARARE (KUTSAGA),HARARE (BELVEDERE)	19508
1439	-17.725	168.3	5.6	VILA (EFATE),BAUERFIELD (EFATE)	20259
1440	-13.771499999999998	33.73350000000001	5.6	LILONGWE INTL AIRPO,LILONGWE	15098
1441	-8.525	126.4835	5.6	KOMORO,BAU CAU	6939
1442	-5.19165	-80.6	5.6	PIURA,PIURA GRUP7	1436
1443	-4.375	15.3415	5.6	KINSHASA/NDJILI,KINSHASA/BINZA	1037
1444	-3.7581499999999997	-73.275	5.6	IQUITOS,MORONA	1396
1445	3.1085000000000003	101.6	5.6	PETALING JAYA,KUALA LUMPUR SUBANG	34224
1446	6.541499999999999	3.3581499999999997	5.6	LAGOS/OSHODI,LAGOS/IKEJA	4663
1447	10.541999999999998	-71.69149999999999	5.6	LA CANADA,MARACAIBO-LA CHINIT	1487
1448	10.898349999999999	106.89335000000001	5.6	AN LOC,BIEN HOA (VVBH)	1065
1449	13.825	100.5835	5.6	BANGKOK METROPOLIS,DON MUANG	59253
1450	14.457650000000001	-11.43665	5.6	KAYES,KAYES/DAG-DAG	28913
1451	15.242	120.475	5.6	CLARK AB,CROW VALLEY GUNNERY	38919
1452	15.45	44.1915	5.6	SANAA,SANA'A (CIV/MIL)	2841
1453	16.775	107.1333	5.6	QUANG TRI,DONG HA	1610
1454	18.375	-67.1333	5.6	MAYAGUEZ,AGUADILLA RAMEY AFB	6815
1455	21.38035471698113	-157.89001509433962	5.9	KANEOHE BAY (MCAF),BARBERS POINT NAS,HONOLULU INTL	35133
1456	22.56685	120.44149999999999	5.6	DONGGANG (=595530),PINGTUNG SOUTH(AFB)	33375
1457	22.7165	-12.5915	5.6	FORT GOURAUD,ZOUERATE	12816
1458	25.050150000000002	121.37485	5.6	TAIBEI,TAOYUAN AB	48226
1459	25.5	28.993499999999994	5.6	DAKHLA,AL-DAKHLA	7513
1460	26.275	127.7165	5.6	NAHA,KADENA AB	69747
1461	26.608299999999996	-81.78335	5.6	FORT MYERS (PAIGE FIELD),FORT MYERS (BUCKINGHAM AAF)	1286
1462	27.558349999999997	-81.34984999999999	5.6	SEBRING HENDRICKS FIELD,AVON PARK GUNNERY R	13029
1463	28.351499999999998	28.898500000000002	5.6	BAHARIA,AL-WAHAT AL-BAHRIYA	7028
1464	28.5	-81.31665000000001	5.6	ORLANDO (PINECASTLE AAF),ORLANDO (AAB)	3107
1465	28.80835	-97.01669999999999	5.6	VICTORIA (ALOE AAF),VICTORIA RGNL AP	19942
1466	30.357999999999997	-9.492	5.6	AGADIR AL MASSIRA,AGADIR INEZGANNE	17056
1467	30.64835	-96.51500000000001	5.6	BRYAN,COLLEGE STATION (BRYAN AFB)	2651
1468	31.256499999999996	-92.5915	5.6	CLAIBORNE RNG (AFS),ALEXANDRIA	4202
1469	31.589999999999996	-84.10164999999999	5.6	ALBANY,ALBANY TURNER FIELD	1030
1470	31.625149999999998	-97.14185	5.6	WACO RGNL,WACO (JAMES CONNALLY AFB)	11745
1471	31.899850000000004	34.75815	5.6	ASHDOD NORTH,BEER-YA AQOV TO 401790	4025
1472	32.45	-106.39185000000002	5.6	WHITE SANDS TEST RG,FRYE SITE	8720
1473	32.66665	-83.625	5.6	WARNER ROBINS ROBINS AFB,MACON COCHRAN FIELD	3363
1474	32.791650000000004	13.225	5.6	TRIPOLI INTL ARPT,WHEELUS	36796
1475	33.26345	126.2064	5.6	MOESULPO AB,GOSAN	38973
1476	33.35	-104.53315	5.6	ROSWELL/INDUSTRIAL,ROSWELL	11787
1477	33.492679245283014	-112.21259433962265	5.9	PHOENIX (LUKE FIELD),PHOENIX/SKY HARBOR,WFO PHOENIX	14607
1478	33.818349999999995	-118.24164999999998	5.6	LOMITA (AAF),LONG BEACH	7163
1479	33.9085	-80.483	5.6	POINSETT RANGE,SHAW AFB/SUMTER	5600
1480	34.066500000000005	134.6165	5.6	KOMATSUSHIMA AB,TOKUSHIMA AB	5729
1481	34.15835	-119.09169999999999	5.6	POINT MUGU/NAS,OXNARD (FLIGHT STRIP)	17670
1482	34.632999999999996	32.9	5.6	AKROTIRI,EPISKOPI	21901
1483	34.775	-120.5085	5.6	SOUTH VANDENBERG AF,SANTA MARIA/PUBLIC (CAL)	16004
1484	35.458349999999996	-119.11665	5.6	BAKERSFIELD,BAKERSFIELD (MINTER FIELD)	8981
1485	36.6665	127.4665	5.6	CHEONGJU,CHEONGJU INTL AIRPO	6428
1486	36.82336603773585	-116.10137735849055	5.9	YUCCA FLATS TEST 21,MERCURY DESERT ROCK AP,JACKASS FLATS	40656
1487	37.47428301886792	126.90662264150944	5.9	GIMPO INTL AIRPORT,SV RI SAN,SEOUL AB	23474
1488	38.885000000000005	-98.96834999999999	5.6	RUSSELL,VICTORIA (WALKER AAF)	1573
1489	40.10665	-74.18834999999999	5.6	LAKEHURST,SPRING LAKE BELMAR	5769
1490	41.15	-111.9917	5.6	OGDEN (HILL AFB),OGDEN	7026
1491	42.15015	-76.0415	5.6	BINGHAMTON,BINGHAMTON/BROOME C	9283
1492	42.275	-83.38329999999999	5.6	YPSILANTI,DETROIT METRO.	11811
1493	42.416700000000006	-71.19165000000001	5.6	CAMBRIDGE MIT,BEDFORD HANSCOM AP	930
1494	42.616499999999995	-92.44149999999999	5.6	WATERLOO,WAVERLY	1548
1495	42.91685	-106.40014999999998	5.6	CASPER WYO,CASPER/NATRONA COUN	11626
1496	43.58315	-119.0	5.6	BURNS MUNI (AMOS),BURNS	9056
1497	45.06685	-83.50015	5.6	ALPENA,ALPENA/PHELPS COLLI	9332
1498	45.6	25.558	5.6	PREDEAL,BRASOV-GHIMBAV	1501
1499	45.7217	5.0139	5.6	LYON-BRON,LYON-ST EXUPERY	45954
1500	48.0415	9.075	5.6	NEUHAUSEN OB ECK,SIGMARINGEN	21411
1501	48.1665	-103.60814999999998	5.6	WILLISTON,WILLISTON/SLOULIN F	6802
1502	49.85	-97.18315	5.6	WINNIPEG UA,WINNIPEG INT.AIRPOR	16919
1503	50.033500000000004	8.4985	5.6	LANGEN,WIESBADEN	10186
1504	50.3165	-104.68350000000001	5.6	BRATT'S LAKE UA,REGINA INTL	6506
1505	54.565	-6.15835	5.6	LONG KESH,BELFAST/ALDERGROVE ARPT	52711
1506	55.70015000000001	12.59985	5.6	KOBENHAVN/KASTRUP,JAEGERSBORG	49140
1507	56.408	-2.867	5.6	LEUCHARS,SHANWELL	38226
1508	59.9415	30.508500000000005	5.6	LENINGRAD/CHOSSEYNOR,ST.PETERSBURG (VOEJKOVO)	59928
1509	61.25834999999999	-149.725	5.6	ANCHORAGE ELMENDORF FIELD,FT. RICHARDSON/BRYANT AHP	1195
