	latitude	longitude	radius	station	records
0	-80.017	-119.533	5.0	BYRD STN	7679
1	-79.25	-147.5	5.0	LITTLE ROCKFORD	309
2	-78.45	106.867	5.0	VOSTOK	7319
3	-78.4	87.583	5.0	SOVIETSKAVA	273
4	-76.2667	-147.5	5.0	LITTLE ROCKFORD	389
5	-72.3	170.2167	5.0	ADARE HALLETT	4373
6	-70.4333	24.3167	5.0	BASE ROI BAUDOUIN	1097
7	-70.317	-2.367	5.0	SANAE	9815
8	-69.73	95.05	5.0	PIONERSKAVA	121
9	-69.5	159.4	5.0	LENINGRADSKAJA	2575
10	-67.667	45.85	5.0	MOLODEZNAJA	13014
11	-66.27	100.73	5.0	BUNGER OASIS	548
12	-65.25	-64.2667	5.0	FARADAY	10141
13	-63.4667	-56.2833	5.0	PETREL NAS	1654
14	-62.183	-58.883	5.0	BELLINGSHAUSEN AWS	6342
15	-60.75	-44.7167	5.0	ISLAS ORCADAS (MET)	8699
16	-59.45	-27.267	5.0	CORBETA URUGUAY DN	275
17	-54.8	-68.3167	5.0	USHUAIA	1943
18	-53.8	-67.75	5.0	RIO GRANDE AIRPORT	3267
19	-53.1	73.7167	5.0	HEARD IS.(THESPIT)	2295
20	-52.55	169.15	5.0	CAMPBELL ISLAND	18775
21	-51.7	-57.8667	5.0	STANLEY	4603
22	-51.6333	-69.2167	5.0	RIO GALLEGOS B. A.	4526
23	-43.483	172.55	5.0	CHRISTCHURCH	31930
24	-43.2333	-65.3	5.0	ALMIRANTE ZAR	1150
25	-42.8833	147.3333	5.0	HOBART	1774
26	-42.417	173.7	5.0	KAIKOURA	5055
27	-42.2	145.05	5.0	GEOGERTOWN	2980
28	-39.467	175.683	5.0	WAIOURU	2309
29	-38.7333	-62.1667	5.0	COMANDANTE ESPORA	13733
30	-37.867	144.75	5.0	LAVERTON AERODROME	58326
31	-35.367	-57.283	5.0	PUNTA INDIO B.A.	151
32	-35.1	173.267	5.0	KAITAIA	14537
33	-34.58	-58.48	5.0	BUENOS AIRES	107
34	-34.017	22.383	5.0	GEORGE AIRPORT	4491
35	-33.6	115.4667	5.0	LUDLOW	539
36	-33.033	27.833	5.0	EAST LONDON	3098
37	-32.8833	-68.85	5.0	OBSERV MENDOZA	3075
38	-32.78	-71.51	5.0	QUINTERO (MIL)	28938
39	-32.5667	148.95	5.0	WELLINGTON	948
40	-31.35	-54.117	5.0	BAGE (AEROPORTO)	1012
41	-30.833	128.1	5.0	FORREST AIRPORT	54264
42	-30.5167	151.65	5.0	ARMIDALE	728
43	-30.0833	145.9667	5.0	BOURKE (S23'05'11'17)	130
44	-30.01	131.583	5.0	MARALINGA	7453
45	-28.8	24.767	5.0	KIMBERLEY	9829
46	-28.567	16.533	5.0	KORTDOORN/ALEXANDER	11144
47	-27.65	152.7167	5.0	AMBERLEY	2455
48	-27.55	135.4833	5.0	OODNADATTA	37900
49	-27.4667	-58.9833	5.0	RESISTENCIA	1200
50	-25.917	32.567	5.0	MAPUTO/MAVALANE	20132
51	-25.783	25.533	5.0	MAFIKENG WO	1154
52	-25.733	28.183	5.0	PRETORIA-EENDRACHT	3937
53	-25.55	45.533	5.0	FAUX-CAP	549
54	-24.667	25.917	5.0	GABORONE	695
55	-23.867	35.383	5.0	INHAMBANE	4808
56	-23.85	151.25	5.0	GLADSTONE	46725
57	-23.617	-46.65	5.0	SAO PAULO	16840
58	-23.383	43.733	5.0	TOLIARA	5308
59	-22.8	47.833	5.0	FARAFANGANA	2385
60	-22.483	17.467	5.0	HOSEA KUTAKO INTL A	7483
61	-22.03	-63.68	5.0	YACUIBA	670
62	-21.817	-138.8	5.0	MURUROA	6907
63	-21.75	43.367	5.0	MOROMBE	1328
64	-21.6333	115.1167	5.0	ONSLOW	25950
65	-21.45	47.1	5.0	FIANARANTSOA	1453
66	-21.333	55.483	5.0	ST. PIERRE/FONDS	5723
67	-21.233	-175.15	5.0	FUAAMOTU	5436
68	-21.217	27.5	5.0	FRANCISTOWN	613
69	-21.2	48.367	5.0	MANANJARY	4840
70	-20.7667	-138.55	5.0	TUREIA	271
71	-20.6667	140.5	5.0	CLONCURRY	33366
72	-20.283	44.317	5.0	MORONDAVA	3268
73	-20.233	169.767	5.0	ANEITYUM	125
74	-19.833	48.8	5.0	MAHANORO	1069
75	-19.8	34.9	5.0	BEIRA	8665
76	-19.783	-47.967	5.0	UBERABA	134
77	-19.6	18.117	5.0	GROOTFONTEIN	4094
78	-19.45	29.85	5.0	GWERU	5186
79	-19.28	121.5	5.0	TALGARNO	297
80	-18.9	47.5333	5.0	TANANARIVE/SCM	4211
81	-18.633	26.85	5.0	HWANGE NATIONAL PAR	2189
82	-18.067	-140.95	5.0	HAO	18186
83	-17.917	31.133	5.0	HARARE (KUTSAGA)	926
84	-17.883	36.883	5.0	QUELIMANE	2266
85	-17.817	25.817	5.0	LIVINGSTONE	7670
86	-17.75	168.3	5.0	VILA (EFATE)	12954
87	-17.7333	139.5333	5.0	BURKETOWN	145
88	-17.6833	141.0667	5.0	NORMANTON AIRPORT	229
89	-17.38	-66.17	5.0	COCHABAMBA	1502
90	-17.3167	123.6333	5.0	DERBY	7081
91	-17.083	49.817	5.0	SAINTE-MARIE AERODR	681
92	-17.05	42.717	5.0	ILE JUAN DE NOVA	5730
93	-16.833	29.617	5.0	KAROI	4958
94	-16.45	-151.75	5.0	BORA-BORA	11160
95	-16.2667	133.3833	5.0	DALY WATERS	20570
96	-16.183	33.583	5.0	TETE	2074
97	-15.683	34.967	5.0	CHILEKA	10079
98	-15.6	-56.1	5.0	CUIABA	443
99	-15.517	167.217	5.0	PEKOA AIRPORT	661
100	-15.417	28.317	5.0	LUSAKA CITY AIRPORT	9588
101	-15.25	23.15	5.0	MONGU	5748
102	-15.2167	12.1667	5.0	MOCAMEDES	1595
103	-15.0	50.333	5.0	ANTALAHA	4654
104	-14.95	-147.659	5.0	RANGIROA	5720
105	-14.95	-40.883	5.0	VITORIA DA CONQUIST	123
106	-14.933	13.567	5.0	LUBANGO	236
107	-14.633	47.767	5.0	ANALALAVA	1607
108	-14.45	-67.53	5.0	RURRENABAQUE	125
109	-14.4167	28.4833	5.0	KABWE	12025
110	-14.3667	-170.7833	5.0	LEONE BAY AMERICAN S	359
111	-14.283	50.167	5.0	SAMBAVA	2763
112	-13.8	-171.783	5.0	APIA	10496
113	-13.76	33.7	5.0	LILONGWE	7210
114	-13.75	34.583	5.0	SALIMA	2342
115	-13.733	-76.217	5.0	PISCO	1501
116	-13.55	32.583	5.0	CHIPATA	140
117	-13.367	50.0	5.0	VOHEMAR	807
118	-13.317	48.317	5.0	FASCENE (NOSSI-BE)	786
119	-13.3	35.233	5.0	LICHINGA	1908
120	-13.0	28.65	5.0	NDOLA	2372
121	-12.983	40.533	5.0	PEMBA	3898
122	-12.8	15.75	5.0	HUAMBO	301
123	-12.5	177.05	5.0	ROTUMA	6835
124	-12.37	13.53	5.0	LOBITO	100
125	-12.15	-45.0	5.0	BARREIRAS	1194
126	-12.117	44.433	5.0	OUANI (ANJOUAN)	3271
127	-11.783	19.917	5.0	LUENA (LUSO)	1995
128	-11.75	24.4333	5.0	MWINLUNGA	2872
129	-11.7	43.233	5.0	MORONI AIRPORT	5231
130	-11.583	47.283	5.0	ILES GLORIEUSES	7379
131	-11.3	-41.867	5.0	IRECE	347
132	-10.917	-37.05	5.0	ARACAJU	417
133	-10.82	-65.37	5.0	GUAYARAMERIN	618
134	-10.7	-48.4	5.0	PORTO NACIONAL	1005
135	-10.7	152.833	5.0	MISIMA ISLAND	2055
136	-10.7	165.8	5.0	SANTA CRUZ ISLAND	151
137	-10.583	142.217	5.0	THURSDAY IL/HORN IL	21187
138	-10.45	105.7	5.0	CHRISTMAS ISL (PVT)	3447
139	-10.217	31.133	5.0	KASAMA	3135
140	-9.95	33.883	5.0	KARONGA	2595
141	-9.517	-35.783	5.0	MACEIO (AEROPORTO)	133
142	-9.35	46.533	5.0	ALDABRA	143
143	-9.333	-54.967	5.0	CACHIMBO AERO	2176
144	-9.2	124.367	5.0	OE-CUSSIE	498
145	-9.1	-44.117	5.0	BOM JESUS	376
146	-8.933	33.467	5.0	MBEYA	767
147	-8.85	13.233	5.0	LUANDA	8531
148	-8.55	125.55	5.0	DILLI/DILLI AIRPORT	7176
149	-8.367	-74.567	5.0	PUCALLPA	328
150	-7.967	112.7	5.0	MALANG/ABDUL (AFB)	586
151	-7.633	35.767	5.0	IRINGA	677
152	-7.617	111.517	5.0	MADIUN/ISWAHYUD AFB	3443
153	-7.4	20.817	5.0	DUNDO	6240
154	-7.333	108.25	5.0	CIBEUREM/TASIK(AFB)	625
155	-7.317	-39.3	5.0	BARBALHA	334
156	-7.017	-37.267	5.0	PATOS	137
157	-6.833	37.65	5.0	MOROGORO	142
158	-6.783	-79.817	5.0	CHICLAYO	1504
159	-6.733	147.0	5.0	LAE	29138
160	-6.267	-57.733	5.0	JACAREACANGA	287
161	-6.167	35.767	5.0	DODOMA	1096
162	-5.5	-45.267	5.0	BARRA DO CORDA	161
163	-5.217	145.783	5.0	MADANG	18232
164	-5.2	-39.3	5.0	QUIXERAMOBIM	334
165	-5.083	32.833	5.0	TABORA AIRPORT	1062
166	-5.083	39.067	5.0	TANGA	776
167	-5.05	-42.817	5.0	TERESINA	313
168	-4.883	29.667	5.0	KIGOMA	112
169	-4.883	38.283	5.0	MOMBO	113
170	-4.567	-81.233	5.0	TALARA	1823
171	-4.45	105.183	5.0	MENGGALA/ASTRA KSET	181
172	-4.217	12.667	5.0	DOLISIE	7834
173	-4.217	152.183	5.0	RABAUL	27818
174	-4.1	122.433	5.0	KENDARI/WOLTER MONG	1064
175	-4.05	-154.9833	5.0	MALDEN ISLAND AF	274
176	-4.033	39.617	5.0	MOMBASA	3673
177	-3.783	-73.3	5.0	IQUITOS	705
178	-3.417	37.067	5.0	KILIMANJARO AIRPORT	696
179	-3.4	38.567	5.0	VOI	4508
180	-3.217	40.1	5.0	MALINDI	1769
181	-3.083	-41.783	5.0	PARNAIBA	665
182	-2.767	-171.717	5.0	KANTON ISLAND	16684
183	-2.533	14.767	5.0	DJAMBALA	1376
184	-2.467	32.917	5.0	MWANZA	383
185	-2.283	37.833	5.0	MAKINDU	5723
186	-2.2	-81.0	5.0	CHINCHIPE	601
187	-1.333	31.817	5.0	BUKOBA	1433
188	-1.133	35.833	5.0	NAROK	4802
189	-0.617	30.65	5.0	MBARARA	114
190	-0.467	39.633	5.0	GARISSA	7179
191	-0.267	36.1	5.0	NAKURU	7184
192	0.183	30.1	5.0	KASESE	419
193	0.383	6.717	5.0	S. TOME	5381
194	0.683	34.167	5.0	TORORO	264
195	1.083	154.767	5.0	KAPINGAMARANGI ATOL	487
196	1.617	18.067	5.0	IMPFONDO	986
197	1.683	31.717	5.0	MASINDI	632
198	1.717	33.617	5.0	SOROTI	112
199	1.75	40.067	5.0	WAJIR	3181
200	1.85	-78.767	5.0	TUMACO	344
201	2.033	-56.117	5.0	SIPALIWINI	331
202	2.083	11.483	5.0	BITAM	483
203	2.333	37.983	5.0	MARSABIT	1160
204	3.117	35.617	5.0	LODWAR	8644
205	3.367	-57.333	5.0	COEROENI	254
206	3.533	39.05	5.0	MOYALE	3218
207	3.783	-56.15	5.0	TAFELBERG	228
208	3.833	11.517	5.0	YAOUNDE	7131
209	3.85	-159.367	5.0	FANNING ISLAND	103
210	3.883	-51.8	5.0	SAINT GEORGES	2681
211	3.933	41.867	5.0	MANDERA	3516
212	4.25	15.8	5.0	BERBERATI	2543
213	4.317	21.183	5.0	MOBAYE	150
214	4.35	-54.417	5.0	STOELMANSEILAND	153
215	4.417	-7.367	5.0	TABOU	12633
216	4.467	14.367	5.0	BATOURI	4064
217	4.733	22.833	5.0	BANGASSOU	2199
218	4.867	31.6	5.0	JUBA	1813
219	4.883	-1.767	5.0	TAKORADI	135
220	5.3333	163.0167	5.0	KUSAIE/CAROLINES	1652
221	5.45	-55.2	5.0	ZANDERIJ	2383
222	5.467	100.383	5.0	BUTTERWORTH AB	24729
223	5.55	12.367	5.0	YOKO	1316
224	5.6	-0.1667	5.0	ACCRA/KOTOKA INTL	3276
225	5.65	10.75	5.0	KOUNDJA	5780
226	5.8833	-162.05	5.0	PALMYRA ISLAND	631
227	5.9	43.583	5.0	GODE	237
228	5.917	169.65	5.0	JALUIT ATOLL	130
229	5.95	-57.033	5.0	NICKERIE	382
230	5.967	15.633	5.0	BOUAR	2424
231	6.25	-10.35	5.0	ROBERTS FIELD	1457
232	6.467	7.55	5.0	ENUGU	469
233	6.483	17.433	5.0	BOSSANGOA	3181
234	6.583	3.333	5.0	LAGOS/IKEJA	3244
235	6.9	122.067	5.0	ZAMBOANGA	4876
236	7.233	-70.8	5.0	GUASDUALITO	356
237	7.3	-61.45	5.0	TUMEREMO	451
238	7.383	143.917	5.0	WOLEAI ATOLL	106
239	7.7	28.017	5.0	WAU	717
240	7.733	-5.067	5.0	BOUAKE	14811
241	8.28	73.05	5.0	MALIKU	574
242	8.4	20.65	5.0	NDELE	2173
243	8.617	-13.2	5.0	LUNGI	1194
244	8.8667	2.6	5.0	TCHAOUROU	6364
245	8.983	1.15	5.0	SOKODE	5401
246	9.15	92.81	5.0	CAR NICOBAR	1627
247	9.417	-5.617	5.0	KORHOGO	11845
248	9.467	170.25	5.0	WOTJE ATOLL	299
249	9.5	-7.567	5.0	ODIENNE	140
250	9.55	31.65	5.0	MALKAL	4130
251	9.5667	-13.6167	5.0	CONAKRY	13759
252	9.6	105.967	5.0	BA-XUYEN/SOC TRANG	170
253	9.617	6.533	5.0	MINNA	440
254	9.75	-63.183	5.0	MATURIN	1184
255	9.8	125.5	5.0	SURIGAO	347
256	9.817	-70.933	5.0	MENE GRANDE	780
257	10.067	-69.317	5.0	BARQUISIMETO	741
258	10.117	-64.683	5.0	BARCELONA	1459
259	10.333	123.9	5.0	LAHUG	2175
260	10.3667	-12.0833	5.0	MAMOU	2746
261	10.3833	-9.3	5.0	KANKAN	11475
262	10.6	-66.983	5.0	CARACAS/MAIQUETIA A	912
263	10.6833	-61.6167	5.0	TRINIDAD BWI	10395
264	10.717	115.833	5.0	NENSHA ISL	436
265	10.85	121.033	5.0	CUYO	270
266	10.917	-63.967	5.0	PORLAMAR	739
267	11.233	169.85	5.0	UTIRIK ATOLL M.ISL	577
268	11.3	167.48	5.0	RONGERIK	145
269	11.3167	-12.3	5.0	LABE	3485
270	11.35	162.35	5.0	ENEWETAK	16361
271	11.52	165.55	5.0	BIKINI	294
272	11.55	43.15	5.0	DJIBOUTI	2487
273	11.85	13.083	5.0	MAIDUGURI	593
274	11.87	-15.5	5.0	BISSAU	2569
275	12.433	98.6	5.0	MERGUI	3067
276	12.55	-16.267	5.0	ZIGUINCHOR	40419
277	12.633	-8.033	5.0	BAMAKO	18540
278	12.7	28.433	5.0	EN NAHUD	198
279	12.917	74.883	5.0	MANGALORE/BAJPE	2209
280	13.0667	-9.4833	5.0	KITA	4283
281	13.167	32.667	5.0	AROMA	298
282	13.3	-87.1833	5.0	CHOLUTECA	767
283	13.433	-6.283	5.0	SEGOU	22146
284	13.483	22.45	5.0	GENINA	1058
285	13.567	-89.833	5.0	ACAJUTLA	185
286	13.683	44.15	5.0	TAIZ (CIV/MIL)	449
287	13.7	-89.117	5.0	SAN SALVADOR/ILOPAN	689
288	13.75	-60.98	5.0	VIEUX FORT	815
289	13.85	20.85	5.0	ABECHE	4728
290	13.917	-90.817	5.0	SAN JOSE	1220
291	13.917	100.6	5.0	DON MUANG	780
292	14.033	35.4	5.0	GEDAREF	238
293	14.05	-87.25	5.0	TEGUCIGALPA	5493
294	14.067	-83.367	5.0	PUERTO CABEZAS	4028
295	14.117	93.367	5.0	COCO ISLAND	985
296	14.4	33.483	5.0	WAD MEDANI	269
297	14.5	-4.2	5.0	MOPTI-SEVARE	11065
298	14.5333	-90.5667	5.0	GUATEMALA CITY	5620
299	14.75	42.967	5.0	HODEIDAH (CIV/MIL)	542
300	14.8	-17.0667	5.0	THIES	3844
301	14.8	100.617	5.0	LOP BURI	837
302	15.117	105.783	5.0	PAKSE	590
303	15.117	145.733	5.0	SAIPAN/ISLEY (CGS)	7992
304	15.15	76.95	5.0	BELLARY	989
305	15.167	-7.283	5.0	NARA	9645
306	15.283	38.917	5.0	ASMARA	2299
307	15.4167	108.7	5.0	CHU LAI	822
308	15.58	32.55	5.0	AL-KHARTUM	3020
309	15.717	-88.6	5.0	PUERTO BARRIOS	639
310	16.433	101.15	5.0	PHETCHABUN	401
311	16.533	80.8	5.0	VIJAYAWADA/GANNAVA	8012
312	16.55	104.65	5.0	SAVANNAKHET	508
313	16.55	111.617	5.0	HOANG SA (PATTLE)	417
314	16.6	-7.267	5.0	NEMA	14295
315	16.633	-11.4	5.0	KIFFA	4608
316	16.7333	-169.5167	5.0	JOHNSTON IS WSO AP	27741
317	16.7333	-9.6333	5.0	AIOUN ELATROUSS	4231
318	16.883	42.583	5.0	GIZAN	1629
319	16.9	96.183	5.0	MINGALADON	945
320	17.117	-61.783	5.0	COOLIDGE FIELD (UA)	13896
321	17.4	-83.9333	5.0	SWAN ISLAND	22712
322	17.417	104.783	5.0	NAKHON PHANOM	2528
323	17.7	-64.8	5.0	ST CROIX (BENEDICT FIELD)	346
324	17.7	33.967	5.0	ATBARA	361
325	17.9	-62.85	5.0	ST. BARTHELEMY	4048
326	17.95	102.567	5.0	VIENTIANE	2162
327	18.0	19.167	5.0	FAYA	2999
328	18.0167	-66.5	5.0	PONCE LOSEY FIELD	4773
329	18.3	42.8	5.0	KHAMIS MUSHAIT	11138
330	18.433	1.35	5.0	KIDAL	5839
331	18.467	94.35	5.0	SANDOWAY	6057
332	18.55	31.85	5.0	KARIMA	2435
333	18.9	72.82	5.0	COLABA	973
334	18.9167	-155.6833	5.0	MORSE FIELD	492
335	19.05	-69.3833	5.0	SABANA DE LA MAR	4059
336	19.1	108.617	5.0	DONGFANG	6890
337	19.2833	166.65	5.0	WAKE IS	38611
338	19.883	102.133	5.0	LUANG-PRABANG	472
339	19.9	-75.217	5.0	GUANTANAMO BAY NAS	23093
340	20.45	121.967	5.0	BASCO	867
341	20.48	85.87	5.0	CUTTACK	318
342	20.517	-13.067	5.0	ATAR	22233
343	20.57	74.53	5.0	MALEGAON	2563
344	20.667	58.9	5.0	MASIRAH	514
345	20.883	95.9	5.0	MEIKTILA	5141
346	20.899	-156.43	5.0	KAHULUI ARPT/MAUI	19540
347	21.15	-157.1	5.0	MOLOKAI HOMESTEAD FIELD	1921
348	21.217	110.4	5.0	ZHANJIANG	5208
349	21.3	99.617	5.0	KENGTUNG	231
350	21.4	-77.85	5.0	CAMAGUEY	5786
351	21.45	-71.15	5.0	TURKS ISLAND	10548
352	21.47	83.98	5.0	SAMBALPUR	4315
353	22.0333	-159.7833	5.0	BARKING SANDS	5267
354	22.25	91.82	5.0	CHATTAGRAM	1629
355	22.367	106.75	5.0	LONGZHOU	4011
356	22.37	-73.03	5.0	MAYAGUAN	1160
357	22.45	70.083	5.0	JAMNAGAR	895
358	22.5	103.95	5.0	HEKOU	13535
359	22.767	81.9	5.0	PENDRA ROAD	5308
360	22.77	88.37	5.0	BARAKPUR	388
361	22.783	115.367	5.0	SHANWEI	2322
362	23.217	113.483	5.0	GUANGZHOU	28004
363	23.28	69.67	5.0	BHUJ	1679
364	23.73	-99.11	5.0	CIUDAD VICTORIA	1366
365	23.8167	5.15	5.0	IN AMGUEL	144
366	23.8833	100.0833	5.0	LINCANG	2076
367	24.067	105.067	5.0	GUANGNAN	5390
368	24.183	120.65	5.0	TAICHUNG (TW-AFB)	4776
369	24.217	23.3	5.0	KUFRA	6321
370	24.267	9.467	5.0	DJANET	6261
371	24.35	109.4	5.0	LIUZHOU	4445
372	24.7	46.733	5.0	RIYADH OBS.	11578
373	24.83	92.85	5.0	SILCHAR	1477
374	24.8333	113.5	5.0	CHU CHIANG	1393
375	25.0167	102.8333	5.0	KAN-HAI-TZU	598
376	25.067	121.233	5.0	TAOYUAN AB	13298
377	25.233	-11.617	5.0	BIR MOGHREIN	5175
378	25.25	55.37	5.0	SHARJAH	2477
379	25.2667	-76.3	5.0	ELEUTHERA ISLAND	6389
380	25.3667	97.4	5.0	MYITKYINA	3942
381	25.433	105.183	5.0	XINGREN	4750
382	25.433	106.767	5.0	LUODIAN	3236
383	25.45	30.533	5.0	KHARGA	5223
384	25.517	119.783	5.0	PINGTAN	3181
385	25.5667	91.8833	5.0	SHILLONG S06 03Z	280
386	25.667	32.7	5.0	LUXOR	7013
387	25.77	87.52	5.0	PURNEA	179
388	25.8	21.133	5.0	TAZERBO	3989
389	25.85	116.367	5.0	CHANGTING	5057
390	25.88	89.43	5.0	LALMANIR HAT	407
391	25.9	-81.7167	5.0	DELTA SEVEN	436
392	25.967	108.533	5.0	RONGJIANG	2499
393	26.15	119.95	5.0	MAZU (=588490)	4062
394	26.2	36.483	5.0	AL-WEJH	5395
395	26.2333	-97.6667	5.0	HARLINGEN AAF	2317
396	26.267	50.167	5.0	DHAHRAN	17304
397	26.4	-98.35	5.0	MISSION (MOORE FIELD)	2133
398	26.5	8.417	5.0	ILLIZI	502
399	26.6167	-78.3667	5.0	GOLD ROCK CREEK	13583
400	26.717	92.8	5.0	TEZPUR/BINDUKURI	424
401	26.9667	1.0833	5.0	AOULEF	3606
402	26.983	84.85	5.0	RAXAUL	1140
403	27.05	88.3	5.0	DARJEELING	116
404	27.117	114.967	5.0	JIAN	4747
405	27.15	33.717	5.0	HURGUADA	2188
406	27.2	31.12	5.0	ASYUT	4165
407	27.3	105.233	5.0	BIJIE	1335
408	27.333	120.2	5.0	FUDING	4348
409	27.5333	-99.4833	5.0	LAREDO	5690
410	27.6667	98.3833	5.0	LA WANG/TZUKEI	857
411	27.7	68.92	5.0	SUKKUR	668
412	27.7	85.367	5.0	KATHMANDU AIRPORT	651
413	27.95	-80.5667	5.0	VALKARIA	798
414	27.95	108.25	5.0	SINAN	3144
415	28.05	9.633	5.0	IN-AMENAS	12360
416	28.083	30.733	5.0	MINYA	2596
417	28.2	-177.3833	5.0	MIDWAY IS NAS	33263
418	28.45	98.883	5.0	DEQEN	6169
419	28.45	121.883	5.0	DACHEN DAO	18781
420	28.63	77.2	5.0	NEW DEHLI	2068
421	28.633	87.083	5.0	TINGRI	4882
422	28.833	108.767	5.0	YOUYANG	169
423	28.883	-118.3	5.0	ISLA GUADALUPE	13025
424	29.0	135.0	5.0	OCEAN WEATHER SHIP T	5347
425	29.033	21.567	5.0	JALO	3469
426	29.033	101.5	5.0	JIULONG	1437
427	29.05	111.683	5.0	CHANGDE	4719
428	29.117	15.933	5.0	HON	3794
429	29.183	25.517	5.0	SIWA	7069
430	29.25	0.283	5.0	TIMIMOUN	9666
431	29.3	117.2	5.0	JINGDEZHEN	5385
432	29.383	113.083	5.0	YUEYANG	4823
433	29.55	34.95	5.0	EILAT	6192
434	29.5667	94.4667	5.0	NYINGCHI	6509
435	29.75	24.533	5.0	GIARABUB	2551
436	29.967	-95.35	5.0	HOUSTON/INTERCONTIN	1796
437	30.0	-140.0	5.0	OCEAN WEATHER SHIP N	19180
438	30.033	122.117	5.0	DINGHAI	3697
439	30.05	101.967	5.0	KANGDING	3716
440	30.133	-2.167	5.0	BENI-ABBES	7838
441	30.133	9.5	5.0	GHADAMES	5808
442	30.167	35.783	5.0	MAAN	595
443	30.2	-97.6667	5.0	AUSTIN (BERGSTROM FIELD)	1076
444	30.383	-9.567	5.0	AGADIR INEZGANNE	14085
445	30.383	13.583	5.0	GARIAT EL-SHARGHIA	688
446	30.4	-88.9167	5.0	BILOXI (KEESLER AFB)	2014
447	30.483	140.3	5.0	TORISHIMA	6556
448	30.517	47.783	5.0	BASRAH-HUSSEN	2290
449	30.5333	-91.15	5.0	BATON ROUGE (HARDING FIELD)	1485
450	30.717	20.167	5.0	AGEDABIA	3757
451	30.8	106.083	5.0	NANCHONG	8082
452	30.933	-6.9	5.0	OUARZAZATE	8186
453	31.017	46.233	5.0	NASIRIYA	750
454	31.1	-97.717	5.0	FT HOOD AAF/KILLEEN	2923
455	31.2	16.583	5.0	SIRTE	2738
456	31.233	34.783	5.0	BEER-SHEVA	2318
457	31.25	-82.4	5.0	WAYCROSS WARE CO AP	20191
458	31.2667	-89.25	5.0	HATTIESBURG	1210
459	31.35	69.467	5.0	ZHOB	8789
460	31.367	90.017	5.0	BAINGOIN	11427
461	31.367	130.833	5.0	KANOYA AB	464
462	31.4167	-100.4	5.0	MATHIS FLD/S.ANGELO	2501
463	31.5167	-103.1333	5.0	PYOTE (AFB)	1395
464	31.533	25.183	5.0	SALLUM PLATEAU	5346
465	31.617	-8.033	5.0	MARRAKECH	9944
466	31.62	25.93	5.0	SIDI BARRANI	1563
467	31.683	9.3	5.0	EL BORMA	1728
468	31.867	10.983	5.0	NALUT	2037
469	31.867	93.767	5.0	SOG XIAN	7101
470	31.867	117.233	5.0	HEFEI	9149
471	31.9	102.233	5.0	BARKAM	6148
472	31.933	-4.4	5.0	ERRACHIDIA	6598
473	31.933	34.833	5.0	BEER-YA AQOV TO 401790	2572
474	31.9333	5.4	5.0	OUARGLA	2887
475	32.067	108.033	5.0	WANYUAN	3574
476	32.1	23.933	5.0	TOBRUK	7553
477	32.133	114.05	5.0	XINYANG	7884
478	32.1667	-110.8833	5.0	TUCSON (DAVIS-MONTHAN AFB)	236
479	32.2167	-98.1833	5.0	STEPHENVILLE	15234
480	32.2333	-101.5	5.0	BIG SPRING	13868
481	32.25	-107.7167	5.0	DEMING AAF	518
482	32.283	-9.233	5.0	SAFI	1179
483	32.317	10.4	5.0	REMADA	9738
484	32.333	-84.833	5.0	FORT BENNING	3790
485	32.35	-104.25	5.0	CARLSBAD AAF	2356
486	32.35	-94.65	5.0	LONGVIEW WSMO	14445
487	32.35	-88.65	5.0	MERIDIAN (KEY FIELD)	2282
488	32.383	111.667	5.0	GUANGHUA	3239
489	32.4167	-99.6833	5.0	ABILENE MUNI AP	19791
490	32.417	15.05	5.0	MISURATA	1073
491	32.5	-93.6667	5.0	SHREVEPORT BARKSDALE AFB	8274
492	32.5	-85.7667	5.0	TUSKEGEE (AAF)	1157
493	32.5	80.067	5.0	SHIQUANHE	10631
494	32.5167	-92.05	5.0	MONROE (SELMAN FIELD)	2178
495	32.683	-4.733	5.0	MIDELT	2966
496	32.717	133.017	5.0	SHIMIZU	5015
497	32.7333	-117.1667	5.0	SAN DIEGO (LINDBERGH FIELD)	248
498	32.7333	-96.9667	5.0	DALLAS HENSLEY FIELD	505
499	32.883	12.083	5.0	ZUARA	2793
500	32.9	-87.25	5.0	CENTREVILLE WSMO	14447
501	32.9	13.2833	5.0	WHEELUS	18584
502	32.9167	-80.6333	5.0	WALTERBORO AAF	499
503	32.967	114.05	5.0	ZHUMADIAN	6626
504	33.033	40.283	5.0	RUTBAH	2392
505	33.233	126.25	5.0	MOESULPO AB	17945
506	33.37	43.57	5.0	AL HABBANIYAH	5634
507	33.45	-94.0	5.0	TEXARKANA	6925
508	33.4667	-82.0333	5.0	AUGUSTA DANIEL FIELD	2266
509	33.48	-90.98	5.0	GREENVILLE	2188
510	33.5	-90.0833	5.0	GREENWOOD AAF	1164
511	33.567	-86.75	5.0	BIRMINGHAM MUNI	14141
512	33.583	102.967	5.0	RUOERGAI	2991
513	33.6	-114.75	5.0	BLYTHE	2084
514	33.6333	-88.45	5.0	COLUMBUS AAF	401
515	33.683	1.0	5.0	EL-BAYADH	10962
516	33.6833	-78.9333	5.0	MYRTLE BEACH AAF	2003
517	33.7167	-96.6667	5.0	SHERMAN PERRIN FIELD	1179
518	33.783	114.517	5.0	XIHUA	6675
519	33.8	-106.6667	5.0	STALLION SITE	610
520	33.8	99.8	5.0	DARLAG	12064
521	33.883	-5.533	5.0	MEKNES	2167
522	33.95	-83.3167	5.0	ATHENS BEN EPPS AP	28581
523	33.95	92.617	5.0	TUOTUOHE	11291
524	33.98	-98.5	5.0	WICHITA FALLS	113
525	34.0	134.633	5.0	KOMATSUSHIMA AB	445
526	34.0	164.0	5.0	OCEAN WEATHER SHIP V	12375
527	34.05	131.05	5.0	OZUKI AB	303
528	34.15	132.22	5.0	IWAKUNI	2734
529	34.217	-4.0	5.0	TAZA	2441
530	34.217	62.217	5.0	HERAT	1107
531	34.25	108.93	5.0	SIAN	196
532	34.3	-97.0167	5.0	ARDMORE AFB	1195
533	34.417	8.817	5.0	GAFSA	20537
534	34.583	105.75	5.0	TIANSHUI	6899
535	34.6	138.217	5.0	OMAEZAKI	4148
536	34.65	-99.2667	5.0	ALTUS AFB (OKLA)	2675
537	34.6667	-87.3333	5.0	COURTLAND (AAF)	1491
538	34.683	32.817	5.0	EPISKOPI	4391
539	34.683	135.517	5.0	OSAKA	7833
540	34.6833	3.25	5.0	DJELFA	9814
541	34.783	-1.95	5.0	OUJDA	7639
542	34.85	119.133	5.0	GANYU	7452
543	34.9	-120.45	5.0	SANTA MARIA/PUBLIC (CAL)	9786
544	34.917	98.217	5.0	MADOI	6085
545	34.933	136.583	5.0	YOKKAICHI	4758
546	35.0	-48.0	5.0	OCEAN WEATHER SHIP E	8767
547	35.0281	-110.7208	5.0	WINSLOW MUNI AP	47510
548	35.0333	-85.2	5.0	CHATTANOOGA	8998
549	35.083	128.083	5.0	SACHEON AB	8441
550	35.117	36.75	5.0	HAMA	741
551	35.169	128.934	5.0	GIMHAE INTL AIRPORT	5577
552	35.183	-3.85	5.0	AL HOCEIMA	4040
553	35.2	-80.95	5.0	CHARLOTTE MORRIS FIELD	602
554	35.217	93.083	5.0	WUDAOLIANG	5083
555	35.2667	-113.95	5.0	KINGMAN (AAF)	1831
556	35.3333	-94.3667	5.0	FT SMITH CAMP CHAFFEE	5244
557	35.35	1.467	5.0	TIARET	280
558	35.533	35.767	5.0	LATTAKIA	458
559	35.667	10.1	5.0	KAIROUAN	22918
560	35.733	-5.9	5.0	TANGER (AERODROME)	389
561	35.8	140.017	5.0	SHIMOFUSA AB	467
562	35.85	14.483	5.0	LUQA	21963
563	35.867	-78.783	5.0	RALEIGH/RALEIGH-DUR	9591
564	35.9	62.9667	5.0	TAGTABAZAR	13721
565	35.933	39.017	5.0	RAQQA	252
566	35.9667	-116.2667	5.0	SHOSHONE	313
567	35.9667	-83.9167	5.0	KNOXVILLE (ISLAND AIRPORT)	5122
568	36.0333	-102.5333	5.0	DALHART	2180
569	36.05	114.4	5.0	ANYANG	7228
570	36.183	118.15	5.0	YIYUAN	6101
571	36.2	-95.883	5.0	TULSA INTL ARPT(AW)	8677
572	36.217	1.333	5.0	CHLEF	3213
573	36.25	-119.95	5.0	LEMOORE	1341
574	36.3	2.233	5.0	MILIANA	14988
575	36.317	43.15	5.0	MOSUL	884
576	36.333	-97.667	5.0	ENID/VANCE AFB	1147
577	36.333	37.217	5.0	ALEPPO INT. AEROPOR	18332
578	36.4	139.067	5.0	MAEBASHI	5175
579	36.617	128.35	5.0	YECHEON AB	5663
580	36.6667	-121.6167	5.0	SALINAS (AAB)	782
581	36.667	-87.5	5.0	FORT CAMPBELL (AAF)	2026
582	36.7	119.1167	5.0	WEI HSIEN	254
583	36.75	-104.5	5.0	RATON	5905
584	36.767	126.467	5.0	SEOSAN	566
585	36.77	3.05	5.0	ALGER	2691
586	36.85	11.083	5.0	KELIBIA	18563
587	36.867	30.733	5.0	ANTALYA	1476
588	36.883	6.9	5.0	SKIKDA	639
589	36.8833	-93.9	5.0	MONETT	18071
590	36.8833	-76.2	5.0	NORFOLK/MUNI (VA)	27148
591	37.017	-7.967	5.0	FARO/AEROPORTO	1831
592	37.05	41.217	5.0	KAMISHLI	136
593	37.0667	-88.7667	5.0	PADUCAH BARKLEY FLD	4390
594	37.1	-113.6	5.0	ST. GEORGE	591
595	37.1	128.8667	5.0	SANGDONG	294
596	37.233	9.817	5.0	BIZERTE	7207
597	37.233	67.267	5.0	TERMEZ	20099
598	37.317	97.217	5.0	DELINGHA	10750
599	37.3333	-79.2	5.0	LYNCHBURG	4148
600	37.3667	-120.5667	5.0	CASTLE AFB	3294
601	37.367	-118.367	5.0	BISHOP AIRPORT	1144
602	37.4	122.683	5.0	CHENGSHANTOU	15581
603	37.433	-105.867	5.0	ALAMOSA MUNI(AWOS)	921
604	37.433	127.95	5.0	WONJU AB	6345
605	37.467	53.967	5.0	ESENGYLY	36098
606	37.47	15.07	5.0	CATANIA	912
607	37.4833	116.3667	5.0	TE HSIEN/TECHOW	498
608	37.5	71.5	5.0	KHOROG	28898
609	37.617	120.317	5.0	LONGKOU	8328
610	37.65	-97.433	5.0	WICHITA/MID-CONTINE	23414
611	37.75	128.95	5.0	GANGNEUNG AB	6015
612	37.78	12.45	5.0	MARSALA	112
613	37.783	-81.117	5.0	BECKLEY	114
614	37.783	-0.8	5.0	MURCIA/SAN JAVIER	1000
615	37.85	91.65	5.0	MANGYA	1192
616	37.85	95.367	5.0	DA-QAIDAM	5439
617	37.917	139.05	5.0	NIIGATA	2033
618	37.93	83.65	5.0	ANDIR	14362
619	37.987	58.361	5.0	ASHGABAT KESHI	38470
620	38.0	-71.0	5.0	OCEAN WEATHER SHIP H	3274
621	38.05	-103.52	5.0	LA JUNTA	164
622	38.0667	-117.0833	5.0	TONAPAH APRT (NEV)	3624
623	38.1833	-85.7333	5.0	LOUISVILLE	7439
624	38.2	15.55	5.0	MESSINA	5442
625	38.3667	-82.55	5.0	HUNTINGTON TRI STATE AP	35391
626	38.373	-81.6	5.0	YEAGER	1619
627	38.417	-113.017	5.0	MILFORD MUNICIPAL	774
628	38.433	77.267	5.0	SHACHE	15714
629	38.55	68.783	5.0	DUSHANBE	35803
630	38.65	-88.9667	5.0	SALEM LECKRONE AP	15223
631	38.72	-9.15	5.0	LISBOA/GEOFISICO	669
632	38.733	48.833	5.0	LANKARAN	33653
633	38.733	115.483	5.0	BAODING	9153
634	38.7333	-93.5667	5.0	KNOBNOSTER SEDALIA AFB	1436
635	38.7667	-87.6167	5.0	LAWRENCEVILLE GEORGE FIELD	1385
636	38.8	-97.63	5.0	SALINA	3551
637	38.817	-92.217	5.0	COLUMBIA REGIONAL	19320
638	38.817	35.433	5.0	KAYSERI/ERKILET	1942
639	38.833	93.383	5.0	LENGHU	15645
640	38.8833	-79.85	5.0	ELKINS	10236
641	38.95	-121.07	5.0	AUBURN	133
642	38.95	-95.6667	5.0	TOPEKA (FORBES AFB)	1930
643	39.083	63.6	5.0	CHARDZHEV	36014
644	39.1	-96.767	5.0	FT RILEY/MARSHALL A	1222
645	39.1	107.983	5.0	OTOG QI	9443
646	39.2	45.417	5.0	NAXCIVAN	914
647	39.283	109.75	5.0	CHASAKOCHI	3515
648	39.295	-114.8453	5.0	ELY YELLAND FLD AP	48437
649	39.367	-101.7	5.0	GOODLAND/RENNER FIE	8448
650	39.383	111.15	5.0	HEQU	8713
651	39.6667	118.1167	5.0	TANG SHAN	251
652	39.7167	-104.9	5.0	DENVER (LOWRY FIELD)	878
653	39.783	105.75	5.0	JARTAI	9470
654	39.8	78.567	5.0	BACHU	9060
655	39.8333	-89.6667	5.0	SPRINGFIELD	11873
656	39.867	4.233	5.0	MENORCA/MAHON	165
657	39.9	116.47	5.0	PEIPING	701
658	39.983	46.75	5.0	KHANKANDY	657
659	40.1	113.333	5.0	DATONG	8658
660	40.12	-103.17	5.0	AKRON	214
661	40.2	-8.417	5.0	COIMBRA	458
662	40.2167	-76.85	5.0	HARRISBURG	11420
663	40.217	69.733	5.0	KHUDJAND	382
664	40.267	97.033	5.0	YUMENZHEN	2942
665	40.3833	-75.9667	5.0	READING AAF	1035
666	40.433	-80.0	5.0	PITTSBURGH/EMSU	544
667	40.55	70.95	5.0	KOKAND	7416
668	40.633	87.7	5.0	TIKANLIK	16175
669	40.6667	-89.6833	5.0	PEORIA GTR PEORIA AP	29195
670	40.733	-114.033	5.0	WENDOVER/AF. AUX. F	1089
671	40.783	43.833	5.0	GUMRI	147
672	40.85	35.583	5.0	MERZIFON	1796
673	40.9019	-117.8072	5.0	WINNEMUCCA MUNI AP	43590
674	40.917	72.95	5.0	DZHALAL-ABAD	30741
675	40.933	78.45	5.0	AKQI	5651
676	40.95	-5.5	5.0	SALAMANCA/MATACAN	173
677	40.967	117.917	5.0	CHENGDE	6676
678	40.97	107.17	5.0	XAMBA	1094
679	41.0	-85.2	5.0	FORT WAYNE/BAER FLD	9534
680	41.0333	-81.4833	5.0	AKRON	11543
681	41.1167	122.95	5.0	AN SHAN	362
682	41.22	-103.1	5.0	SYDNEY	677
683	41.233	-8.683	5.0	PORTO/PEDRAS RUBRAS	1615
684	41.25	-76.917	5.0	WILLIAMSPORT/LYCOMI	463
685	41.26	80.3	5.0	WEN-SU	9162
686	41.3667	-71.4833	5.0	POINT JUDITH	1724
687	41.433	76.0	5.0	NARYN	13926
688	41.45	31.8	5.0	ZONGULDAK	304
689	41.45	106.383	5.0	HAILS	4738
690	41.5	-88.1667	5.0	JOLIET	7402
691	41.5	-74.1	5.0	NEWBURGH/STEWART AFB	3104
692	41.533	-93.65	5.0	DES MOINES INTL	11917
693	41.55	46.667	5.0	ZAKATALA	424
694	41.6	-109.0667	5.0	ROCK SPRINGS	20297
695	41.6	-83.8	5.0	TOLEDO EXPRESS	14112
696	41.633	41.6	5.0	BATUMI	7554
697	41.65	25.367	5.0	KURDJALI	9983
698	41.7	-86.3167	5.0	SOUTH BEND ST JOSEPH	612
699	41.717	-4.85	5.0	VALLADOLID/VILLANUB	206
700	41.733	64.617	5.0	TAMDY	24209
701	41.75	103.9667	5.0	PANG-TING-TO-TO-KAI	1057
702	41.7833	95.1333	5.0	XING-XING-XIA	122
703	41.8	12.233	5.0	ROMA FIUMICINO	25186
704	41.833	59.983	5.0	DASHKHOVUZ	40766
705	42.0833	-91.6167	5.0	CEDAR RAPIDS ECHO SI	1310
706	42.2	-1.45	5.0	BARDENAS REALES	4866
707	42.4	-96.383	5.0	SIOUX CITY MUNI	9727
708	42.4	112.9	5.0	JURH	11935
709	42.45	-2.333	5.0	LOGRONO/AGONCILLO	349
710	42.583	-5.65	5.0	LEON/VIRGEN DEL CAM	200
711	42.5833	-100.0	5.0	AINSWORTH AAF	1523
712	42.7	-68.3	5.0	ENVIRONM BUOY 44005	574
713	42.8167	-108.7333	5.0	LANDER HUNT FLD AP	34519
714	42.9167	-112.5333	5.0	POCATELLO	11754
715	42.933	89.2	5.0	TURPAN	10824
716	42.95	-87.9	5.0	MILWAUKEE WI AIRPORT	11003
717	42.9667	-83.75	5.0	FLINT BISHOP AP	29048
718	43.0	1.1	5.0	SAINT GIRONS	158
719	43.017	41.033	5.0	SUKHUMI (AGMS)	37578
720	43.0667	-76.2667	5.0	SYRACUSE	12089
721	43.167	-86.25	5.0	MUSKEGON	10171
722	43.2	107.167	5.0	HANBOGD	2539
723	43.23	-75.4	5.0	ROME	8975
724	43.483	91.633	5.0	SHISANJIANFANG	15467
725	43.517	16.433	5.0	SPLIT/MARJAN	4568
726	43.6	118.067	5.0	LINXI	3300
727	43.633	1.367	5.0	TOULOUSE BLAGNAC	1937
728	43.75	24.883	5.0	TR. MAGURELE	218
729	43.88	-69.93	5.0	BRUNSWICK	965
730	43.917	-0.5	5.0	MONT-DE-MARSAN	166
731	43.9333	-91.2833	5.0	LA CROSSE	9613
732	43.983	119.4	5.0	LINDONG	4651
733	44.0	-41.0	5.0	OCEAN WEATHER SHIP D	9766
734	44.017	89.567	5.0	QITAI	9992
735	44.017	145.867	5.0	JUZHNO-KURILSK	37102
736	44.05	43.03	5.0	PJATIGORSK	230
737	44.117	-123.217	5.0	EUGENE/MAHLON SWEET	5856
738	44.167	80.067	5.0	ZHARKENT	23543
739	44.2667	-71.3	5.0	MOUNT WASHINGTON	506
740	44.317	23.867	5.0	CRAIOVA	548
741	44.3833	-98.2167	5.0	HURON RGNL AP	33451
742	44.55	50.25	5.0	FORT SHEVCHENKO	1177
743	44.567	129.6	5.0	MUDANJIANG	4789
744	44.583	4.733	5.0	MONTELIMAR	189
745	44.583	117.6	5.0	XI UJIMQIN QI	8443
746	44.617	82.9	5.0	JINGHE	10505
747	44.617	114.15	5.0	NARAN BULAG	14093
748	44.62	33.53	5.0	SEWASTOPOL	723
749	44.633	22.633	5.0	DROBETA TURNU SEVER	953
750	44.7833	20.5333	5.0	BEOGRAD/SELENO BRD	8769
751	44.9	110.117	5.0	SAINSHAND	17817
752	45.0	-16.0	5.0	OCEAN WEATHER SHIP K	2558
753	45.0	136.6	5.0	TERNEJ	35417
754	45.15	26.817	5.0	BUZAU	652
755	45.15	29.667	5.0	SULINA	178
756	45.5	28.2	5.0	GALATI	7351
757	45.55	-94.0667	5.0	ST CLOUD MUNI AP	35321
758	45.667	-0.317	5.0	COGNAC	356
759	45.717	4.95	5.0	LYON-BRON	10582
760	45.767	106.283	5.0	MANDALGOBI	3030
761	45.8	-108.533	5.0	BILLINGS/LOGAN INT.	18423
762	45.867	1.183	5.0	LIMOGES	190
763	45.867	22.9	5.0	DEVA	887
764	45.9667	-112.5	5.0	BUTTE	12098
765	46.0	18.233	5.0	PECS/POGANY	127
766	46.18	45.35	5.0	YASHKUL	3336
767	46.2	150.5	5.0	URUP	29544
768	46.374	-117.015	5.0	LEWISTON NEZ PERCE	432
769	46.533	24.533	5.0	TG. MURES	1169
770	46.5667	-87.4	5.0	MARQUETTE	8748
771	46.583	26.983	5.0	BACAU	1500
772	46.767	-56.167	5.0	SAINT-PIERRE	690
773	46.783	61.65	5.0	ARALSKOE MORE	40172
774	46.8	75.083	5.0	BALHASH	36009
775	46.817	130.333	5.0	CHIAMUSSU	2815
776	46.833	-92.183	5.0	DULUTH INTL AIRPORT	8808
777	46.85	1.7167	5.0	CHATEAUROUX	5082
778	46.85	151.8667	5.0	SIMUSIR	4608
779	46.9	-96.8	5.0	FARGO/HECTOR FIELD	15380
780	46.917	-114.083	5.0	MISSOULA/JOHNSON-BE	15882
781	47.0	-15.0	5.0	WEATHERSHIP K CIRRUS	477
782	47.033	21.9	5.0	ORADEA	822
783	47.0333	-120.5167	5.0	ELLENSBURG	10146
784	47.15	-1.6	5.0	NANTES	256
785	47.167	27.633	5.0	IASI	1100
786	47.1833	-119.3167	5.0	MOSES LAKE (LARSON AFB)	344
787	47.267	5.083	5.0	DIJON	234
788	47.267	16.633	5.0	SZOMBATHELY	183
789	47.3	-54.0	5.0	ARGENTIA	11299
790	47.383	123.917	5.0	QIQIHAR	17927
791	47.45	101.467	5.0	TSETSERLEG	2069
792	47.567	-59.15	5.0	PORT-AUX-BASQUES	2303
793	47.633	26.25	5.0	SUCEAVA	513
794	47.6667	-117.3333	5.0	SPOKANE (FELTS FIELD)	7917
795	47.733	130.967	5.0	EKATERINO-NIKOLSKOE	30472
796	47.75	96.85	5.0	ULIASTAI	1923
797	47.8	3.55	5.0	AUXERRE	185
798	47.95	-97.4	5.0	GRAND FORKS AFB	517
799	47.983	8.9	5.0	NEUHAUSEN OB ECK	13874
800	48.017	91.567	5.0	HOVD	3097
801	48.02	7.83	5.0	FREIBURG	1516
802	48.07	5.03	5.0	CHAUMONT	4616
803	48.1333	-123.4167	5.0	PORT ANGELES	3357
804	48.354	11.786	5.0	MUNICH/RIEM	20686
805	48.3833	-124.7333	5.0	TATOOSH ISLAND WB	21960
806	48.55	-109.767	5.0	HAVRE (AMOS)	690
807	48.65	144.75	5.0	M. TERPENIYA (FL)	7763
808	48.667	116.817	5.0	XIN BARAG YOUQI	12550
809	48.7	-8.9167	5.0	ENVIRONM BUOY 62027	215
810	48.8	103.55	5.0	BULGAN	2639
811	48.917	106.067	5.0	BARUUNHARAA	2895
812	48.95	-97.25	5.0	PEMBINA	2575
813	49.067	20.25	5.0	POPRAD/TATRY	15541
814	49.2	-123.167	5.0	VANCOUVER INT. AIRP	14056
815	49.3	4.033	5.0	REIMS	179
816	49.6	34.55	5.0	POLTAVA	634
817	49.633	-112.8	5.0	LETHBRIDGE AWOS	9936
818	49.75	10.2	5.0	KITZINGEN AAF	631
819	49.9	-97.233	5.0	WINNIPEG INT.AIRPOR	16336
820	50.0	-145.0	5.0	OCEAN WEATHER SHIP P	12221
821	50.0	88.667	5.0	KOS-AGAC	10486
822	50.017	155.4	5.0	M. VASILYEV	34757
823	50.1	14.2833	5.0	PRAHA/RUZYNE	8770
824	50.133	1.833	5.0	ABBEVILLE	116
825	50.133	65.233	5.0	AMANGELDY	15887
826	50.233	-119.283	5.0	VERNON AUTO	15732
827	50.28	-64.17	5.0	MINGAN	632
828	50.28	21.43	5.0	MIELEC	738
829	50.383	-102.683	5.0	BROADVIEW	8722
830	50.417	80.3	5.0	SEMIPALATINSK	42269
831	50.433	-104.667	5.0	REGINA INTL	6105
832	51.02	11.03	5.0	ERFURT	465
833	51.083	-0.217	5.0	CRAWLEY	37592
834	51.1	-100.05	5.0	DAUPHIN AIRPORT	2648
835	51.11	13.67	5.0	WAHNSDORF	40165
836	51.117	-114.017	5.0	CALGARY INTL	15534
837	51.133	-106.583	5.0	ELBOW CS	165
838	51.1333	71.3667	5.0	CELINOGRAD	167
839	51.1833	40.7	5.0	KAMENNAYA STEP NO2	6225
840	51.25	51.4	5.0	URALSK	34602
841	51.3833	179.25	5.0	AMCHITKA ISLAND	1908
842	51.4	-3.35	5.0	CARDIFF-WALES ARPT	890
843	51.517	-109.183	5.0	KINDERSLEY ARPT	914
844	51.717	126.65	5.0	HUMA	6620
845	51.733	6.267	5.0	KALKAR	3052
846	51.85	10.7667	5.0	WERNIGERODE	9806
847	51.883	-176.65	5.0	ADAK (NAS)	33391
848	51.9833	177.5667	5.0	KISKA ISLAND	308
849	52.05	29.25	5.0	MOZYR (AMOS)	6912
850	52.167	-106.717	5.0	SASKATOON DIEFENBAKE	2309
851	52.267	7.433	5.0	NORDHORN	5346
852	52.267	104.317	5.0	IRKUTSK	39087
853	52.417	16.85	5.0	POZNAN	31288
854	52.433	-114.917	5.0	ROCKY MTN HOUSE	1475
855	52.467	9.7	5.0	HANNOVER	44613
856	52.483	13.417	5.0	BERLIN/TEMPELHOF	30570
857	52.5	-20.0	5.0	OCEAN WEATHER SHIP J	2559
858	52.733	41.467	5.0	TAMBOV	38381
859	52.75	-35.5	5.0	OCEAN WEATHER SHIP C	13900
860	52.8	-2.667	5.0	SHAWBURY	561
861	52.8	173.16	5.0	ATTU ISLAND	3463
862	53.05	158.33	5.0	NIKOLAEVKA	127
863	53.067	132.983	5.0	EKIMCHAN	29232
864	53.2	-70.9	5.0	NITCHEQUON	15444
865	53.217	-105.667	5.0	PRINCE ALBERT ARPT	9605
866	53.25	50.45	5.0	SAMARA	39657
867	53.38	-167.9	5.0	UMNAK ISLAND	2799
868	53.5333	7.8833	5.0	JEVER	872
869	53.55	-2.917	5.0	AUGHTON	43285
870	53.6167	109.6333	5.0	BARGUZIN	6508
871	53.7333	87.1833	5.0	ABAGUR	181
872	53.833	-89.867	5.0	TROUT LAKE	15743
873	53.85	-94.65	5.0	ISLAND LAKE ARPT	4067
874	53.883	-122.667	5.0	PRINCE GEORGE	30854
875	53.9	-166.53	5.0	DUTCH HARBOR	2953
876	53.933	27.633	5.0	MINSK	43880
877	54.0	123.967	5.0	SKOVORODINO	31293
878	54.2	16.1833	5.0	KOSZALIN	1537
879	54.3	-1.533	5.0	LEEMING	777
880	54.62	-113.33	5.0	MEANOOK	101
881	54.65	-6.2167	5.0	BELFAST/ALDERGROVE ARPT	4234
882	54.8	105.167	5.0	ZHIGALOVO	35584
883	55.283	-114.783	5.0	SLAVE LAKE AIRPORT	13183
884	55.317	-3.2	5.0	ESKDALEMUIR	233
885	55.35	-131.65	5.0	KETCHIKAN	5932
886	55.6333	12.6667	5.0	KOBENHAVN/KASTRUP	8553
887	56.0	92.883	5.0	KRASNOYARSK	40900
888	56.433	-2.867	5.0	SHANWELL	35061
889	56.483	21.017	5.0	LIEPAJA	26905
890	56.5	-51.0	5.0	OCEAN WEATHER SHIP B	11583
891	56.65	-111.217	5.0	FORT MCMURRAY ARPT	11470
892	56.8	60.6	5.0	SWERDLOWSK	171
893	57.1	9.867	5.0	FLYVESTATION AALBOR	4824
894	57.2	-2.217	5.0	ABERDEEN/DYCE AIRPO	421
895	57.58	39.58	5.0	JAROSLAVL	529
896	57.817	28.333	5.0	PSKOV	39213
897	58.37	-134.58	5.0	JUNEAU	15260
898	59.0	-19.0	5.0	OCEAN WEATHER SHIP I	2647
899	59.35	17.95	5.0	STOCKHOLM/BROMMA	41574
900	59.78	21.37	5.0	UTO	674
901	59.97	11.03	5.0	KJELLER	1688
902	60.2	-166.1	5.0	NUNIVAK AAF	100
903	60.3167	24.9667	5.0	HELSINKI/SEUTALA	4544
904	60.38	5.33	5.0	BERGEN	179
905	60.4833	-145.5	5.0	CORDOVA	2276
906	60.57	28.63	5.0	SUUR-MERIJOKI	418
907	60.88	26.97	5.0	UTTI	630
908	61.08	-69.55	5.0	CAPE HOPES ADVANCE STATION	661
909	61.25	-149.8	5.0	ANCHORAGE ELMENDORF FIELD	223
910	61.267	108.2	5.0	ERBOGACEN	35974
911	61.95	160.8667	5.0	GIZIGA	28015
912	62.0	-33.0	5.0	OCEAN WEATHER SHIP A	7562
913	62.1	42.9	5.0	SENKURSK	255
914	62.1167	-163.75	5.0	MOUNTAIN VILLAGE	147
915	62.7833	148.1333	5.0	SUSUMAN	12807
916	62.85	149.76	5.0	SHTURMOVOY	2661
917	62.97	-141.96	5.0	NORTHWAY	12371
918	63.017	179.283	5.0	BERINGOVSKAJA	25831
919	63.12	23.08	5.0	KAUHAVA	611
920	63.183	14.5	5.0	OSTERSUND/FROSON	16859
921	63.32	30.5	5.0	LIEKSA	148
922	63.3333	-149.15	5.0	SUMMIT	2843
923	63.43	-51.18	5.0	MARRAK POINT	353
924	63.5	-90.7	5.0	CHESTERFIELD INLET	472
925	63.85	-171.6	5.0	GAMBELL	8490
926	63.9	-160.7833	5.0	UNALAKLEET	1191
927	64.0	-145.733	5.0	FT GREELY/ALLEN AAF	1398
928	64.383	-173.233	5.0	BUHTA PROVIDENJA	27529
929	64.683	170.417	5.0	MARKOVO	33706
930	64.7167	-156.9	5.0	GALENA	571
931	64.917	77.817	5.0	TARKO-SALE	33211
932	65.6167	-168.05	5.0	WALES	863
933	65.93	-36.68	5.0	IKATEQ	111
934	66.0	2.0	5.0	OCEAN WEATHER SHIP M	2031
935	66.167	-169.833	5.0	MYS UELEN	30932
936	66.567	-145.267	5.0	FORT YUKON	133
937	67.0	-50.8	5.0	KANGERLUSSUAK	3155
938	67.47	86.57	5.0	IGARKA	13709
939	67.8167	-115.0833	5.0	COPPERMINE	14703
940	68.23	-135.0	5.0	AKLAVIK	7053
941	68.47	17.5	5.0	NARVIK	128
942	68.47	73.6	5.0	MYS KAMENNY	29022
943	68.65	43.3	5.0	KANIN NOS	4393
944	68.92	-179.48	5.0	MYS SHMIDTA	33429
945	69.3667	-152.1333	5.0	UMIAT	611
946	69.4	86.17	5.0	DUDINKA	5076
947	69.7	19.02	5.0	TROMSO	3783
948	69.783	61.783	5.0	AMDERMA	34229
949	70.1333	-143.6333	5.0	BARTER ISLAND WSO AP	25677
950	70.42	-21.97	5.0	KAP TOBIN	18381
951	70.45	-68.55	5.0	CLYDE RIVER	13851
952	70.967	-178.65	5.0	OSTROV VRANGELYA	29474
953	71.17	-24.4	5.0	OSTSTATION	106
954	72.0	-125.27	5.0	SACHS HARBOUR	22298
955	73.0	-85.3	5.0	ARCTIC BAY (NWT)	7539
956	73.2	143.533	5.0	MYS SHALAUROVA	27652
957	73.33	70.03	5.0	IM POPOVA	11828
958	74.67	112.93	5.0	OSTROV PREOBRAZHENIA	28488
959	76.15	152.83	5.0	OSTROV ZOHOVA	20328
960	76.1833	62.5667	5.0	RUSSKAJA GAVAN	246
961	76.25	-119.35	5.0	MOULD BAY	34676
962	76.95	68.58	5.0	MYS ZHELANIA	29248
963	77.23	-62.33	5.0	THULE	119
964	77.5	82.23	5.0	OSTROV UEDINENIA	24206
965	77.72	104.28	5.0	MYS CHELIUSKINA	657
966	78.8	-103.5	5.0	ISACHSEN	21510
967	79.5	76.98	5.0	OSTROV VIZE	26148
968	80.05	18.3	5.0	KINNVIKA STATION	259
969	80.45	52.8	5.0	BUKHTA TIKHAYA/GUKER IS.	4385
970	81.6	-16.67	5.0	NORD	10981
971	-78.35	-163.025	5.6	LITTLE AMERICA,LITTLE AMERICA	1819
972	-77.85	-39.95835	5.6	GENERAL BELGRANO,ELLSWORTH IGY	3920
973	-36.9335	174.79000000000002	5.6	AUCKLAND AIRPORT,AUCKLAND	26042
974	-14.989999999999998	40.67	5.6	LUMBO,MOSSURIL	5616
975	-11.6665	33.81699999999999	5.6	MZIMBA,MZUZU	8106
976	-8.525	126.4835	5.6	KOMORO,BAU CAU	6939
977	-7.649850000000001	110.5915	5.6	ADISUCIPTO/JOGYAKAR,SURAKARTA/ADISUMARM	6614
978	-6.725	107.625	5.6	BANDUNG/HUSEIN,KALIJATI	3518
979	-4.375	15.3415	5.6	KINSHASA/NDJILI,KINSHASA/BINZA	1037
980	-0.23349999999999999	35.008500000000005	5.6	KERICHO,KISUMU	10864
981	0.7499999999999999	35.15	5.6	ELDORET,KITALE	11263
982	3.1085000000000003	101.6	5.6	PETALING JAYA,KUALA LUMPUR SUBANG	34224
983	9.975	98.6	5.6	VICTORIA POINT,RANONG	4161
984	10.541999999999998	-71.69149999999999	5.6	LA CANADA,MARACAIBO-LA CHINIT	1487
985	10.807311320754717	106.94964716981131	5.9	BIEN HOA (VVBH),BARIA (PHUOC LE),AN LOC	1812
986	13.983350000000002	108.33335	5.6	AN KHE (VVAK),PLEIKU AB	922
987	14.457650000000001	-11.43665	5.6	KAYES,KAYES/DAG-DAG	28913
988	15.140811320754716	120.40096226415095	5.9	CROW VALLEY GUNNERY,SUBIC BAY WEATHER,CLARK AB	40252
989	15.45	44.1915	5.6	SANAA,SANA'A (CIV/MIL)	2841
990	15.616499999999998	73.72349999999999	5.6	GOA/DABOLIM AIRPORT,VENGURLA	2023
991	16.68459811320755	107.26820566037736	5.9	DONG HA,HUE/PHU BAI,QUANG TRI	2118
992	18.375	-67.1333	5.6	MAYAGUEZ,AGUADILLA RAMEY AFB	6815
993	22.2335	120.5915	5.6	467590,DONGGANG (=595530)	26550
994	22.7165	-12.5915	5.6	FORT GOURAUD,ZOUERATE	12816
995	23.208499999999997	120.3	5.6	TAINAN (TW-AFB),CHIAYI (TW-AFB)	12503
996	23.1335	-82.39000000000001	5.6	VILLA SAN CRISTOBAL DE LA HABA,CASA BLANCA	9746
997	24.3665	118.258	5.6	CHIANGYANG,CHINMEM/SHATOU(AFB)	10508
998	24.816499999999998	73.78999999999999	5.6	UDAIPUR,KANKROLI/RAJSAMAND	2786
999	25.5	28.993499999999994	5.6	DAKHLA,AL-DAKHLA	7513
1000	26.533499999999997	127.7665	5.6	KADENA AB,IEJIMA AUXILIARY AB	25751
1001	26.5257	-80.09970000000001	5.6	BOCA RATON (AAF),WEST PALM BEACH INTL AP	15396
1002	26.608299999999996	-81.78335	5.6	FORT MYERS (PAIGE FIELD),FORT MYERS (BUCKINGHAM AAF)	1286
1003	27.558349999999997	-81.34984999999999	5.6	SEBRING HENDRICKS FIELD,AVON PARK GUNNERY R	13029
1004	27.524196226415096	-82.49558867924529	5.9	TAMPA MACDILL FIELD,VENICE (AAF),SARASOTA AAF	2510
1005	28.351499999999998	28.898500000000002	5.6	BAHARIA,AL-WAHAT AL-BAHRIYA	7028
1006	28.80835	-97.01669999999999	5.6	VICTORIA (ALOE AAF),VICTORIA RGNL AP	19942
1007	28.641509433962266	-81.54464528301887	5.9	LEESBURG (AAF),ORLANDO (PINECASTLE AAF),ORLANDO (AAB)	3240
1008	29.1	-100.7	5.6	EAGLE PASS (AAF),DEL RIO TEXAS	18396
1009	29.158299999999997	-89.38335	5.6	BURRWOOD,BOOTHVILLE WSCMO CIT	27347
1010	29.511296226415098	-98.38019056603773	5.9	SAN ANTONIO RANDOLPH AFB,SAN ANTONIO FORT SAM HOUSTON,SAN ANTONIO INTL AP	26399
1011	30.2	-89.8083	5.6	NEW ORLEANS (AAB),NASA MISS. TEST	1504
1012	29.877277358490566	-85.37631132075471	5.9	PANAMA CITY (TYNDALL FIELD),CAPE SAN BLAS SITE D 3,APALACHICOLA MUNI	16111
1013	30.0179716981132	31.44429245283019	5.9	CAIRO,AL-MINYA,ALMAZA	11488
1014	30.47428301886792	-86.67775094339622	5.9	EGLIN AFB RANGE NO.,PENSACOLA FOREST SHERMAN NAS,HURLBURT FIELD (AF)	4240
1015	30.64835	-96.51500000000001	5.6	BRYAN,COLLEGE STATION (BRYAN AFB)	2651
1016	30.658299999999997	-88.15	5.6	MOBILE (BROOKLEY AFB),MOBILE	11613
1017	30.93315	-93.19985	5.6	DE RIDDER (AFB),FORT POLK (ARMY)	2376
1018	31.05	-83.45	5.6	VALDOSTA MOODY AFB,MOULTRIE SPENCE FIELD	3706
1019	31.1385	29.866499999999995	5.6	DEKHEILA/AL DAKHELA,ALEXANDRIA/NOUZHA	2862
1020	31.2665	32.26649999999999	5.6	BUR SAID,PORT SAID/EL GAMIL	5607
1021	31.100941509433966	-85.16823018867925	5.9	DOTHAN (NAPIER FIELD),MARIANNA (AAF),BAINBRIDGE AAF	3917
1022	31.32418867924528	-92.454	5.9	ALEXANDRIA (ESLER FIELD),CLAIBORNE RNG (AFS),ALEXANDRIA	5329
1023	31.524849999999997	-109.97484999999999	5.6	DOUGLAS (AAF),FORT HUACHUCA	11003
1024	31.589999999999996	-84.10164999999999	5.6	ALBANY,ALBANY TURNER FIELD	1030
1025	31.625149999999998	-97.14185	5.6	WACO RGNL,WACO (JAMES CONNALLY AFB)	11745
1026	31.94185	-81.38315	5.6	FORT STEWART RESERV,SAVANNAH HUNTER AFB	5591
1027	32.26649999999999	35.9165	5.6	AMMAN AIRPORT,IRBED	2006
1028	32.34165	-90.5583	5.6	JACKSON (AAB),VICKSBURG	4967
1029	32.375	-86.61665	5.6	SELMA CRAIG AFB,MONTGOMERY (GUNTER FIELD)	2757
1030	32.66665	-83.625	5.6	WARNER ROBINS ROBINS AFB,MACON COCHRAN FIELD	3363
1031	32.7915	22.232999999999997	5.6	DERNA,SHAHAT	6120
1032	32.84185	-116.04985000000002	5.6	EL CENTRO NAF,MOUNT LAGUNA	1966
1033	33.033500000000004	130.1085	5.6	NAGASAKI AIRPORT,SAGA AIRPORT	1005
1034	33.35	-104.53315	5.6	ROSWELL/INDUSTRIAL,ROSWELL	11787
1035	33.61665000000001	-102.025	5.6	REESE AFB,LUBBOCK/MUNI (TEX)	3650
1036	33.7333	-116.35835000000002	5.6	THERMAL (AAF),PALM SPRINGS (AAF)	1759
1037	34.075	-77.95835	5.6	OAK ISLAND,WILMINGTON (NEW HANOVER AP)	2682
1038	33.931603773584904	-80.65039245283019	5.9	SHAW AFB/SUMTER,POINSETT RANGE,COLUMBIA AAB	7611
1039	34.175	-6.68335	5.6	RABAT,KENITRA PORT LYAUTEY	12678
1040	34.34165	-117.3083	5.6	SAN BERNARDINO (NORTON AFB),VICTORVILLE (GEORGE AFB)	4168
1041	34.2	-118.71669999999999	5.6	OXNARD (FLIGHT STRIP),BURBANK	19008
1042	34.34165	-103.55834999999999	5.6	MELROSE GUNNERY RAN,CLOVIS AAF	2278
1043	34.8417	-82.16665	5.6	GREENVILLE DONALDSON AFB,SPARTANBURG	19469
1044	34.9665	-79.14984999999999	5.6	LAURINBURG (MAXTON AAB),FORT BRAGG/SIMMONS	2213
1045	35.1315	139.7515	5.6	TATEYAMA AB,YOKOSUKA	1947
1046	35.27385	-116.35664999999999	5.6	BAKER,BICYCLE LAKE (AAF)	2252
1047	35.46685	-75.725	5.6	CAPE HATTERAS WB BLDG,DARE COUNTY GUNNERY	48399
1048	35.3	-117.2665	5.6	CUDDLEBACK GUNNERY,SUPERIOR VALLEY GUN	6790
1049	35.48350000000001	8.4	5.6	TEBESSA,THALA	16947
1050	35.933499999999995	-89.675	5.6	DYERSBURG AAF,BLYTHEVILLE AFB	2196
1051	35.9415	129.0335	5.6	DAEGU AB,POHANG AB	6547
1052	35.81509433962264	-86.43646226415095	5.9	SMYRNA SEWART AFB,TULLAHOMA WILLIAM NORTHERN AAF,MURFREESBORO	6918
1053	36.45	5.1585	5.6	SETIF,BEJAIA-AEROPORT	17970
1054	36.716499999999996	8.775	5.6	JENDOUBA,TABARKA	24747
1055	36.6665	127.4665	5.6	CHEONGJU,CHEONGJU INTL AIRPO	6428
1056	36.80022641509434	-116.00607169811319	5.9	YUCCA FLATS TEST 21,INDIAN SPRINGS GUNN,JACKASS FLATS	14493
1057	37.4667	-122.125	5.6	SAN JOSE/EMSU,SAN FRANCISCO	1623
1058	37.51665	-77.37485	5.6	RICHMOND/BYRD FIELD,RICHMOND CITY	17848
1059	37.47428301886792	126.90662264150944	5.9	GIMPO INTL AIRPORT,SV RI SAN,SEOUL AB	23474
1060	38.291700000000006	-122.65835	5.6	SAN RAFAEL (HAMILTON AFB),SANTA ROSA (AAF)	5103
1061	38.57334999999999	-76.94	5.6	DAHLGREN,CAMP SPRINGS (ANDREWS AFB)	3534
1062	38.23909056603773	-121.3213679245283	5.9	STOCKTON (FIELD),SACRAMENTO/EXECUTIV,SACRAMENTO (MATHER AFB)	15740
1063	38.883300000000006	-85.6667	5.6	MADISON JEFFERSON PRVGR,SEYMOUR FREEMAN FIELD	2539
1064	38.885000000000005	-98.96834999999999	5.6	RUSSELL,VICTORIA (WALKER AAF)	1573
1065	39.075	-84.54185	5.6	CINCINNATI/GREATER,CINCINNATI (LUNKEN AIRPORT)	19027
1066	39.618716981132074	-86.15416037735848	5.9	INDIANAPOLIS STOUT FIELD,COLUMBUS,INDIANAPOLIS/I.-MUN	22205
1067	39.90835	-82.90830000000001	5.6	COLUMBUS LOCKBOURNE AFB,COLUMBUS	20915
1068	40.22610754716982	-122.1679245283019	5.9	REDDING (AAF),CHICO MUNI,RED BLUFF MUNICIPAL	7410
1069	40.666999999999994	46.783500000000004	5.6	EVLAKH AIRPORT,GANDJA	982
1070	41.058350000000004	-72.325	5.6	WESTHAMPTON SUFFOLK COUNTY AAF,FISHERS ISLAND FORT H G WRIGHT	993
1071	40.94275849056604	-78.02580188679245	5.9	KYLERTOWN,PHILIPSBURG,BELLEFONTE	17876
1072	41.15	-111.9917	5.6	OGDEN (HILL AFB),OGDEN	7026
1073	41.98335	-103.20829999999998	5.6	SCOTTSBLUFF AAF,ALLIANCE AAF	1598
1074	41.72514150943396	-70.16981320754716	5.9	NORTH TRURO,NANTUCKET MEM AP,FALMOUTH OTIS AFB	24582
1075	42.2	42.833000000000006	5.6	SAKARA,KUTAISI	571
1076	42.0062716981132	-72.60374905660377	5.9	CHICOPEE FALLS (WESTOVER AFB),HARTFORD,WINDSOR LOCKS/BRADLEY FIELD	14999
1077	42.16839622641509	-76.25613207547171	5.9	BINGHAMTON/BROOME C,BINGHAMTON,ELMIRA	10922
1078	42.275	-83.38329999999999	5.6	YPSILANTI,DETROIT METRO.	11811
1079	42.616499999999995	-92.44149999999999	5.6	WATERLOO,WAVERLY	1548
1080	42.91685	-106.40014999999998	5.6	CASPER WYO,CASPER/NATRONA COUN	11626
1081	42.66037924528302	-71.30563584905661	5.9	MANCHESTER (GRENIER FIELD),CAMBRIDGE MIT,BEDFORD HANSCOM AP	2003
1082	43.533500000000004	6.975	5.6	SAINT-RAPHAEL,NICE	667
1083	43.575	-1.3	5.6	BIARRITZ,DAX	1383
1084	43.58315	-119.0	5.6	BURNS MUNI (AMOS),BURNS	9056
1085	45.17682641509435	-83.16989056603775	5.9	ENVIRONM BUOY 45003,ALPENA,ALPENA/PHELPS COLLI	9906
1086	45.641999999999996	-73.583	5.6	MONTREAL/TRUDEAU INT,LASSOMPTION CDA	17931
1087	45.6	25.558	5.6	PREDEAL,BRASOV-GHIMBAV	1501
1088	45.97485	-118.98335	5.6	PENDLETON MUNICIPAL,PASCO	23100
1089	45.967	21.2835	5.6	TIMISOARA,ARAD	8037
1090	45.80800000000001	24.508	5.6	SIBIU,FAGARAS	967
1091	46.36	121.705	5.6	ULANHOT,TE-PO-SU-K/-MIAO	13962
1092	47.69199999999999	23.191499999999998	5.6	BAIA MARE,SATU MARE	2659
1093	48.1665	-103.60814999999998	5.6	WILLISTON,WILLISTON/SLOULIN F	6802
1094	49.5415	11.5585	5.6	FEUCHT(USA-AF),GRAFENWOEHR	4679
1095	49.81792452830188	6.8711320754716985	5.9	BITBURG,BAUMHOLDER (USA-AF),TRIER	5322
1096	50.09647169811321	8.711471698113208	5.9	HANAU,LANGEN,WIESBADEN	10990
1097	51.05	7.36665	5.6	KOLN/BONN,LUDENSCHEID	2763
1098	53.492000000000004	-113.525	5.6	EDMONTON INTL ARPT,EDMONTON NAMAO ARPT	10372
1099	54.50815	9.75	5.6	KEIL/HOLTENAU,EGGEBECK	18072
1100	57.95	11.9665	5.6	GOTEBURG/TORSLANDA,TORPABRON	20845
1101	59.80650000000001	30.383500000000005	5.6	SLUTSK,LENINGRAD/CHOSSEYNOR	440
1102	68.225	-166.275	5.6	CAPE THOMPSON,POINT HOPE	525
1103	78.06834999999998	13.92665	5.6	ISFJORD RADIO,BARENTSBURG	31038
1104	-0.20425	37.275000000000006	6.2	EMBU,NYERI,NANUYKI,MERU	7361
1105	21.425	-157.97910000000002	6.2	BARBERS POINT NAS,HONOLULU HICKAM FIELD,HONOLULU INTL,KAHUKU AAB	36497
1106	32.74175	-106.34592500000001	6.2	WHITE SANDS TEST RG,FRYE SITE,HOLLOMAN AFB,WHITE SANDS MISSILE	21207
1107	33.30730615258409	-111.89897894995899	6.5	COOLIDGE (AAF),CHANDLER (WILLIAMS FIELD),PHOENIX (LUKE FIELD),PHOENIX/SKY HARBOR,PHOENIX	34882
1108	33.684174999999996	-117.95407499999999	6.2	CAMP PENDLETON,CA SANTA ANA/ORANGE COUNTY AAF,LOMITA (AAF),LONG BEACH	8921
1109	35.19585	-119.06657499999999	6.2	SANDBURG (AUT),TAFT (GARDNER FIELD),BAKERSFIELD,BAKERSFIELD (MINTER FIELD)	26218
1110	38.545825	-104.67932500000002	6.2	PUEBLO,PUEBLO MEMORIAL(AW),FORT CARSON/BUTTS,AIR FORCE ACADEMY	22772
1111	39.74823050847458	-74.9852127118644	6.8	CAMDEN,LAKEHURST,DOVER (AAF),WILMINGTON (NEW CASTLE AAB),ATLANTIC CITY U-A,PHILADELPHIA INTL	29535
1112	40.61665	-73.90834999999998	6.2	SPRING LAKE BELMAR,NEW YORK JFK AP,LA GUARDIA,NEW YORK UNIVERSITY	37577
1113	47.366675	-122.49165000000002	6.2	OLYMPIA MUN I AP,TACOMA (MCCHORD AFB),SEATTLE-TACOMA INTL,EVERETT (PAINE FIELD)	20528
