	latitude	longitude	radius	station	records
0	-80.017	-119.533	5.0	BYRD STN	7679
1	-79.25	-147.5	5.0	LITTLE ROCKFORD	309
2	-78.45	106.867	5.0	VOSTOK	7319
3	-78.4	87.583	5.0	SOVIETSKAVA	273
4	-78.2	-162.25	5.0	LITTLE AMERICA	1612
5	-76.2667	-147.5	5.0	LITTLE ROCKFORD	389
6	-72.3	170.2167	5.0	ADARE HALLETT	4373
7	-70.4333	24.3167	5.0	BASE ROI BAUDOUIN	1097
8	-70.317	-2.367	5.0	SANAE	9815
9	-69.73	95.05	5.0	PIONERSKAVA	121
10	-69.5	159.4	5.0	LENINGRADSKAJA	2575
11	-67.667	45.85	5.0	MOLODEZNAJA	13014
12	-66.27	100.73	5.0	BUNGER OASIS	548
13	-65.25	-64.2667	5.0	FARADAY	10141
14	-63.4667	-56.2833	5.0	PETREL NAS	1654
15	-62.183	-58.883	5.0	BELLINGSHAUSEN AWS	6342
16	-60.75	-44.7167	5.0	ISLAS ORCADAS (MET)	8699
17	-59.45	-27.267	5.0	CORBETA URUGUAY DN	275
18	-54.8	-68.3167	5.0	USHUAIA	1943
19	-53.8	-67.75	5.0	RIO GRANDE AIRPORT	3267
20	-52.55	169.15	5.0	CAMPBELL ISLAND	18775
21	-51.6333	-69.2167	5.0	RIO GALLEGOS B. A.	4526
22	-43.483	172.55	5.0	CHRISTCHURCH	31930
23	-43.2333	-65.3	5.0	ALMIRANTE ZAR	1150
24	-42.417	173.7	5.0	KAIKOURA	5055
25	-39.467	175.683	5.0	WAIOURU	2309
26	-38.7333	-62.1667	5.0	COMANDANTE ESPORA	13733
27	-37.017	174.8	5.0	AUCKLAND AIRPORT	23125
28	-35.367	-57.283	5.0	PUNTA INDIO B.A.	151
29	-35.1	173.267	5.0	KAITAIA	14537
30	-34.58	-58.48	5.0	BUENOS AIRES	107
31	-34.017	22.383	5.0	GEORGE AIRPORT	4491
32	-33.033	27.833	5.0	EAST LONDON	3098
33	-32.8833	-68.85	5.0	OBSERV MENDOZA	3075
34	-32.78	-71.51	5.0	QUINTERO (MIL)	28938
35	-31.35	-54.117	5.0	BAGE (AEROPORTO)	1012
36	-30.833	128.1	5.0	FORREST AIRPORT	54264
37	-30.01	131.583	5.0	MARALINGA	7453
38	-28.8	24.767	5.0	KIMBERLEY	9829
39	-28.567	16.533	5.0	KORTDOORN/ALEXANDER	11144
40	-27.4667	-58.9833	5.0	RESISTENCIA	1200
41	-25.783	25.533	5.0	MAFIKENG WO	1154
42	-25.733	28.183	5.0	PRETORIA-EENDRACHT	3937
43	-25.55	45.533	5.0	FAUX-CAP	549
44	-24.667	25.917	5.0	GABORONE	695
45	-23.867	35.383	5.0	INHAMBANE	4808
46	-23.85	151.25	5.0	GLADSTONE	46725
47	-23.617	-46.65	5.0	SAO PAULO	16840
48	-23.383	43.733	5.0	TOLIARA	5308
49	-22.8	47.833	5.0	FARAFANGANA	2385
50	-22.483	17.467	5.0	HOSEA KUTAKO INTL A	7483
51	-21.817	-138.8	5.0	MURUROA	6907
52	-21.75	43.367	5.0	MOROMBE	1328
53	-21.6333	115.1167	5.0	ONSLOW	25950
54	-21.45	47.1	5.0	FIANARANTSOA	1453
55	-21.333	55.483	5.0	ST. PIERRE/FONDS	5723
56	-21.233	-175.15	5.0	FUAAMOTU	5436
57	-21.217	27.5	5.0	FRANCISTOWN	613
58	-21.2	48.367	5.0	MANANJARY	4840
59	-20.7667	-138.55	5.0	TUREIA	271
60	-20.283	44.317	5.0	MORONDAVA	3268
61	-20.233	169.767	5.0	ANEITYUM	125
62	-19.833	48.8	5.0	MAHANORO	1069
63	-19.783	-47.967	5.0	UBERABA	134
64	-19.6	18.117	5.0	GROOTFONTEIN	4094
65	-19.45	29.85	5.0	GWERU	5186
66	-19.28	121.5	5.0	TALGARNO	297
67	-18.9	47.5333	5.0	TANANARIVE/SCM	4211
68	-18.633	26.85	5.0	HWANGE NATIONAL PAR	2189
69	-18.067	-140.95	5.0	HAO	18186
70	-17.917	31.133	5.0	HARARE (KUTSAGA)	926
71	-17.883	36.883	5.0	QUELIMANE	2266
72	-17.817	25.817	5.0	LIVINGSTONE	7670
73	-17.75	168.3	5.0	VILA (EFATE)	12954
74	-17.7333	139.5333	5.0	BURKETOWN	145
75	-17.6833	141.0667	5.0	NORMANTON AIRPORT	229
76	-17.3167	123.6333	5.0	DERBY	7081
77	-17.083	49.817	5.0	SAINTE-MARIE AERODR	681
78	-17.05	42.717	5.0	ILE JUAN DE NOVA	5730
79	-16.833	29.617	5.0	KAROI	4958
80	-16.45	-151.75	5.0	BORA-BORA	11160
81	-16.183	33.583	5.0	TETE	2074
82	-15.683	34.967	5.0	CHILEKA	10079
83	-15.6	-56.1	5.0	CUIABA	443
84	-15.517	167.217	5.0	PEKOA AIRPORT	661
85	-15.417	28.317	5.0	LUSAKA CITY AIRPORT	9588
86	-15.25	23.15	5.0	MONGU	5748
87	-15.2167	12.1667	5.0	MOCAMEDES	1595
88	-15.03	40.67	5.0	LUMBO	2531
89	-15.0	50.333	5.0	ANTALAHA	4654
90	-14.95	-147.659	5.0	RANGIROA	5720
91	-14.95	-40.883	5.0	VITORIA DA CONQUIST	123
92	-14.933	13.567	5.0	LUBANGO	236
93	-14.633	47.767	5.0	ANALALAVA	1607
94	-14.4167	28.4833	5.0	KABWE	12025
95	-14.3667	-170.7833	5.0	LEONE BAY AMERICAN S	359
96	-14.283	50.167	5.0	SAMBAVA	2763
97	-13.8	-171.783	5.0	APIA	10496
98	-13.76	33.7	5.0	LILONGWE	7210
99	-13.75	34.583	5.0	SALIMA	2342
100	-13.733	-76.217	5.0	PISCO	1501
101	-13.367	50.0	5.0	VOHEMAR	807
102	-13.317	48.317	5.0	FASCENE (NOSSI-BE)	786
103	-13.3	35.233	5.0	LICHINGA	1908
104	-13.0	28.65	5.0	NDOLA	2372
105	-12.983	40.533	5.0	PEMBA	3898
106	-12.8	15.75	5.0	HUAMBO	301
107	-12.5	177.05	5.0	ROTUMA	6835
108	-12.37	13.53	5.0	LOBITO	100
109	-12.15	-45.0	5.0	BARREIRAS	1194
110	-12.117	44.433	5.0	OUANI (ANJOUAN)	3271
111	-11.783	19.917	5.0	LUENA (LUSO)	1995
112	-11.75	24.4333	5.0	MWINLUNGA	2872
113	-11.7	43.233	5.0	MORONI AIRPORT	5231
114	-11.583	47.283	5.0	ILES GLORIEUSES	7379
115	-11.3	-41.867	5.0	IRECE	347
116	-10.917	-37.05	5.0	ARACAJU	417
117	-10.7	-48.4	5.0	PORTO NACIONAL	1005
118	-10.7	152.833	5.0	MISIMA ISLAND	2055
119	-10.7	165.8	5.0	SANTA CRUZ ISLAND	151
120	-10.583	142.217	5.0	THURSDAY IL/HORN IL	21187
121	-10.45	105.7	5.0	CHRISTMAS ISL (PVT)	3447
122	-10.217	31.133	5.0	KASAMA	3135
123	-9.95	33.883	5.0	KARONGA	2595
124	-9.517	-35.783	5.0	MACEIO (AEROPORTO)	133
125	-9.35	46.533	5.0	ALDABRA	143
126	-9.333	-54.967	5.0	CACHIMBO AERO	2176
127	-9.2	124.367	5.0	OE-CUSSIE	498
128	-9.1	-44.117	5.0	BOM JESUS	376
129	-8.933	33.467	5.0	MBEYA	767
130	-8.55	125.55	5.0	DILLI/DILLI AIRPORT	7176
131	-8.367	-74.567	5.0	PUCALLPA	328
132	-7.967	112.7	5.0	MALANG/ABDUL (AFB)	586
133	-7.633	35.767	5.0	IRINGA	677
134	-7.617	111.517	5.0	MADIUN/ISWAHYUD AFB	3443
135	-7.4	20.817	5.0	DUNDO	6240
136	-7.333	108.25	5.0	CIBEUREM/TASIK(AFB)	625
137	-7.317	-39.3	5.0	BARBALHA	334
138	-7.017	-37.267	5.0	PATOS	137
139	-6.833	37.65	5.0	MOROGORO	142
140	-6.783	-79.817	5.0	CHICLAYO	1504
141	-6.267	-57.733	5.0	JACAREACANGA	287
142	-6.167	35.767	5.0	DODOMA	1096
143	-5.5	-45.267	5.0	BARRA DO CORDA	161
144	-5.217	145.783	5.0	MADANG	18232
145	-5.2	-39.3	5.0	QUIXERAMOBIM	334
146	-5.083	32.833	5.0	TABORA AIRPORT	1062
147	-5.083	39.067	5.0	TANGA	776
148	-5.05	-42.817	5.0	TERESINA	313
149	-4.883	29.667	5.0	KIGOMA	112
150	-4.883	38.283	5.0	MOMBO	113
151	-4.567	-81.233	5.0	TALARA	1823
152	-4.45	105.183	5.0	MENGGALA/ASTRA KSET	181
153	-4.217	152.183	5.0	RABAUL	27818
154	-4.1	122.433	5.0	KENDARI/WOLTER MONG	1064
155	-4.05	-154.9833	5.0	MALDEN ISLAND AF	274
156	-4.033	39.617	5.0	MOMBASA	3673
157	-3.783	-73.3	5.0	IQUITOS	705
158	-3.417	37.067	5.0	KILIMANJARO AIRPORT	696
159	-3.4	38.567	5.0	VOI	4508
160	-3.217	40.1	5.0	MALINDI	1769
161	-3.083	-41.783	5.0	PARNAIBA	665
162	-2.533	14.767	5.0	DJAMBALA	1376
163	-2.467	32.917	5.0	MWANZA	383
164	-2.283	37.833	5.0	MAKINDU	5723
165	-1.333	31.817	5.0	BUKOBA	1433
166	-1.133	35.833	5.0	NAROK	4802
167	-0.617	30.65	5.0	MBARARA	114
168	-0.467	39.633	5.0	GARISSA	7179
169	-0.267	36.1	5.0	NAKURU	7184
170	0.183	30.1	5.0	KASESE	419
171	0.383	6.717	5.0	S. TOME	5381
172	0.683	34.167	5.0	TORORO	264
173	1.083	154.767	5.0	KAPINGAMARANGI ATOL	487
174	1.617	18.067	5.0	IMPFONDO	986
175	1.683	31.717	5.0	MASINDI	632
176	1.717	33.617	5.0	SOROTI	112
177	1.75	40.067	5.0	WAJIR	3181
178	1.85	-78.767	5.0	TUMACO	344
179	2.033	-56.117	5.0	SIPALIWINI	331
180	2.083	11.483	5.0	BITAM	483
181	2.333	37.983	5.0	MARSABIT	1160
182	3.117	35.617	5.0	LODWAR	8644
183	3.367	-57.333	5.0	COEROENI	254
184	3.533	39.05	5.0	MOYALE	3218
185	3.783	-56.15	5.0	TAFELBERG	228
186	3.833	11.517	5.0	YAOUNDE	7131
187	3.85	-159.367	5.0	FANNING ISLAND	103
188	3.883	-51.8	5.0	SAINT GEORGES	2681
189	3.933	41.867	5.0	MANDERA	3516
190	4.25	15.8	5.0	BERBERATI	2543
191	4.317	21.183	5.0	MOBAYE	150
192	4.35	-54.417	5.0	STOELMANSEILAND	153
193	4.467	14.367	5.0	BATOURI	4064
194	4.733	22.833	5.0	BANGASSOU	2199
195	4.883	-1.767	5.0	TAKORADI	135
196	5.3333	163.0167	5.0	KUSAIE/CAROLINES	1652
197	5.45	-55.2	5.0	ZANDERIJ	2383
198	5.467	100.383	5.0	BUTTERWORTH AB	24729
199	5.55	12.367	5.0	YOKO	1316
200	5.6	-0.1667	5.0	ACCRA/KOTOKA INTL	3276
201	5.65	10.75	5.0	KOUNDJA	5780
202	5.8833	-162.05	5.0	PALMYRA ISLAND	631
203	5.9	43.583	5.0	GODE	237
204	5.917	169.65	5.0	JALUIT ATOLL	130
205	5.95	-57.033	5.0	NICKERIE	382
206	5.967	15.633	5.0	BOUAR	2424
207	6.25	-10.35	5.0	ROBERTS FIELD	1457
208	6.467	7.55	5.0	ENUGU	469
209	6.483	17.433	5.0	BOSSANGOA	3181
210	6.583	3.333	5.0	LAGOS/IKEJA	3244
211	7.233	-70.8	5.0	GUASDUALITO	356
212	7.3	-61.45	5.0	TUMEREMO	451
213	7.383	143.917	5.0	WOLEAI ATOLL	106
214	7.7	28.017	5.0	WAU	717
215	8.4	20.65	5.0	NDELE	2173
216	8.617	-13.2	5.0	LUNGI	1194
217	8.983	1.15	5.0	SOKODE	5401
218	9.417	-5.617	5.0	KORHOGO	11845
219	9.467	170.25	5.0	WOTJE ATOLL	299
220	9.5	-7.567	5.0	ODIENNE	140
221	9.6	105.967	5.0	BA-XUYEN/SOC TRANG	170
222	9.617	6.533	5.0	MINNA	440
223	9.75	-63.183	5.0	MATURIN	1184
224	9.8	125.5	5.0	SURIGAO	347
225	9.817	-70.933	5.0	MENE GRANDE	780
226	9.983	98.617	5.0	RANONG	194
227	10.067	-69.317	5.0	BARQUISIMETO	741
228	10.117	-64.683	5.0	BARCELONA	1459
229	10.6	-66.983	5.0	CARACAS/MAIQUETIA A	912
230	10.717	115.833	5.0	NENSHA ISL	436
231	10.85	121.033	5.0	CUYO	270
232	10.917	-63.967	5.0	PORLAMAR	739
233	11.233	169.85	5.0	UTIRIK ATOLL M.ISL	577
234	11.3	167.48	5.0	RONGERIK	145
235	11.3167	-12.3	5.0	LABE	3485
236	11.52	165.55	5.0	BIKINI	294
237	11.55	43.15	5.0	DJIBOUTI	2487
238	11.85	13.083	5.0	MAIDUGURI	593
239	11.87	-15.5	5.0	BISSAU	2569
240	12.7	28.433	5.0	EN NAHUD	198
241	12.917	74.883	5.0	MANGALORE/BAJPE	2209
242	13.0667	-9.4833	5.0	KITA	4283
243	13.167	32.667	5.0	AROMA	298
244	13.3	-87.1833	5.0	CHOLUTECA	767
245	13.567	-89.833	5.0	ACAJUTLA	185
246	13.683	44.15	5.0	TAIZ (CIV/MIL)	449
247	13.7	-89.117	5.0	SAN SALVADOR/ILOPAN	689
248	13.75	-60.98	5.0	VIEUX FORT	815
249	13.85	20.85	5.0	ABECHE	4728
250	13.917	-90.817	5.0	SAN JOSE	1220
251	13.917	100.6	5.0	DON MUANG	780
252	14.033	35.4	5.0	GEDAREF	238
253	14.05	-87.25	5.0	TEGUCIGALPA	5493
254	14.067	-83.367	5.0	PUERTO CABEZAS	4028
255	14.117	93.367	5.0	COCO ISLAND	985
256	14.4	33.483	5.0	WAD MEDANI	269
257	14.482	-11.44	5.0	KAYES/DAG-DAG	16115
258	14.5333	-90.5667	5.0	GUATEMALA CITY	5620
259	14.75	42.967	5.0	HODEIDAH (CIV/MIL)	542
260	14.8	100.617	5.0	LOP BURI	837
261	15.117	105.783	5.0	PAKSE	590
262	15.117	145.733	5.0	SAIPAN/ISLEY (CGS)	7992
263	15.167	-7.283	5.0	NARA	9645
264	15.283	38.917	5.0	ASMARA	2299
265	15.383	73.817	5.0	GOA/DABOLIM AIRPORT	1902
266	15.4167	108.7	5.0	CHU LAI	822
267	15.717	-88.6	5.0	PUERTO BARRIOS	639
268	16.433	101.15	5.0	PHETCHABUN	401
269	16.533	80.8	5.0	VIJAYAWADA/GANNAVA	8012
270	16.55	104.65	5.0	SAVANNAKHET	508
271	16.55	111.617	5.0	HOANG SA (PATTLE)	417
272	16.633	-11.4	5.0	KIFFA	4608
273	16.7333	-9.6333	5.0	AIOUN ELATROUSS	4231
274	16.883	42.583	5.0	GIZAN	1629
275	16.9	96.183	5.0	MINGALADON	945
276	17.417	104.783	5.0	NAKHON PHANOM	2528
277	17.7	33.967	5.0	ATBARA	361
278	17.9	-62.85	5.0	ST. BARTHELEMY	4048
279	17.95	102.567	5.0	VIENTIANE	2162
280	18.0	19.167	5.0	FAYA	2999
281	18.3	42.8	5.0	KHAMIS MUSHAIT	11138
282	18.433	1.35	5.0	KIDAL	5839
283	19.05	-69.3833	5.0	SABANA DE LA MAR	4059
284	19.1	108.617	5.0	DONGFANG	6890
285	19.883	102.133	5.0	LUANG-PRABANG	472
286	20.45	121.967	5.0	BASCO	867
287	20.667	58.9	5.0	MASIRAH	514
288	20.883	95.9	5.0	MEIKTILA	5141
289	20.899	-156.43	5.0	KAHULUI ARPT/MAUI	19540
290	21.217	110.4	5.0	ZHANJIANG	5208
291	21.3	99.617	5.0	KENGTUNG	231
292	21.3167	-158.0667	5.0	BARBERS POINT NAS	329
293	21.45	-71.15	5.0	TURKS ISLAND	10548
294	22.367	106.75	5.0	LONGZHOU	4011
295	22.37	-73.03	5.0	MAYAGUAN	1160
296	22.45	70.083	5.0	JAMNAGAR	895
297	22.5	103.95	5.0	HEKOU	13535
298	22.75	-12.483	5.0	ZOUERATE	2072
299	22.767	81.9	5.0	PENDRA ROAD	5308
300	22.783	115.367	5.0	SHANWEI	2322
301	23.217	113.483	5.0	GUANGZHOU	28004
302	23.8167	5.15	5.0	IN AMGUEL	144
303	23.8833	100.0833	5.0	LINCANG	2076
304	24.067	105.067	5.0	GUANGNAN	5390
305	24.183	120.65	5.0	TAICHUNG (TW-AFB)	4776
306	24.217	23.3	5.0	KUFRA	6321
307	24.267	9.467	5.0	DJANET	6261
308	24.35	109.4	5.0	LIUZHOU	4445
309	24.583	73.7	5.0	UDAIPUR	1174
310	24.7	46.733	5.0	RIYADH OBS.	11578
311	24.8333	113.5	5.0	CHU CHIANG	1393
312	25.0167	102.8333	5.0	KAN-HAI-TZU	598
313	25.067	121.233	5.0	TAOYUAN AB	13298
314	25.233	-11.617	5.0	BIR MOGHREIN	5175
315	25.2667	-76.3	5.0	ELEUTHERA ISLAND	6389
316	25.3667	97.4	5.0	MYITKYINA	3942
317	25.433	105.183	5.0	XINGREN	4750
318	25.433	106.767	5.0	LUODIAN	3236
319	25.5	28.967	5.0	DAKHLA	4922
320	25.517	119.783	5.0	PINGTAN	3181
321	25.5667	91.8833	5.0	SHILLONG S06 03Z	280
322	25.8	21.133	5.0	TAZERBO	3989
323	25.85	116.367	5.0	CHANGTING	5057
324	25.9	-81.7167	5.0	DELTA SEVEN	436
325	25.967	108.533	5.0	RONGJIANG	2499
326	26.15	119.95	5.0	MAZU (=588490)	4062
327	26.2	36.483	5.0	AL-WEJH	5395
328	26.267	50.167	5.0	DHAHRAN	17304
329	26.5	8.417	5.0	ILLIZI	502
330	26.6167	-78.3667	5.0	GOLD ROCK CREEK	13583
331	26.717	92.8	5.0	TEZPUR/BINDUKURI	424
332	26.717	127.783	5.0	IEJIMA AUXILIARY AB	1571
333	26.983	84.85	5.0	RAXAUL	1140
334	27.117	114.967	5.0	JIAN	4747
335	27.3	105.233	5.0	BIJIE	1335
336	27.333	120.2	5.0	FUDING	4348
337	27.65	-81.333	5.0	AVON PARK GUNNERY R	11151
338	27.6667	98.3833	5.0	LA WANG/TZUKEI	857
339	27.7	85.367	5.0	KATHMANDU AIRPORT	651
340	27.95	-80.5667	5.0	VALKARIA	798
341	27.95	108.25	5.0	SINAN	3144
342	28.05	9.633	5.0	IN-AMENAS	12360
343	28.083	30.733	5.0	MINYA	2596
344	28.333	28.867	5.0	BAHARIA	5180
345	28.45	98.883	5.0	DEQEN	6169
346	28.45	121.883	5.0	DACHEN DAO	18781
347	28.633	87.083	5.0	TINGRI	4882
348	28.833	108.767	5.0	YOUYANG	169
349	28.883	-118.3	5.0	ISLA GUADALUPE	13025
350	29.0	135.0	5.0	OCEAN WEATHER SHIP T	5347
351	29.033	21.567	5.0	JALO	3469
352	29.033	101.5	5.0	JIULONG	1437
353	29.05	111.683	5.0	CHANGDE	4719
354	29.117	15.933	5.0	HON	3794
355	29.25	0.283	5.0	TIMIMOUN	9666
356	29.3	117.2	5.0	JINGDEZHEN	5385
357	29.3333	-89.4	5.0	BOOTHVILLE WSCMO CIT	25889
358	29.383	113.083	5.0	YUEYANG	4823
359	29.55	34.95	5.0	EILAT	6192
360	29.5667	94.4667	5.0	NYINGCHI	6509
361	29.6833	-85.35	5.0	CAPE SAN BLAS SITE D 3	2507
362	29.75	24.533	5.0	GIARABUB	2551
363	29.967	-95.35	5.0	HOUSTON/INTERCONTIN	1796
364	30.033	122.117	5.0	DINGHAI	3697
365	30.05	101.967	5.0	KANGDING	3716
366	30.133	-2.167	5.0	BENI-ABBES	7838
367	30.133	9.5	5.0	GHADAMES	5808
368	30.167	35.783	5.0	MAAN	595
369	30.3667	-89.5833	5.0	NASA MISS. TEST	1068
370	30.383	-9.567	5.0	AGADIR INEZGANNE	14085
371	30.383	13.583	5.0	GARIAT EL-SHARGHIA	688
372	30.483	140.3	5.0	TORISHIMA	6556
373	30.517	47.783	5.0	BASRAH-HUSSEN	2290
374	30.717	20.167	5.0	AGEDABIA	3757
375	30.8	106.083	5.0	NANCHONG	8082
376	30.933	-6.9	5.0	OUARZAZATE	8186
377	31.017	46.233	5.0	NASIRIYA	750
378	31.1	-97.717	5.0	FT HOOD AAF/KILLEEN	2923
379	31.2	16.583	5.0	SIRTE	2738
380	31.233	34.783	5.0	BEER-SHEVA	2318
381	31.283	32.233	5.0	PORT SAID/EL GAMIL	1814
382	31.367	90.017	5.0	BAINGOIN	11427
383	31.367	130.833	5.0	KANOYA AB	464
384	31.58	-84.12	5.0	ALBANY	658
385	31.583	-110.333	5.0	FORT HUACHUCA	9251
386	31.617	-8.033	5.0	MARRAKECH	9944
387	31.683	9.3	5.0	EL BORMA	1728
388	31.867	-81.633	5.0	FORT STEWART RESERV	3618
389	31.867	10.983	5.0	NALUT	2037
390	31.867	93.767	5.0	SOG XIAN	7101
391	31.867	117.233	5.0	HEFEI	9149
392	31.9	102.233	5.0	BARKAM	6148
393	31.933	-4.4	5.0	ERRACHIDIA	6598
394	31.933	34.833	5.0	BEER-YA AQOV TO 401790	2572
395	31.9333	5.4	5.0	OUARGLA	2887
396	32.067	108.033	5.0	WANYUAN	3574
397	32.1	23.933	5.0	TOBRUK	7553
398	32.133	114.05	5.0	XINYANG	7884
399	32.1667	-110.8833	5.0	TUCSON (DAVIS-MONTHAN AFB)	236
400	32.2167	-98.1833	5.0	STEPHENVILLE	15234
401	32.283	-9.233	5.0	SAFI	1179
402	32.317	10.4	5.0	REMADA	9738
403	32.333	-84.833	5.0	FORT BENNING	3790
404	32.35	-94.65	5.0	LONGVIEW WSMO	14445
405	32.383	111.667	5.0	GUANGHUA	3239
406	32.417	15.05	5.0	MISURATA	1073
407	32.5	-106.4167	5.0	FRYE SITE	155
408	32.5	80.067	5.0	SHIQUANHE	10631
409	32.683	-4.733	5.0	MIDELT	2966
410	32.717	133.017	5.0	SHIMIZU	5015
411	32.8	21.883	5.0	SHAHAT	1530
412	32.817	-115.683	5.0	EL CENTRO NAF	1361
413	32.883	12.083	5.0	ZUARA	2793
414	32.9	-87.25	5.0	CENTREVILLE WSMO	14447
415	32.967	114.05	5.0	ZHUMADIAN	6626
416	33.033	40.283	5.0	RUTBAH	2392
417	33.167	-106.5	5.0	WHITE SANDS MISSILE	1539
418	33.233	126.25	5.0	MOESULPO AB	17945
419	33.4	-117.5	5.0	CAMP PENDLETON	207
420	33.583	102.967	5.0	RUOERGAI	2991
421	33.65	-101.8167	5.0	LUBBOCK/MUNI (TEX)	693
422	33.683	1.0	5.0	EL-BAYADH	10962
423	33.783	114.517	5.0	XIHUA	6675
424	33.8	-106.6667	5.0	STALLION SITE	610
425	33.8	99.8	5.0	DARLAG	12064
426	33.85	-80.483	5.0	POINSETT RANGE	3637
427	33.883	-5.533	5.0	MEKNES	2167
428	33.95	-83.3167	5.0	ATHENS BEN EPPS AP	28581
429	33.95	92.617	5.0	TUOTUOHE	11291
430	33.98	-98.5	5.0	WICHITA FALLS	113
431	34.0	134.633	5.0	KOMATSUSHIMA AB	445
432	34.0	164.0	5.0	OCEAN WEATHER SHIP V	12375
433	34.05	131.05	5.0	OZUKI AB	303
434	34.15	132.22	5.0	IWAKUNI	2734
435	34.217	-4.0	5.0	TAZA	2441
436	34.217	62.217	5.0	HERAT	1107
437	34.3	-103.8	5.0	MELROSE GUNNERY RAN	151
438	34.417	8.817	5.0	GAFSA	20537
439	34.583	105.75	5.0	TIANSHUI	6899
440	34.6	138.217	5.0	OMAEZAKI	4148
441	34.65	-99.2667	5.0	ALTUS AFB (OKLA)	2675
442	34.683	32.817	5.0	EPISKOPI	4391
443	34.6833	3.25	5.0	DJELFA	9814
444	34.783	-1.95	5.0	OUJDA	7639
445	34.85	119.133	5.0	GANYU	7452
446	34.917	98.217	5.0	MADOI	6085
447	34.933	136.583	5.0	YOKKAICHI	4758
448	35.083	128.083	5.0	SACHEON AB	8441
449	35.117	36.75	5.0	HAMA	741
450	35.133	-78.933	5.0	FORT BRAGG/SIMMONS	159
451	35.169	128.934	5.0	GIMHAE INTL AIRPORT	5577
452	35.183	-3.85	5.0	AL HOCEIMA	4040
453	35.217	93.083	5.0	WUDAOLIANG	5083
454	35.3333	-94.3667	5.0	FT SMITH CAMP CHAFFEE	5244
455	35.35	1.467	5.0	TIARET	280
456	35.533	35.767	5.0	LATTAKIA	458
457	35.667	-75.9	5.0	DARE COUNTY GUNNERY	5845
458	35.667	10.1	5.0	KAIROUAN	22918
459	35.733	-5.9	5.0	TANGER (AERODROME)	389
460	35.8	140.017	5.0	SHIMOFUSA AB	467
461	35.9	62.9667	5.0	TAGTABAZAR	13721
462	35.933	39.017	5.0	RAQQA	252
463	35.9667	-116.2667	5.0	SHOSHONE	313
464	35.967	-89.95	5.0	BLYTHEVILLE AFB	1375
465	36.05	114.4	5.0	ANYANG	7228
466	36.183	118.15	5.0	YIYUAN	6101
467	36.217	1.333	5.0	CHLEF	3213
468	36.3	2.233	5.0	MILIANA	14988
469	36.317	43.15	5.0	MOSUL	884
470	36.333	37.217	5.0	ALEPPO INT. AEROPOR	18332
471	36.4	139.067	5.0	MAEBASHI	5175
472	36.617	128.35	5.0	YECHEON AB	5663
473	36.7	119.1167	5.0	WEI HSIEN	254
474	36.767	126.467	5.0	SEOSAN	566
475	36.85	11.083	5.0	KELIBIA	18563
476	36.867	30.733	5.0	ANTALYA	1476
477	36.883	6.9	5.0	SKIKDA	639
478	36.8833	-93.9	5.0	MONETT	18071
479	37.017	-7.967	5.0	FARO/AEROPORTO	1831
480	37.05	41.217	5.0	KAMISHLI	136
481	37.0667	-88.7667	5.0	PADUCAH BARKLEY FLD	4390
482	37.1	-113.6	5.0	ST. GEORGE	591
483	37.1	128.8667	5.0	SANGDONG	294
484	37.233	9.817	5.0	BIZERTE	7207
485	37.233	67.267	5.0	TERMEZ	20099
486	37.3167	-121.8667	5.0	SAN JOSE/EMSU	188
487	37.317	97.217	5.0	DELINGHA	10750
488	37.4	122.683	5.0	CHENGSHANTOU	15581
489	37.433	-105.867	5.0	ALAMOSA MUNI(AWOS)	921
490	37.433	127.95	5.0	WONJU AB	6345
491	37.467	53.967	5.0	ESENGYLY	36098
492	37.4833	116.3667	5.0	TE HSIEN/TECHOW	498
493	37.5	71.5	5.0	KHOROG	28898
494	37.617	120.317	5.0	LONGKOU	8328
495	37.75	128.95	5.0	GANGNEUNG AB	6015
496	37.783	-81.117	5.0	BECKLEY	114
497	37.783	-0.8	5.0	MURCIA/SAN JAVIER	1000
498	37.85	91.65	5.0	MANGYA	1192
499	37.85	95.367	5.0	DA-QAIDAM	5439
500	37.917	139.05	5.0	NIIGATA	2033
501	37.93	83.65	5.0	ANDIR	14362
502	38.0	-71.0	5.0	OCEAN WEATHER SHIP H	3274
503	38.05	-103.52	5.0	LA JUNTA	164
504	38.2	15.55	5.0	MESSINA	5442
505	38.373	-81.6	5.0	YEAGER	1619
506	38.417	-113.017	5.0	MILFORD MUNICIPAL	774
507	38.433	77.267	5.0	SHACHE	15714
508	38.65	-88.9667	5.0	SALEM LECKRONE AP	15223
509	38.733	48.833	5.0	LANKARAN	33653
510	38.733	115.483	5.0	BAODING	9153
511	38.8	-97.63	5.0	SALINA	3551
512	38.817	35.433	5.0	KAYSERI/ERKILET	1942
513	38.833	93.383	5.0	LENGHU	15645
514	38.87	-98.82	5.0	RUSSELL	284
515	39.1	-96.767	5.0	FT RILEY/MARSHALL A	1222
516	39.1	107.983	5.0	OTOG QI	9443
517	39.2	45.417	5.0	NAXCIVAN	914
518	39.283	109.75	5.0	CHASAKOCHI	3515
519	39.383	111.15	5.0	HEQU	8713
520	39.45	-74.6667	5.0	ATLANTIC CITY U-A	10118
521	39.6667	118.1167	5.0	TANG SHAN	251
522	39.783	105.75	5.0	JARTAI	9470
523	39.8	78.567	5.0	BACHU	9060
524	39.867	4.233	5.0	MENORCA/MAHON	165
525	39.983	46.75	5.0	KHANKANDY	657
526	40.1	113.333	5.0	DATONG	8658
527	40.12	-103.17	5.0	AKRON	214
528	40.2	-8.417	5.0	COIMBRA	458
529	40.217	69.733	5.0	KHUDJAND	382
530	40.267	97.033	5.0	YUMENZHEN	2942
531	40.433	-80.0	5.0	PITTSBURGH/EMSU	544
532	40.55	70.95	5.0	KOKAND	7416
533	40.633	87.7	5.0	TIKANLIK	16175
534	40.65	-73.7833	5.0	NEW YORK JFK AP	24923
535	40.6667	-89.6833	5.0	PEORIA GTR PEORIA AP	29195
536	40.783	43.833	5.0	GUMRI	147
537	40.85	35.583	5.0	MERZIFON	1796
538	40.917	72.95	5.0	DZHALAL-ABAD	30741
539	40.933	78.45	5.0	AKQI	5651
540	40.95	-5.5	5.0	SALAMANCA/MATACAN	173
541	40.967	117.917	5.0	CHENGDE	6676
542	40.97	107.17	5.0	XAMBA	1094
543	41.1167	122.95	5.0	AN SHAN	362
544	41.22	-103.1	5.0	SYDNEY	677
545	41.233	-8.683	5.0	PORTO/PEDRAS RUBRAS	1615
546	41.25	-76.917	5.0	WILLIAMSPORT/LYCOMI	463
547	41.26	80.3	5.0	WEN-SU	9162
548	41.433	76.0	5.0	NARYN	13926
549	41.45	31.8	5.0	ZONGULDAK	304
550	41.45	106.383	5.0	HAILS	4738
551	41.55	46.667	5.0	ZAKATALA	424
552	41.633	41.6	5.0	BATUMI	7554
553	41.65	-70.5167	5.0	FALMOUTH OTIS AFB	383
554	41.65	25.367	5.0	KURDJALI	9983
555	41.7	-86.3167	5.0	SOUTH BEND ST JOSEPH	612
556	41.717	-4.85	5.0	VALLADOLID/VILLANUB	206
557	41.733	64.617	5.0	TAMDY	24209
558	41.75	103.9667	5.0	PANG-TING-TO-TO-KAI	1057
559	41.7833	95.1333	5.0	XING-XING-XIA	122
560	41.8	12.233	5.0	ROMA FIUMICINO	25186
561	41.8667	-103.5833	5.0	SCOTTSBLUFF AAF	987
562	42.0833	-91.6167	5.0	CEDAR RAPIDS ECHO SI	1310
563	42.2	-1.45	5.0	BARDENAS REALES	4866
564	42.217	-75.983	5.0	BINGHAMTON/BROOME C	109
565	42.4	112.9	5.0	JURH	11935
566	42.45	-2.333	5.0	LOGRONO/AGONCILLO	349
567	42.583	-5.65	5.0	LEON/VIRGEN DEL CAM	200
568	42.7	-68.3	5.0	ENVIRONM BUOY 44005	574
569	42.917	-106.467	5.0	CASPER/NATRONA COUN	1420
570	42.933	89.2	5.0	TURPAN	10824
571	42.9667	-83.75	5.0	FLINT BISHOP AP	29048
572	43.0	1.1	5.0	SAINT GIRONS	158
573	43.2	107.167	5.0	HANBOGD	2539
574	43.483	91.633	5.0	SHISANJIANFANG	15467
575	43.517	16.433	5.0	SPLIT/MARJAN	4568
576	43.583	-118.95	5.0	BURNS MUNI (AMOS)	1705
577	43.6	118.067	5.0	LINXI	3300
578	43.633	1.367	5.0	TOULOUSE BLAGNAC	1937
579	43.75	24.883	5.0	TR. MAGURELE	218
580	43.88	-69.93	5.0	BRUNSWICK	965
581	43.917	-0.5	5.0	MONT-DE-MARSAN	166
582	43.983	119.4	5.0	LINDONG	4651
583	44.017	89.567	5.0	QITAI	9992
584	44.017	145.867	5.0	JUZHNO-KURILSK	37102
585	44.167	80.067	5.0	ZHARKENT	23543
586	44.317	23.867	5.0	CRAIOVA	548
587	44.55	50.25	5.0	FORT SHEVCHENKO	1177
588	44.567	129.6	5.0	MUDANJIANG	4789
589	44.583	4.733	5.0	MONTELIMAR	189
590	44.583	117.6	5.0	XI UJIMQIN QI	8443
591	44.617	82.9	5.0	JINGHE	10505
592	44.617	114.15	5.0	NARAN BULAG	14093
593	44.633	22.633	5.0	DROBETA TURNU SEVER	953
594	44.7833	20.5333	5.0	BEOGRAD/SELENO BRD	8769
595	44.9	110.117	5.0	SAINSHAND	17817
596	45.0	-16.0	5.0	OCEAN WEATHER SHIP K	2558
597	45.0	136.6	5.0	TERNEJ	35417
598	45.15	26.817	5.0	BUZAU	652
599	45.15	29.667	5.0	SULINA	178
600	45.5	28.2	5.0	GALATI	7351
601	45.667	-0.317	5.0	COGNAC	356
602	45.767	106.283	5.0	MANDALGOBI	3030
603	45.867	1.183	5.0	LIMOGES	190
604	45.867	22.9	5.0	DEVA	887
605	46.0	18.233	5.0	PECS/POGANY	127
606	46.18	45.35	5.0	YASHKUL	3336
607	46.2	150.5	5.0	URUP	29544
608	46.374	-117.015	5.0	LEWISTON NEZ PERCE	432
609	46.533	24.533	5.0	TG. MURES	1169
610	46.583	26.983	5.0	BACAU	1500
611	46.767	-56.167	5.0	SAINT-PIERRE	690
612	46.8	75.083	5.0	BALHASH	36009
613	46.817	130.333	5.0	CHIAMUSSU	2815
614	46.85	1.7167	5.0	CHATEAUROUX	5082
615	46.85	151.8667	5.0	SIMUSIR	4608
616	46.9667	-122.9	5.0	OLYMPIA MUN I AP	1217
617	47.033	21.9	5.0	ORADEA	822
618	47.15	-1.6	5.0	NANTES	256
619	47.167	27.633	5.0	IASI	1100
620	47.267	5.083	5.0	DIJON	234
621	47.267	16.633	5.0	SZOMBATHELY	183
622	47.383	123.917	5.0	QIQIHAR	17927
623	47.45	101.467	5.0	TSETSERLEG	2069
624	47.567	-59.15	5.0	PORT-AUX-BASQUES	2303
625	47.633	26.25	5.0	SUCEAVA	513
626	47.75	96.85	5.0	ULIASTAI	1923
627	47.8	3.55	5.0	AUXERRE	185
628	47.95	-97.4	5.0	GRAND FORKS AFB	517
629	47.983	8.9	5.0	NEUHAUSEN OB ECK	13874
630	48.017	91.567	5.0	HOVD	3097
631	48.07	5.03	5.0	CHAUMONT	4616
632	48.183	-103.633	5.0	WILLISTON/SLOULIN F	460
633	48.55	-109.767	5.0	HAVRE (AMOS)	690
634	48.65	144.75	5.0	M. TERPENIYA (FL)	7763
635	48.667	116.817	5.0	XIN BARAG YOUQI	12550
636	48.7	-8.9167	5.0	ENVIRONM BUOY 62027	215
637	48.8	103.55	5.0	BULGAN	2639
638	48.917	106.067	5.0	BARUUNHARAA	2895
639	49.067	20.25	5.0	POPRAD/TATRY	15541
640	49.2	-123.167	5.0	VANCOUVER INT. AIRP	14056
641	49.3	4.033	5.0	REIMS	179
642	49.633	-112.8	5.0	LETHBRIDGE AWOS	9936
643	49.75	10.2	5.0	KITZINGEN AAF	631
644	49.9	-97.233	5.0	WINNIPEG INT.AIRPOR	16336
645	50.0	88.667	5.0	KOS-AGAC	10486
646	50.017	155.4	5.0	M. VASILYEV	34757
647	50.133	1.833	5.0	ABBEVILLE	116
648	50.133	65.233	5.0	AMANGELDY	15887
649	50.233	-119.283	5.0	VERNON AUTO	15732
650	50.28	21.43	5.0	MIELEC	738
651	50.383	-102.683	5.0	BROADVIEW	8722
652	50.433	-104.667	5.0	REGINA INTL	6105
653	50.8667	7.1333	5.0	KOLN/BONN	1759
654	51.083	-0.217	5.0	CRAWLEY	37592
655	51.1	-100.05	5.0	DAUPHIN AIRPORT	2648
656	51.11	13.67	5.0	WAHNSDORF	40165
657	51.117	-114.017	5.0	CALGARY INTL	15534
658	51.133	-106.583	5.0	ELBOW CS	165
659	51.1333	71.3667	5.0	CELINOGRAD	167
660	51.1833	40.7	5.0	KAMENNAYA STEP NO2	6225
661	51.25	51.4	5.0	URALSK	34602
662	51.4	-3.35	5.0	CARDIFF-WALES ARPT	890
663	51.517	-109.183	5.0	KINDERSLEY ARPT	914
664	51.717	126.65	5.0	HUMA	6620
665	51.733	6.267	5.0	KALKAR	3052
666	51.85	10.7667	5.0	WERNIGERODE	9806
667	52.05	29.25	5.0	MOZYR (AMOS)	6912
668	52.167	-106.717	5.0	SASKATOON DIEFENBAKE	2309
669	52.267	7.433	5.0	NORDHORN	5346
670	52.417	16.85	5.0	POZNAN	31288
671	52.433	-114.917	5.0	ROCKY MTN HOUSE	1475
672	52.5	-20.0	5.0	OCEAN WEATHER SHIP J	2559
673	52.8	-2.667	5.0	SHAWBURY	561
674	53.05	158.33	5.0	NIKOLAEVKA	127
675	53.067	132.983	5.0	EKIMCHAN	29232
676	53.2	-70.9	5.0	NITCHEQUON	15444
677	53.217	-105.667	5.0	PRINCE ALBERT ARPT	9605
678	53.6167	109.6333	5.0	BARGUZIN	6508
679	53.7333	87.1833	5.0	ABAGUR	181
680	53.833	-89.867	5.0	TROUT LAKE	15743
681	53.85	-94.65	5.0	ISLAND LAKE ARPT	4067
682	53.883	-122.667	5.0	PRINCE GEORGE	30854
683	53.9	-166.53	5.0	DUTCH HARBOR	2953
684	54.2	16.1833	5.0	KOSZALIN	1537
685	54.3	-1.533	5.0	LEEMING	777
686	54.383	10.15	5.0	KEIL/HOLTENAU	15248
687	54.8	105.167	5.0	ZHIGALOVO	35584
688	55.283	-114.783	5.0	SLAVE LAKE AIRPORT	13183
689	55.317	-3.2	5.0	ESKDALEMUIR	233
690	56.0	92.883	5.0	KRASNOYARSK	40900
691	56.433	-2.867	5.0	SHANWELL	35061
692	56.483	21.017	5.0	LIEPAJA	26905
693	56.65	-111.217	5.0	FORT MCMURRAY ARPT	11470
694	57.1	9.867	5.0	FLYVESTATION AALBOR	4824
695	57.2	-2.217	5.0	ABERDEEN/DYCE AIRPO	421
696	57.58	39.58	5.0	JAROSLAVL	529
697	58.183	12.15	5.0	TORPABRON	288
698	59.0	-19.0	5.0	OCEAN WEATHER SHIP I	2647
699	59.933	30.317	5.0	LENINGRAD/CHOSSEYNOR	254
700	61.267	108.2	5.0	ERBOGACEN	35974
701	61.95	160.8667	5.0	GIZIGA	28015
702	62.1	42.9	5.0	SENKURSK	255
703	62.7833	148.1333	5.0	SUSUMAN	12807
704	62.85	149.76	5.0	SHTURMOVOY	2661
705	64.0	-145.733	5.0	FT GREELY/ALLEN AAF	1398
706	64.683	170.417	5.0	MARKOVO	33706
707	64.917	77.817	5.0	TARKO-SALE	33211
708	66.0	2.0	5.0	OCEAN WEATHER SHIP M	2031
709	66.567	-145.267	5.0	FORT YUKON	133
710	67.47	86.57	5.0	IGARKA	13709
711	68.1	-165.7667	5.0	CAPE THOMPSON	100
712	68.23	-135.0	5.0	AKLAVIK	7053
713	68.47	73.6	5.0	MYS KAMENNY	29022
714	68.65	43.3	5.0	KANIN NOS	4393
715	69.4	86.17	5.0	DUDINKA	5076
716	70.1333	-143.6333	5.0	BARTER ISLAND WSO AP	25677
717	70.45	-68.55	5.0	CLYDE RIVER	13851
718	70.967	-178.65	5.0	OSTROV VRANGELYA	29474
719	72.0	-125.27	5.0	SACHS HARBOUR	22298
720	73.2	143.533	5.0	MYS SHALAUROVA	27652
721	73.33	70.03	5.0	IM POPOVA	11828
722	74.67	112.93	5.0	OSTROV PREOBRAZHENIA	28488
723	76.15	152.83	5.0	OSTROV ZOHOVA	20328
724	76.1833	62.5667	5.0	RUSSKAJA GAVAN	246
725	77.23	-62.33	5.0	THULE	119
726	77.5	82.23	5.0	OSTROV UEDINENIA	24206
727	78.0667	13.6333	5.0	ISFJORD RADIO	1297
728	79.5	76.98	5.0	OSTROV VIZE	26148
729	80.05	18.3	5.0	KINNVIKA STATION	259
730	81.6	-16.67	5.0	NORD	10981
731	-77.85	-39.95835	5.6	GENERAL BELGRANO,ELLSWORTH IGY	3920
732	-11.6665	33.81699999999999	5.6	MZIMBA,MZUZU	8106
733	-8.525	126.4835	5.6	KOMORO,BAU CAU	6939
734	-7.649850000000001	110.5915	5.6	ADISUCIPTO/JOGYAKAR,SURAKARTA/ADISUMARM	6614
735	-6.725	107.625	5.6	BANDUNG/HUSEIN,KALIJATI	3518
736	-4.375	15.3415	5.6	KINSHASA/NDJILI,KINSHASA/BINZA	1037
737	-0.23349999999999999	35.008500000000005	5.6	KERICHO,KISUMU	10864
738	0.7499999999999999	35.15	5.6	ELDORET,KITALE	11263
739	3.1085000000000003	101.6	5.6	PETALING JAYA,KUALA LUMPUR SUBANG	34224
740	10.541999999999998	-71.69149999999999	5.6	LA CANADA,MARACAIBO-LA CHINIT	1487
741	10.807311320754717	106.94964716981131	5.9	BIEN HOA (VVBH),BARIA (PHUOC LE),AN LOC	1812
742	13.983350000000002	108.33335	5.6	AN KHE (VVAK),PLEIKU AB	922
743	15.0585	120.325	5.6	SUBIC BAY WEATHER,CROW VALLEY GUNNERY	4499
744	15.45	44.1915	5.6	SANAA,SANA'A (CIV/MIL)	2841
745	16.68459811320755	107.26820566037736	5.9	DONG HA,HUE/PHU BAI,QUANG TRI	2118
746	22.2335	120.5915	5.6	467590,DONGGANG (=595530)	26550
747	23.208499999999997	120.3	5.6	TAINAN (TW-AFB),CHIAYI (TW-AFB)	12503
748	24.3665	118.258	5.6	CHIANGYANG,CHINMEM/SHATOU(AFB)	10508
749	30.5	-86.5	5.6	HURLBURT FIELD (AF),EGLIN AFB RANGE NO.	777
750	30.64835	-96.51500000000001	5.6	BRYAN,COLLEGE STATION (BRYAN AFB)	2651
751	31.108000000000004	-92.833	5.6	FORT POLK (ARMY),CLAIBORNE RNG (AFS)	4525
752	32.26649999999999	35.9165	5.6	AMMAN AIRPORT,IRBED	2006
753	33.033500000000004	130.1085	5.6	NAGASAKI AIRPORT,SAGA AIRPORT	1005
754	35.1315	139.7515	5.6	TATEYAMA AB,YOKOSUKA	1947
755	35.27385	-116.35664999999999	5.6	BAKER,BICYCLE LAKE (AAF)	2252
756	35.3	-117.2665	5.6	CUDDLEBACK GUNNERY,SUPERIOR VALLEY GUN	6790
757	35.48350000000001	8.4	5.6	TEBESSA,THALA	16947
758	35.9415	129.0335	5.6	DAEGU AB,POHANG AB	6547
759	36.45	5.1585	5.6	SETIF,BEJAIA-AEROPORT	17970
760	36.716499999999996	8.775	5.6	JENDOUBA,TABARKA	24747
761	36.6665	127.4665	5.6	CHEONGJU,CHEONGJU INTL AIRPO	6428
762	36.80022641509434	-116.00607169811319	5.9	YUCCA FLATS TEST 21,INDIAN SPRINGS GUNN,JACKASS FLATS	14493
763	37.39149999999999	127.01700000000001	5.6	SV RI SAN,SEOUL AB	7063
764	38.715792452830186	-104.72005660377359	5.9	AIR FORCE ACADEMY,PUEBLO MEMORIAL(AW),FORT CARSON/BUTTS	11440
765	40.666999999999994	46.783500000000004	5.6	EVLAKH AIRPORT,GANDJA	982
766	42.2	42.833000000000006	5.6	SAKARA,KUTAISI	571
767	42.616499999999995	-92.44149999999999	5.6	WATERLOO,WAVERLY	1548
768	43.533500000000004	6.975	5.6	SAINT-RAPHAEL,NICE	667
769	43.575	-1.3	5.6	BIARRITZ,DAX	1383
770	45.1835	-83.18350000000001	5.6	ALPENA/PHELPS COLLI,ENVIRONM BUOY 45003	685
771	45.641999999999996	-73.583	5.6	MONTREAL/TRUDEAU INT,LASSOMPTION CDA	17931
772	45.6	25.558	5.6	PREDEAL,BRASOV-GHIMBAV	1501
773	45.967	21.2835	5.6	TIMISOARA,ARAD	8037
774	45.80800000000001	24.508	5.6	SIBIU,FAGARAS	967
775	46.36	121.705	5.6	ULANHOT,TE-PO-SU-K/-MIAO	13962
776	47.69199999999999	23.191499999999998	5.6	BAIA MARE,SATU MARE	2659
777	49.5415	11.5585	5.6	FEUCHT(USA-AF),GRAFENWOEHR	4679
778	49.8	6.935	5.6	BAUMHOLDER (USA-AF),BITBURG	5102
779	50.092	8.8085	5.6	LANGEN,HANAU	1153
780	53.492000000000004	-113.525	5.6	EDMONTON INTL ARPT,EDMONTON NAMAO ARPT	10372
781	-0.20425	37.275000000000006	6.2	EMBU,NYERI,NANUYKI,MERU	7361
