	latitude	longitude	radius	station	records
0	-80.017	-119.533	5.0	BYRD STN	7679
1	-79.25	-147.5	5.0	LITTLE ROCKFORD	309
2	-78.45	106.867	5.0	VOSTOK	7319
3	-78.4	87.583	5.0	SOVIETSKAVA	273
4	-76.2667	-147.5	5.0	LITTLE ROCKFORD	389
5	-72.3	170.2167	5.0	ADARE HALLETT	4373
6	-70.4333	24.3167	5.0	BASE ROI BAUDOUIN	1097
7	-70.317	-2.367	5.0	SANAE	9815
8	-69.73	95.05	5.0	PIONERSKAVA	121
9	-69.5	159.4	5.0	LENINGRADSKAJA	2575
10	-67.667	45.85	5.0	MOLODEZNAJA	13014
11	-66.27	100.73	5.0	BUNGER OASIS	548
12	-65.25	-64.2667	5.0	FARADAY	10141
13	-60.75	-44.7167	5.0	ISLAS ORCADAS (MET)	8699
14	-59.45	-27.267	5.0	CORBETA URUGUAY DN	275
15	-53.1	73.7167	5.0	HEARD IS.(THESPIT)	2295
16	-52.55	169.15	5.0	CAMPBELL ISLAND	18775
17	-51.7	-57.8667	5.0	STANLEY	4603
18	-51.6333	-69.2167	5.0	RIO GALLEGOS B. A.	4526
19	-43.2333	-65.3	5.0	ALMIRANTE ZAR	1150
20	-39.467	175.683	5.0	WAIOURU	2309
21	-38.7333	-62.1667	5.0	COMANDANTE ESPORA	13733
22	-37.867	144.75	5.0	LAVERTON AERODROME	58326
23	-34.017	22.383	5.0	GEORGE AIRPORT	4491
24	-33.6	115.4667	5.0	LUDLOW	539
25	-33.033	27.833	5.0	EAST LONDON	3098
26	-32.5667	148.95	5.0	WELLINGTON	948
27	-31.35	-54.117	5.0	BAGE (AEROPORTO)	1012
28	-30.833	128.1	5.0	FORREST AIRPORT	54264
29	-30.5167	151.65	5.0	ARMIDALE	728
30	-30.0833	145.9667	5.0	BOURKE (S23'05'11'17)	130
31	-30.01	131.583	5.0	MARALINGA	7453
32	-28.8	24.767	5.0	KIMBERLEY	9829
33	-28.567	16.533	5.0	KORTDOORN/ALEXANDER	11144
34	-27.65	152.7167	5.0	AMBERLEY	2455
35	-27.55	135.4833	5.0	OODNADATTA	37900
36	-27.4667	-58.9833	5.0	RESISTENCIA	1200
37	-25.917	32.567	5.0	MAPUTO/MAVALANE	20132
38	-25.55	45.533	5.0	FAUX-CAP	549
39	-23.867	35.383	5.0	INHAMBANE	4808
40	-23.85	151.25	5.0	GLADSTONE	46725
41	-23.617	-46.65	5.0	SAO PAULO	16840
42	-22.483	17.467	5.0	HOSEA KUTAKO INTL A	7483
43	-22.03	-63.68	5.0	YACUIBA	670
44	-21.6333	115.1167	5.0	ONSLOW	25950
45	-21.333	55.483	5.0	ST. PIERRE/FONDS	5723
46	-21.233	-175.15	5.0	FUAAMOTU	5436
47	-21.217	27.5	5.0	FRANCISTOWN	613
48	-20.6667	140.5	5.0	CLONCURRY	33366
49	-20.283	44.317	5.0	MORONDAVA	3268
50	-20.233	169.767	5.0	ANEITYUM	125
51	-19.8	34.9	5.0	BEIRA	8665
52	-19.783	-47.967	5.0	UBERABA	134
53	-19.6	18.117	5.0	GROOTFONTEIN	4094
54	-19.28	121.5	5.0	TALGARNO	297
55	-18.067	-140.95	5.0	HAO	18186
56	-17.883	36.883	5.0	QUELIMANE	2266
57	-17.75	168.3	5.0	VILA (EFATE)	12954
58	-17.38	-66.17	5.0	COCHABAMBA	1502
59	-17.3167	123.6333	5.0	DERBY	7081
60	-17.05	42.717	5.0	ILE JUAN DE NOVA	5730
61	-16.45	-151.75	5.0	BORA-BORA	11160
62	-16.2667	133.3833	5.0	DALY WATERS	20570
63	-15.6	-56.1	5.0	CUIABA	443
64	-15.517	167.217	5.0	PEKOA AIRPORT	661
65	-15.25	23.15	5.0	MONGU	5748
66	-14.95	-147.659	5.0	RANGIROA	5720
67	-14.95	-40.883	5.0	VITORIA DA CONQUIST	123
68	-14.45	-67.53	5.0	RURRENABAQUE	125
69	-13.733	-76.217	5.0	PISCO	1501
70	-12.5	177.05	5.0	ROTUMA	6835
71	-12.15	-45.0	5.0	BARREIRAS	1194
72	-11.783	19.917	5.0	LUENA (LUSO)	1995
73	-11.75	24.4333	5.0	MWINLUNGA	2872
74	-11.583	47.283	5.0	ILES GLORIEUSES	7379
75	-11.3	-41.867	5.0	IRECE	347
76	-10.82	-65.37	5.0	GUAYARAMERIN	618
77	-10.7	-48.4	5.0	PORTO NACIONAL	1005
78	-10.7	152.833	5.0	MISIMA ISLAND	2055
79	-10.7	165.8	5.0	SANTA CRUZ ISLAND	151
80	-10.583	142.217	5.0	THURSDAY IL/HORN IL	21187
81	-10.45	105.7	5.0	CHRISTMAS ISL (PVT)	3447
82	-10.217	31.133	5.0	KASAMA	3135
83	-9.35	46.533	5.0	ALDABRA	143
84	-9.333	-54.967	5.0	CACHIMBO AERO	2176
85	-9.1	-44.117	5.0	BOM JESUS	376
86	-8.85	13.233	5.0	LUANDA	8531
87	-8.367	-74.567	5.0	PUCALLPA	328
88	-7.4	20.817	5.0	DUNDO	6240
89	-6.783	-79.817	5.0	CHICLAYO	1504
90	-6.267	-57.733	5.0	JACAREACANGA	287
91	-5.5	-45.267	5.0	BARRA DO CORDA	161
92	-5.083	32.833	5.0	TABORA AIRPORT	1062
93	-4.883	29.667	5.0	KIGOMA	112
94	-4.567	-81.233	5.0	TALARA	1823
95	-4.45	105.183	5.0	MENGGALA/ASTRA KSET	181
96	-4.217	12.667	5.0	DOLISIE	7834
97	-4.217	152.183	5.0	RABAUL	27818
98	-4.1	122.433	5.0	KENDARI/WOLTER MONG	1064
99	-4.05	-154.9833	5.0	MALDEN ISLAND AF	274
100	-3.783	-73.3	5.0	IQUITOS	705
101	-2.767	-171.717	5.0	KANTON ISLAND	16684
102	-2.2	-81.0	5.0	CHINCHIPE	601
103	0.383	6.717	5.0	S. TOME	5381
104	1.083	154.767	5.0	KAPINGAMARANGI ATOL	487
105	1.617	18.067	5.0	IMPFONDO	986
106	1.85	-78.767	5.0	TUMACO	344
107	3.117	35.617	5.0	LODWAR	8644
108	3.85	-159.367	5.0	FANNING ISLAND	103
109	3.883	-51.8	5.0	SAINT GEORGES	2681
110	3.933	41.867	5.0	MANDERA	3516
111	4.417	-7.367	5.0	TABOU	12633
112	4.867	31.6	5.0	JUBA	1813
113	5.3333	163.0167	5.0	KUSAIE/CAROLINES	1652
114	5.467	100.383	5.0	BUTTERWORTH AB	24729
115	5.8833	-162.05	5.0	PALMYRA ISLAND	631
116	5.9	43.583	5.0	GODE	237
117	5.917	169.65	5.0	JALUIT ATOLL	130
118	6.25	-10.35	5.0	ROBERTS FIELD	1457
119	6.467	7.55	5.0	ENUGU	469
120	6.583	3.333	5.0	LAGOS/IKEJA	3244
121	6.9	122.067	5.0	ZAMBOANGA	4876
122	7.233	-70.8	5.0	GUASDUALITO	356
123	7.3	-61.45	5.0	TUMEREMO	451
124	7.383	143.917	5.0	WOLEAI ATOLL	106
125	7.7	28.017	5.0	WAU	717
126	8.28	73.05	5.0	MALIKU	574
127	8.4	20.65	5.0	NDELE	2173
128	9.15	92.81	5.0	CAR NICOBAR	1627
129	9.55	31.65	5.0	MALKAL	4130
130	9.617	6.533	5.0	MINNA	440
131	10.6	-66.983	5.0	CARACAS/MAIQUETIA A	912
132	10.717	115.833	5.0	NENSHA ISL	436
133	10.85	121.033	5.0	CUYO	270
134	11.35	162.35	5.0	ENEWETAK	16361
135	11.55	43.15	5.0	DJIBOUTI	2487
136	11.85	13.083	5.0	MAIDUGURI	593
137	12.433	98.6	5.0	MERGUI	3067
138	12.7	28.433	5.0	EN NAHUD	198
139	12.917	74.883	5.0	MANGALORE/BAJPE	2209
140	13.75	-60.98	5.0	VIEUX FORT	815
141	14.067	-83.367	5.0	PUERTO CABEZAS	4028
142	14.117	93.367	5.0	COCO ISLAND	985
143	14.5	-4.2	5.0	MOPTI-SEVARE	11065
144	14.8	-17.0667	5.0	THIES	3844
145	15.117	145.733	5.0	SAIPAN/ISLEY (CGS)	7992
146	15.15	76.95	5.0	BELLARY	989
147	15.283	38.917	5.0	ASMARA	2299
148	16.533	80.8	5.0	VIJAYAWADA/GANNAVA	8012
149	16.55	111.617	5.0	HOANG SA (PATTLE)	417
150	16.7333	-169.5167	5.0	JOHNSTON IS WSO AP	27741
151	16.9	96.183	5.0	MINGALADON	945
152	17.4	-83.9333	5.0	SWAN ISLAND	22712
153	18.0	19.167	5.0	FAYA	2999
154	18.433	1.35	5.0	KIDAL	5839
155	18.467	94.35	5.0	SANDOWAY	6057
156	18.9	72.82	5.0	COLABA	973
157	19.1	108.617	5.0	DONGFANG	6890
158	19.2833	166.65	5.0	WAKE IS	38611
159	19.883	102.133	5.0	LUANG-PRABANG	472
160	19.9	-75.217	5.0	GUANTANAMO BAY NAS	23093
161	20.57	74.53	5.0	MALEGAON	2563
162	20.667	58.9	5.0	MASIRAH	514
163	20.883	95.9	5.0	MEIKTILA	5141
164	21.217	110.4	5.0	ZHANJIANG	5208
165	21.3	99.617	5.0	KENGTUNG	231
166	21.4	-77.85	5.0	CAMAGUEY	5786
167	22.25	91.82	5.0	CHATTAGRAM	1629
168	22.767	81.9	5.0	PENDRA ROAD	5308
169	22.77	88.37	5.0	BARAKPUR	388
170	23.73	-99.11	5.0	CIUDAD VICTORIA	1366
171	23.8167	5.15	5.0	IN AMGUEL	144
172	23.8833	100.0833	5.0	LINCANG	2076
173	24.217	23.3	5.0	KUFRA	6321
174	24.267	9.467	5.0	DJANET	6261
175	24.7	46.733	5.0	RIYADH OBS.	11578
176	25.233	-11.617	5.0	BIR MOGHREIN	5175
177	25.25	55.37	5.0	SHARJAH	2477
178	25.2667	-76.3	5.0	ELEUTHERA ISLAND	6389
179	25.3667	97.4	5.0	MYITKYINA	3942
180	25.8	21.133	5.0	TAZERBO	3989
181	26.2	36.483	5.0	AL-WEJH	5395
182	26.267	50.167	5.0	DHAHRAN	17304
183	26.9667	1.0833	5.0	AOULEF	3606
184	27.7	68.92	5.0	SUKKUR	668
185	28.2	-177.3833	5.0	MIDWAY IS NAS	33263
186	28.63	77.2	5.0	NEW DEHLI	2068
187	28.883	-118.3	5.0	ISLA GUADALUPE	13025
188	29.0	135.0	5.0	OCEAN WEATHER SHIP T	5347
189	29.25	0.283	5.0	TIMIMOUN	9666
190	29.3	117.2	5.0	JINGDEZHEN	5385
191	29.5667	94.4667	5.0	NYINGCHI	6509
192	30.0	-140.0	5.0	OCEAN WEATHER SHIP N	19180
193	30.133	-2.167	5.0	BENI-ABBES	7838
194	30.483	140.3	5.0	TORISHIMA	6556
195	31.35	69.467	5.0	ZHOB	8789
196	31.367	90.017	5.0	BAINGOIN	11427
197	31.867	93.767	5.0	SOG XIAN	7101
198	31.867	117.233	5.0	HEFEI	9149
199	31.9333	5.4	5.0	OUARGLA	2887
200	32.5	80.067	5.0	SHIQUANHE	10631
201	33.033	40.283	5.0	RUTBAH	2392
202	33.233	126.25	5.0	MOESULPO AB	17945
203	33.37	43.57	5.0	AL HABBANIYAH	5634
204	34.0	164.0	5.0	OCEAN WEATHER SHIP V	12375
205	34.25	108.93	5.0	SIAN	196
206	34.583	105.75	5.0	TIANSHUI	6899
207	34.683	32.817	5.0	EPISKOPI	4391
208	35.0	-48.0	5.0	OCEAN WEATHER SHIP E	8767
209	36.867	30.733	5.0	ANTALYA	1476
210	37.467	53.967	5.0	ESENGYLY	36098
211	37.5	71.5	5.0	KHOROG	28898
212	37.783	-0.8	5.0	MURCIA/SAN JAVIER	1000
213	37.93	83.65	5.0	ANDIR	14362
214	37.987	58.361	5.0	ASHGABAT KESHI	38470
215	39.083	63.6	5.0	CHARDZHEV	36014
216	39.867	4.233	5.0	MENORCA/MAHON	165
217	40.633	87.7	5.0	TIKANLIK	16175
218	40.9019	-117.8072	5.0	WINNEMUCCA MUNI AP	43590
219	41.1167	122.95	5.0	AN SHAN	362
220	41.45	31.8	5.0	ZONGULDAK	304
221	41.733	64.617	5.0	TAMDY	24209
222	41.8	12.233	5.0	ROMA FIUMICINO	25186
223	41.833	59.983	5.0	DASHKHOVUZ	40766
224	42.4	-96.383	5.0	SIOUX CITY MUNI	9727
225	42.4	112.9	5.0	JURH	11935
226	43.517	16.433	5.0	SPLIT/MARJAN	4568
227	44.0	-41.0	5.0	OCEAN WEATHER SHIP D	9766
228	44.017	145.867	5.0	JUZHNO-KURILSK	37102
229	44.117	-123.217	5.0	EUGENE/MAHLON SWEET	5856
230	44.3833	-98.2167	5.0	HURON RGNL AP	33451
231	44.55	50.25	5.0	FORT SHEVCHENKO	1177
232	44.567	129.6	5.0	MUDANJIANG	4789
233	44.617	114.15	5.0	NARAN BULAG	14093
234	44.62	33.53	5.0	SEWASTOPOL	723
235	44.9	110.117	5.0	SAINSHAND	17817
236	45.0	136.6	5.0	TERNEJ	35417
237	45.767	106.283	5.0	MANDALGOBI	3030
238	45.8	-108.533	5.0	BILLINGS/LOGAN INT.	18423
239	46.18	45.35	5.0	YASHKUL	3336
240	46.5667	-87.4	5.0	MARQUETTE	8748
241	46.783	61.65	5.0	ARALSKOE MORE	40172
242	46.8	75.083	5.0	BALHASH	36009
243	47.267	16.633	5.0	SZOMBATHELY	183
244	47.567	-59.15	5.0	PORT-AUX-BASQUES	2303
245	47.75	96.85	5.0	ULIASTAI	1923
246	48.017	91.567	5.0	HOVD	3097
247	48.55	-109.767	5.0	HAVRE (AMOS)	690
248	48.65	144.75	5.0	M. TERPENIYA (FL)	7763
249	48.667	116.817	5.0	XIN BARAG YOUQI	12550
250	48.7	-8.9167	5.0	ENVIRONM BUOY 62027	215
251	48.917	106.067	5.0	BARUUNHARAA	2895
252	49.6	34.55	5.0	POLTAVA	634
253	50.0	-145.0	5.0	OCEAN WEATHER SHIP P	12221
254	50.0	88.667	5.0	KOS-AGAC	10486
255	50.017	155.4	5.0	M. VASILYEV	34757
256	50.133	65.233	5.0	AMANGELDY	15887
257	50.28	-64.17	5.0	MINGAN	632
258	50.417	80.3	5.0	SEMIPALATINSK	42269
259	51.1	-100.05	5.0	DAUPHIN AIRPORT	2648
260	51.1333	71.3667	5.0	CELINOGRAD	167
261	51.717	126.65	5.0	HUMA	6620
262	51.883	-176.65	5.0	ADAK (NAS)	33391
263	52.267	104.317	5.0	IRKUTSK	39087
264	52.5	-20.0	5.0	OCEAN WEATHER SHIP J	2559
265	52.75	-35.5	5.0	OCEAN WEATHER SHIP C	13900
266	52.8	173.16	5.0	ATTU ISLAND	3463
267	53.05	158.33	5.0	NIKOLAEVKA	127
268	53.067	132.983	5.0	EKIMCHAN	29232
269	53.2	-70.9	5.0	NITCHEQUON	15444
270	53.6167	109.6333	5.0	BARGUZIN	6508
271	53.7333	87.1833	5.0	ABAGUR	181
272	53.833	-89.867	5.0	TROUT LAKE	15743
273	53.85	-94.65	5.0	ISLAND LAKE ARPT	4067
274	53.883	-122.667	5.0	PRINCE GEORGE	30854
275	54.0	123.967	5.0	SKOVORODINO	31293
276	54.8	105.167	5.0	ZHIGALOVO	35584
277	55.35	-131.65	5.0	KETCHIKAN	5932
278	56.0	92.883	5.0	KRASNOYARSK	40900
279	56.483	21.017	5.0	LIEPAJA	26905
280	56.5	-51.0	5.0	OCEAN WEATHER SHIP B	11583
281	56.65	-111.217	5.0	FORT MCMURRAY ARPT	11470
282	56.8	60.6	5.0	SWERDLOWSK	171
283	57.58	39.58	5.0	JAROSLAVL	529
284	58.37	-134.58	5.0	JUNEAU	15260
285	59.0	-19.0	5.0	OCEAN WEATHER SHIP I	2647
286	60.38	5.33	5.0	BERGEN	179
287	61.08	-69.55	5.0	CAPE HOPES ADVANCE STATION	661
288	61.267	108.2	5.0	ERBOGACEN	35974
289	61.95	160.8667	5.0	GIZIGA	28015
290	62.0	-33.0	5.0	OCEAN WEATHER SHIP A	7562
291	62.1	42.9	5.0	SENKURSK	255
292	63.017	179.283	5.0	BERINGOVSKAJA	25831
293	63.12	23.08	5.0	KAUHAVA	611
294	63.183	14.5	5.0	OSTERSUND/FROSON	16859
295	63.32	30.5	5.0	LIEKSA	148
296	63.43	-51.18	5.0	MARRAK POINT	353
297	63.5	-90.7	5.0	CHESTERFIELD INLET	472
298	64.683	170.417	5.0	MARKOVO	33706
299	64.917	77.817	5.0	TARKO-SALE	33211
300	65.93	-36.68	5.0	IKATEQ	111
301	66.0	2.0	5.0	OCEAN WEATHER SHIP M	2031
302	66.567	-145.267	5.0	FORT YUKON	133
303	67.0	-50.8	5.0	KANGERLUSSUAK	3155
304	67.8167	-115.0833	5.0	COPPERMINE	14703
305	68.23	-135.0	5.0	AKLAVIK	7053
306	68.47	73.6	5.0	MYS KAMENNY	29022
307	68.65	43.3	5.0	KANIN NOS	4393
308	69.3667	-152.1333	5.0	UMIAT	611
309	69.783	61.783	5.0	AMDERMA	34229
310	70.1333	-143.6333	5.0	BARTER ISLAND WSO AP	25677
311	70.45	-68.55	5.0	CLYDE RIVER	13851
312	72.0	-125.27	5.0	SACHS HARBOUR	22298
313	73.0	-85.3	5.0	ARCTIC BAY (NWT)	7539
314	73.2	143.533	5.0	MYS SHALAUROVA	27652
315	73.33	70.03	5.0	IM POPOVA	11828
316	74.67	112.93	5.0	OSTROV PREOBRAZHENIA	28488
317	76.15	152.83	5.0	OSTROV ZOHOVA	20328
318	76.25	-119.35	5.0	MOULD BAY	34676
319	77.23	-62.33	5.0	THULE	119
320	77.5	82.23	5.0	OSTROV UEDINENIA	24206
321	77.72	104.28	5.0	MYS CHELIUSKINA	657
322	78.8	-103.5	5.0	ISACHSEN	21510
323	79.5	76.98	5.0	OSTROV VIZE	26148
324	80.45	52.8	5.0	BUKHTA TIKHAYA/GUKER IS.	4385
325	81.6	-16.67	5.0	NORD	10981
326	-78.35	-163.025	5.6	LITTLE AMERICA,LITTLE AMERICA	1819
327	-77.85	-39.95835	5.6	GENERAL BELGRANO,ELLSWORTH IGY	3920
328	-62.824850000000005	-57.58315	5.6	PETREL NAS,BELLINGSHAUSEN AWS	7996
329	-54.3	-68.03335	5.6	USHUAIA,RIO GRANDE AIRPORT	5210
330	-42.95	173.125	5.6	CHRISTCHURCH,KAIKOURA	36985
331	-42.54165	146.19165	5.6	HOBART,GEOGERTOWN	4754
332	-34.973499999999994	-57.8815	5.6	PUNTA INDIO B.A.,BUENOS AIRES	258
333	-36.06864150943396	174.0716037735849	5.9	KAITAIA,AUCKLAND AIRPORT,AUCKLAND	40579
334	-32.83165	-70.17999999999999	5.6	OBSERV MENDOZA,QUINTERO (MIL)	32013
335	-25.46462264150943	26.884433962264154	5.9	PRETORIA-EENDRACHT,MAFIKENG WO,GABORONE	5786
336	-22.566499999999998	43.55	5.6	TOLIARA,MOROMBE	6636
337	-21.29185	-138.675	5.6	MURUROA,TUREIA	7178
338	-18.683500000000002	30.491499999999995	5.6	GWERU,HARARE (KUTSAGA)	6112
339	-18.225	26.333500000000004	5.6	HWANGE NATIONAL PAR,LIVINGSTONE	9859
340	-17.7083	140.3	5.6	BURKETOWN,NORMANTON AIRPORT	374
341	-15.074849999999998	12.86685	5.6	MOCAMEDES,LUBANGO	1831
342	-14.083350000000001	-171.28315	5.6	LEONE BAY AMERICAN S,APIA	10855
343	-14.04330188679245	40.60537735849057	5.9	PEMBA,LUMBO,MOSSURIL	9514
344	-12.584999999999999	14.639999999999997	5.6	HUAMBO,LOBITO	401
345	-11.9085	43.833	5.6	OUANI (ANJOUAN),MORONI AIRPORT	8502
346	-10.216999999999999	-36.4165	5.6	ARACAJU,MACEIO (AEROPORTO)	550
347	-9.4415	33.675	5.6	KARONGA,MBEYA	3362
348	-5.975	146.3915	5.6	LAE,MADANG	47370
349	-6.849283018867924	107.79881132075472	5.9	KALIJATI,CIBEUREM/TASIK(AFB),BANDUNG/HUSEIN	4143
350	-6.730169811320755	36.264396226415094	5.9	DODOMA,IRINGA,MOROGORO	1915
351	-6.239169811320755	-38.762981132075474	5.9	QUIXERAMOBIM,BARBALHA,PATOS	805
352	-4.0665	-42.3	5.6	TERESINA,PARNAIBA	978
353	-3.5061320754716983	15.070509433962261	5.9	DJAMBALA,KINSHASA/NDJILI,KINSHASA/BINZA	2413
354	-1.9	32.367000000000004	5.6	MWANZA,BUKOBA	1816
355	-0.217	30.375	5.6	MBARARA,KASESE	533
356	1.7	32.666999999999994	5.6	MASINDI,SOROTI	744
357	2.9579999999999997	11.5	5.6	BITAM,YAOUNDE	7614
358	3.1085000000000003	101.6	5.6	PETALING JAYA,KUALA LUMPUR SUBANG	34224
359	2.7450377358490567	39.036792452830184	5.9	MOYALE,WAJIR,MARSABIT	7559
360	4.525	22.008	5.6	MOBAYE,BANGASSOU	2349
361	5.2415	-0.9668499999999998	5.6	TAKORADI,ACCRA/KOTOKA INTL	3411
362	5.6	11.5585	5.6	YOKO,KOUNDJA	7096
363	8.575	-5.3420000000000005	5.6	BOUAKE,KORHOGO	26656
364	8.924850000000001	1.875	5.6	TCHAOUROU,SOKODE	11765
365	10.35	170.05	5.6	WOTJE ATOLL,UTIRIK ATOLL M.ISL	876
366	9.94165	-8.4335	5.6	ODIENNE,KANKAN	11615
367	10.0665	124.7	5.6	SURIGAO,LAHUG	2522
368	9.975	98.6	5.6	VICTORIA POINT,RANONG	4161
369	10.528554959321449	-62.879158040505445	6.2	TRINIDAD BWI,PORLAMAR,MATURIN,BARCELONA	13777
370	11.41	166.51500000000001	5.6	RONGERIK,BIKINI	439
371	12.209999999999999	-15.883499999999998	5.6	BISSAU,ZIGUINCHOR	42988
372	12.849849999999998	-8.75815	5.6	BAMAKO,KITA	22823
373	13.666500000000003	21.65	5.6	GENINA,ABECHE	5786
374	14.358499999999998	100.6085	5.6	DON MUANG,LOP BURI	1617
375	15.140811320754716	120.40096226415095	5.9	CROW VALLEY GUNNERY,SUBIC BAY WEATHER,CLARK AB	40252
376	15.616499999999998	73.72349999999999	5.6	GOA/DABOLIM AIRPORT,VENGURLA	2023
377	14.671285615371302	33.42779989613987	6.2	AL-KHARTUM,GEDAREF,AROMA,WAD MEDANI	3825
378	17.191499999999998	101.85849999999999	5.6	PHETCHABUN,VIENTIANE	2563
379	15.384905660377358	-7.0113018867924515	5.9	NEMA,SEGOU,NARA	46086
380	17.5915	42.6915	5.6	GIZAN,KHAMIS MUSHAIT	12767
381	17.5085	-62.3165	5.6	COOLIDGE FIELD (UA),ST. BARTHELEMY	17944
382	18.125	32.9085	5.6	ATBARA,KARIMA	2796
383	20.975	84.925	5.6	CUTTACK,SAMBALPUR	4633
384	21.910000000000004	-72.09	5.6	TURKS ISLAND,MAYAGUAN	11708
385	22.865000000000002	69.8765	5.6	JAMNAGAR,BHUJ	2574
386	22.851188679245283	105.56581132075472	5.9	LONGZHOU,HEKOU,GUANGNAN	22936
387	22.142452830188677	-12.694584905660378	5.9	ZOUERATE,ATAR,FORT GOURAUD	35049
388	23.1335	-82.39000000000001	5.6	VILLA SAN CRISTOBAL DE LA HABA,CASA BLANCA	9746
389	24.816499999999998	73.78999999999999	5.6	UDAIPUR,KANKROLI/RAJSAMAND	2786
390	23.864764150943397	113.98867924528302	5.9	CHU CHIANG,SHANWEI,GUANGZHOU	31719
391	25.287981132075473	107.929	5.9	LUODIAN,LIUZHOU,RONGJIANG	10180
392	26.408500000000004	33.2085	5.6	LUXOR,HURGUADA	9201
393	26.483500000000003	115.667	5.6	CHANGTING,JIAN	9804
394	26.533499999999997	127.7665	5.6	KADENA AB,IEJIMA AUXILIARY AB	25751
395	27.275	9.025	5.6	ILLIZI,IN-AMENAS	12862
396	25.91469433962264	92.57106037735849	5.9	TEZPUR/BINDUKURI,SILCHAR,SHILLONG S06 03Z	2181
397	27.341499999999996	85.1085	5.6	RAXAUL,KATHMANDU AIRPORT	1791
398	26.203694339622636	104.58590943396226	5.9	BIJIE,KAN-HAI-TZU,XINGREN	6683
399	28.058349999999997	98.63315	5.6	LA WANG/TZUKEI,DEQEN	7026
400	28.391499999999997	108.5085	5.6	SINAN,YOUYANG	3313
401	29.241500000000002	122.0	5.6	DACHEN DAO,DINGHAI	22478
402	29.875	20.867	5.6	JALO,AGEDABIA	7226
403	29.541500000000003	101.7335	5.6	JIULONG,KANGDING	5153
404	29.216499999999996	112.383	5.6	CHANGDE,YUEYANG	9542
405	30.767000000000003	47.008	5.6	BASRAH-HUSSEN,NASIRIYA	3040
406	31.433500000000002	107.05799999999999	5.6	NANCHONG,WANYUAN	11656
407	32.741499999999995	102.6	5.6	BARKAM,RUOERGAI	9139
408	31.571425480353124	-8.513510472563615	6.2	SAFI,OUARZAZATE,AGADIR INEZGANNE,MARRAKECH	33394
409	32.61060377358491	22.60941509433962	5.9	SHAHAT,TOBRUK,DERNA	13673
410	34.35850000000001	99.0085	5.6	DARLAG,MADOI	18149
411	34.5835	92.85	5.6	TUOTUOHE,WUDAOLIANG	16374
412	35.058499999999995	62.59185	5.6	HERAT,TAGTABAZAR	14828
413	35.51649999999999	118.6415	5.6	GANYU,YIYUAN	13553
414	36.375	-6.9335	5.6	TANGER (AERODROME),FARO/AEROPORTO	2220
415	36.76665	115.38335	5.6	ANYANG,TE HSIEN/TECHOW	7726
416	36.6835	42.183499999999995	5.6	MOSUL,KAMISHLI	1020
417	37.89149999999999	68.025	5.6	TERMEZ,DUSHANBE	55902
418	37.5835	96.292	5.6	DELINGHA,DA-QAIDAM	16189
419	37.27241509433962	121.11597735849057	5.9	CHENGSHANTOU,WEI HSIEN,LONGKOU	24163
420	38.341499999999996	92.5165	5.6	MANGYA,LENGHU	16837
421	37.386415094339625	15.141358490566038	5.9	MESSINA,LUQA,CATANIA	28317
422	38.77515	-92.89185	5.6	KNOBNOSTER SEDALIA AFB,COLUMBIA REGIONAL	20756
423	39.8335	35.507999999999996	5.6	KAYSERI/ERKILET,MERZIFON	3738
424	39.7415	112.2415	5.6	HEQU,DATONG	17371
425	41.02515	96.08315	5.6	YUMENZHEN,XING-XING-XIA	3064
426	40.635150943396226	71.57192452830188	5.9	DZHALAL-ABAD,KHUDJAND,KOKAND	38539
427	40.29632075471698	-8.73609433962264	5.9	PORTO/PEDRAS RUBRAS,LISBOA/GEOFISICO,COIMBRA	2742
428	41.92288679245283	-5.399056603773585	5.9	LEON/VIRGEN DEL CAM,SALAMANCA/MATACAN,VALLADOLID/VILLANUB	579
429	42.35471698113208	106.11454339622641	5.9	HANBOGD,HAILS,PANG-TING-TO-TO-KAI	8334
430	43.58315	-119.0	5.6	BURNS MUNI (AMOS),BURNS	9056
431	43.589603773584905	90.01579245283018	5.9	QITAI,TURPAN,SHISANJIANFANG	36283
432	44.391999999999996	81.4835	5.6	ZHARKENT,JINGHE	34048
433	44.16484905660377	118.19883018867925	5.9	XI UJIMQIN QI,LINXI,LINDONG	16394
434	46.0	-15.5	5.6	OCEAN WEATHER SHIP K,WEATHERSHIP K CIRRUS	3035
435	46.1915	-93.12485	5.6	ST CLOUD MUNI AP,DULUTH INTL AIRPORT	44129
436	45.31503396226415	-72.94881132075471	5.9	LASSOMPTION CDA,MOUNT WASHINGTON,MONTREAL/TRUDEAU INT	18437
437	46.44185	-113.2915	5.6	BUTTE,MISSOULA/JOHNSON-BE	27980
438	46.525	151.18335000000002	5.6	URUP,SIMUSIR	34152
439	47.033500000000004	-55.0835	5.6	SAINT-PIERRE,ARGENTIA	11989
440	47.275	130.65	5.6	CHIAMUSSU,EKATERINO-NIKOLSKOE	33287
441	46.842547169811326	122.7483962264151	5.9	QIQIHAR,ULANHOT,TE-PO-SU-K/-MIAO	31889
442	48.125	102.5085	5.6	TSETSERLEG,BULGAN	4708
443	50.375	-113.4085	5.6	LETHBRIDGE AWOS,CALGARY INTL	25470
444	50.608000000000004	0.8079999999999998	5.6	ABBEVILLE,CRAWLEY	37708
445	51.95815	41.0835	5.6	KAMENNAYA STEP NO2,TAMBOV	44606
446	52.25	50.925	5.6	URALSK,SAMARA	74259
447	51.683299999999996	178.40834999999998	5.6	AMCHITKA ISLAND,KISKA ISLAND	2216
448	52.991499999999995	28.441499999999998	5.6	MOZYR (AMOS),MINSK	50792
449	53.64000000000001	-167.215	5.6	UMNAK ISLAND,DUTCH HARBOR	5752
450	53.275471698113215	15.62868867924528	5.9	KOSZALIN,POZNAN,BERLIN/TEMPELHOF	63395
451	59.565	19.660000000000004	5.6	STOCKHOLM/BROMMA,UTO	42248
452	61.15835	-164.925	5.6	NUNIVAK AAF,MOUNTAIN VILLAGE	247
453	60.86665000000001	-147.65	5.6	CORDOVA,ANCHORAGE ELMENDORF FIELD	2499
454	62.81665	148.94665	5.6	SUSUMAN,SHTURMOVOY	15468
455	63.413443396226405	-146.34815094339623	5.9	SUMMIT,NORTHWAY,FT GREELY/ALLEN AAF	16612
456	64.30834999999999	-158.84165000000002	5.6	UNALAKLEET,GALENA	1762
457	68.435	86.37	5.6	IGARKA,DUDINKA	18785
458	68.225	-166.275	5.6	CAPE THOMPSON,POINT HOPE	525
459	69.08500000000001	18.259999999999998	5.6	NARVIK,TROMSO	3911
460	69.9435	-179.065	5.6	MYS SHMIDTA,OSTROV VRANGELYA	62903
461	70.795	-23.185	5.6	KAP TOBIN,OSTSTATION	18487
462	76.56665000000001	65.57334999999999	5.6	RUSSKAJA GAVAN,MYS ZHELANIA	29494
463	79.00309056603773	15.989550943396226	5.9	KINNVIKA STATION,ISFJORD RADIO,BARENTSBURG	31297
464	-20.90857391304348	47.785419442165704	6.5	FARAFANGANA,FIANARANTSOA,TANANARIVE/SCM,MANANJARY,MAHANORO	13958
465	-14.916675	28.766825000000004	6.2	KAROI,LUSAKA CITY AIRPORT,KABWE,NDOLA	28943
466	-14.47848728813559	49.11241949152542	6.8	ANALALAVA,FASCENE (NOSSI-BE),SAINTE-MARIE AERODR,ANTALAHA,SAMBAVA,VOHEMAR	11298
467	-8.700000000000001	125.721	6.2	OE-CUSSIE,DILLI/DILLI AIRPORT,KOMORO,BAU CAU	14613
468	-7.720924999999999	111.35	6.2	MALANG/ABDUL (AFB),MADIUN/ISWAHYUD AFB,ADISUCIPTO/JOGYAKAR,SURAKARTA/ADISUMARM	10643
469	-3.705870965226883	38.79574395758615	7.1	MALINDI,TANGA,MOMBO,MOMBASA,VOI,KILIMANJARO AIRPORT,MAKINDU	17258
470	5.2917499999999995	15.80825	6.2	BERBERATI,BATOURI,BOUAR,BOSSANGOA	12212
471	4.4827245762711865	-56.057521186440674	6.8	ZANDERIJ,NICKERIE,SIPALIWINI,COEROENI,TAFELBERG,STOELMANSEILAND	3731
472	9.966775	-12.800000000000002	6.2	LUNGI,CONAKRY,MAMOU,LABE	21184
473	10.474174999999999	106.73010000000002	6.2	BA-XUYEN/SOC TRANG,BARIA (PHUOC LE),AN LOC,BIEN HOA (VVBH)	1982
474	10.241999999999999	-70.90825	6.2	MENE GRANDE,BARQUISIMETO,LA CANADA,MARACAIBO-LA CHINIT	3008
475	14.83325	43.87499999999999	6.2	TAIZ (CIV/MIL),HODEIDAH (CIV/MIL),SANAA,SANA'A (CIV/MIL)	3832
476	15.570400000000003	-10.976650000000001	6.2	KAYES,KAYES/DAG-DAG,KIFFA,AIOUN ELATROUSS	37752
477	14.154450647123031	-89.20852236862622	7.1	GUATEMALA CITY,ACAJUTLA,SAN JOSE,CHOLUTECA,SAN SALVADOR/ILOPAN,TEGUCIGALPA,PUERTO BARRIOS	14613
478	18.286765020508614	-66.9555010828548	6.5	ST CROIX (BENEDICT FIELD),PONCE LOSEY FIELD,SABANA DE LA MAR,MAYAGUEZ,AGUADILLA RAMEY AFB	15993
479	26.833249999999996	88.08324999999999	6.2	PURNEA,LALMANIR HAT,DARJEELING,TINGRI	5584
480	27.37625361527875	29.568775245933868	7.1	BAHARIA,AL-WAHAT AL-BAHRIYA,AL-DAKHLA,KHARGA,DAKHLA,ASYUT,MINYA	26525
481	30.521499999999996	25.29075	6.2	SIWA,GIARABUB,SALLUM PLATEAU,SIDI BARRANI	16529
482	31.70686677604594	10.399340935192782	6.5	GHADAMES,EL BORMA,ZUARA,NALUT,REMADA	22104
483	31.43022067268253	14.592249089417553	6.5	GARIAT EL-SHARGHIA,HON,SIRTE,MISURATA,WHEELUS	26877
484	30.71450974576271	31.06010889830508	6.8	ALEXANDRIA/NOUZHA,BUR SAID,AL-MINYA,ALMAZA,CAIRO,DEKHEILA/AL DAKHELA	18143
485	32.816500000000005	113.571	6.2	XINYANG,GUANGHUA,ZHUMADIAN,XIHUA	24424
486	31.375951270856074	35.00958513956027	7.1	IRBED,BEER-SHEVA,PORT SAID/EL GAMIL,EILAT,MAAN,BEER-YA AQOV TO 401790,AMMAN AIRPORT	15497
487	33.290752845782	131.76493840636206	7.1	IWAKUNI,SHIMIZU,KOMATSUSHIMA AB,KANOYA AB,NAGASAKI AIRPORT,SAGA AIRPORT,OZUKI AB	9966
488	35.729	37.18775	6.2	HAMA,LATTAKIA,RAQQA,ALEPPO INT. AEROPOR	19783
489	35.90532132366562	138.72962816560374	7.4	NIIGATA,SHIMOFUSA AB,MAEBASHI,YOKKAICHI,OMAEZAKI,OSAKA,TATEYAMA AB,YOKOSUKA	26361
490	40.6986875	77.46475	6.5	NARYN,SHACHE,BACHU,AKQI,WEN-SU	53513
491	39.816675	116.99667500000001	6.2	BAODING,TANG SHAN,PEIPING,CHENGDE	16781
492	38.77805084745763	-97.2850758474576	6.8	TOPEKA (FORBES AFB),FT RILEY/MARSHALL A,WICHITA/MID-CONTINE,SALINA,RUSSELL,VICTORIA (WALKER AAF)	31690
493	39.784000000000006	107.66324999999999	6.2	OTOG QI,CHASAKOCHI,JARTAI,XAMBA	23522
494	41.02436168990976	-113.31456982772765	6.5	ELY YELLAND FLD AP,WENDOVER/AF. AUX. F,POCATELLO,OGDEN (HILL AFB),OGDEN	68306
495	40.35982870731327	46.463363246530484	7.1	ZAKATALA,LANKARAN,KHANKANDY,NAXCIVAN,EVLAKH AIRPORT,GANDJA,GUMRI	36777
496	42.562599999999996	-107.650075	6.2	ROCK SPRINGS,LANDER HUNT FLD AP,CASPER WYO,CASPER/NATRONA COUN	66442
497	41.44936228813559	-102.18990296610168	6.8	ALLIANCE AAF,AINSWORTH AAF,GOODLAND/RENNER FIE,AKRON,SYDNEY,SCOTTSBLUFF AAF	12460
498	42.777017555373256	42.2537246923708	6.5	KUTAISI,SUKHUMI (AGMS),PJATIGORSK,BATUMI,SAKARA	45933
499	42.71607109105824	-92.21321307629204	6.5	WATERLOO,WAVERLY,LA CROSSE,DES MOINES INTL,CEDAR RAPIDS ECHO SI	24388
500	44.34175	5.90825	6.2	SAINT-RAPHAEL,NICE,MONTELIMAR,LYON-BRON	11438
501	44.11287033898305	-83.3432156779661	6.8	ALPENA/PHELPS COLLI,ENVIRONM BUOY 45003,YPSILANTI,DETROIT METRO.,FLINT BISHOP AP,ALPENA	50765
502	48.425	-97.17074999999998	6.2	FARGO/HECTOR FIELD,GRAND FORKS AFB,PEMBINA,WINNIPEG INT.AIRPOR	34808
503	49.28725	-103.64157499999999	6.2	WILLISTON,WILLISTON/SLOULIN F,BROADVIEW,REGINA INTL	21629
504	52.00850000000001	-107.0375	6.2	ELBOW CS,KINDERSLEY ARPT,SASKATOON DIEFENBAKE,PRINCE ALBERT ARPT	12993
505	53.0125	-2.61675	6.2	CARDIFF-WALES ARPT,SHAWBURY,AUGHTON,LEEMING	45513
506	53.80155652173913	-114.14819474979492	6.5	ROCKY MTN HOUSE,EDMONTON INTL ARPT,SLAVE LAKE AIRPORT,EDMONTON NAMAO ARPT,MEANOOK	25131
507	55.9	-3.625175	6.2	BELFAST/ALDERGROVE ARPT,ESKDALEMUIR,SHANWELL,ABERDEEN/DYCE AIRPO	39949
508	57.66782070549632	11.399166333059885	6.5	KOBENHAVN/KASTRUP,FLYVESTATION AALBOR,KJELLER,GOTEBURG/TORSLANDA,TORPABRON	35910
509	60.02125084745762	27.788496610169492	6.8	HELSINKI/SEUTALA,UTTI,PSKOV,SLUTSK,LENINGRAD/CHOSSEYNOR,SUUR-MERIJOKI	45245
510	65.004175	-170.67899999999997	6.2	GAMBELL,BUHTA PROVIDENJA,WALES,MYS UELEN	67814
511	-13.694875	34.035375	7.4	TETE,CHILEKA,LILONGWE,SALIMA,CHIPATA,MZIMBA,LICHINGA,MZUZU	31859
512	0.036000000000000046	36.09935661764706	8.6	NANUYKI,ELDORET,TORORO,KITALE,NAROK,EMBU,GARISSA,MERU,NYERI,KERICHO,NAKURU,KISUMU	48917
513	15.838825684212564	106.95949834897587	7.699999999999999	AN KHE (VVAK),PLEIKU AB,CHU LAI,QUANG TRI,SAVANNAKHET,NAKHON PHANOM,DONG HA,PAKSE,HUE/PHU BAI	7488
514	21.087375	-157.61412500000003	7.4	MORSE FIELD,KAHULUI ARPT/MAUI,MOLOKAI HOMESTEAD FIELD,BARBERS POINT NAS,HONOLULU HICKAM FIELD,HONOLULU INTL,KAHUKU AAB,BARKING SANDS	63717
515	24.39228676470588	120.1951911764706	8.6	TAOYUAN AB,PINGTAN,MAZU (=588490),FUDING,BASCO,467590,DONGGANG (=595530),TAINAN (TW-AFB),CHIAYI (TW-AFB),TAICHUNG (TW-AFB),CHIANGYANG,CHINMEM/SHATOU(AFB)	80093
516	27.40798212690279	-81.2991448707636	9.5	LEESBURG (AAF),FORT MYERS (PAIGE FIELD),FORT MYERS (BUCKINGHAM AAF),DELTA SEVEN,BOCA RATON (AAF),GOLD ROCK CREEK,WEST PALM BEACH INTL AP,VENICE (AAF),SARASOTA AAF,SEBRING HENDRICKS FIELD,AVON PARK GUNNERY R,TAMPA MACDILL FIELD,VALKARIA,ORLANDO (PINECASTLE AAF),ORLANDO (AAB)	50278
517	32.95465562808033	-111.18030864817557	7.699999999999999	DOUGLAS (AAF),FORT HUACHUCA,TUCSON (DAVIS-MONTHAN AFB),COOLIDGE (AAF),PHOENIX,PHOENIX (LUKE FIELD),WINSLOW MUNI AP,CHANDLER (WILLIAMS FIELD),PHOENIX/SKY HARBOR	93631
518	33.879	-4.7290875	7.4	ERRACHIDIA,MIDELT,MEKNES,RABAT,TAZA,KENITRA PORT LYAUTEY,OUJDA,AL HOCEIMA	38529
519	34.511934375	-95.99981599264704	8.6	TEXARKANA,FT SMITH CAMP CHAFFEE,TULSA INTL ARPT(AW),MONETT,WACO (JAMES CONNALLY AFB),LONGVIEW WSMO,DALLAS HENSLEY FIELD,SHERMAN PERRIN FIELD,WICHITA FALLS,ARDMORE AFB,ALTUS AFB (OKLA),ENID/VANCE AFB	60720
520	35.7379125	2.8312499999999994	7.4	EL-BAYADH,DJELFA,TIARET,CHLEF,SETIF,BEJAIA-AEROPORT,MILIANA,ALGER	59918
521	33.18607983332753	-104.29709937269753	10.1	STALLION SITE,DEMING AAF,WHITE SANDS TEST RG,CARLSBAD AAF,FRYE SITE,HOLLOMAN AFB,WHITE SANDS MISSILE,PYOTE (AFB),BIG SPRING,ABILENE MUNI AP,LUBBOCK/MUNI (TEX),CLOVIS AAF,DALHART,ROSWELL/INDUSTRIAL,ROSWELL,REESE AFB,MELROSE GUNNERY RAN	79640
522	36.23989537157758	9.463790286831813	8.0	GAFSA,TEBESSA,THALA,KAIROUAN,BIZERTE,MARSALA,JENDOUBA,KELIBIA,SKIKDA,TABARKA	111670
523	38.266625000000005	-104.68803750000001	7.4	RATON,ALAMOSA MUNI(AWOS),LA JUNTA,PUEBLO,PUEBLO MEMORIAL(AW),FORT CARSON/BUTTS,AIR FORCE ACADEMY,DENVER (LOWRY FIELD)	30640
524	36.78287643232275	127.94221962580568	9.2	GIMPO INTL AIRPORT,GANGNEUNG AB,SACHEON AB,GIMHAE INTL AIRPORT,DAEGU AB,POHANG AB,YECHEON AB,CHEONGJU,CHEONGJU INTL AIRPO,SEOSAN,SANGDONG,SV RI SAN,SEOUL AB,WONJU AB	69350
525	44.20357293221358	-0.5237665952265662	8.3	BARDENAS REALES,LOGRONO/AGONCILLO,SAINT GIRONS,BIARRITZ,NANTES,LIMOGES,CHATEAUROUX,TOULOUSE BLAGNAC,DAX,MONT-DE-MARSAN,COGNAC	14743
526	48.482868004932826	-120.46383772194447	9.2	VERNON AUTO,SPOKANE (FELTS FIELD),PENDLETON MUNICIPAL,PASCO,LEWISTON NEZ PERCE,MOSES LAKE (LARSON AFB),OLYMPIA MUN I AP,ELLENSBURG,TATOOSH ISLAND WB,VANCOUVER INT. AIRP,TACOMA (MCCHORD AFB),SEATTLE-TACOMA INTL,EVERETT (PAINE FIELD),PORT ANGELES	117572
527	29.34447209040959	-97.96212957042955	10.399999999999999	HARLINGEN AAF,MISSION (MOORE FIELD),LAREDO,EAGLE PASS (AAF),DEL RIO TEXAS,SAN ANTONIO FORT SAM HOUSTON,VICTORIA (ALOE AAF),VICTORIA RGNL AP,SAN ANTONIO INTL AP,SAN ANTONIO RANDOLPH AFB,HOUSTON/INTERCONTIN,AUSTIN (BERGSTROM FIELD),BRYAN,COLLEGE STATION (BRYAN AFB),FT HOOD AAF/KILLEEN,WACO RGNL,MATHIS FLD/S.ANGELO,STEPHENVILLE	112259
528	34.097122747093024	-80.8492835755814	12.2	GREENVILLE DONALDSON AFB,SPARTANBURG,LAURINBURG (MAXTON AAB),FORT BRAGG/SIMMONS,CHARLOTTE MORRIS FIELD,RALEIGH/RALEIGH-DUR,LYNCHBURG,RICHMOND CITY,WAYCROSS WARE CO AP,ALBANY,DOTHAN (NAPIER FIELD),ALBANY TURNER FIELD,FORT STEWART RESERV,SAVANNAH HUNTER AFB,MACON COCHRAN FIELD,AUGUSTA DANIEL FIELD,WALTERBORO AAF,MYRTLE BEACH AAF,POINSETT RANGE,OAK ISLAND,ATHENS BEN EPPS AP,COLUMBIA AAB,SHAW AFB/SUMTER,WILMINGTON (NEW HANOVER AP)	123697
529	39.68265794109719	-84.7427981074415	12.8	BECKLEY,HUNTINGTON TRI STATE AP,YEAGER,ELKINS,COLUMBUS LOCKBOURNE AFB,COLUMBUS,AKRON,TOLEDO EXPRESS,PADUCAH BARKLEY FLD,SALEM LECKRONE AP,LOUISVILLE,LAWRENCEVILLE GEORGE FIELD,MADISON JEFFERSON PRVGR,SEYMOUR FREEMAN FIELD,CINCINNATI/GREATER,CINCINNATI (LUNKEN AIRPORT),COLUMBUS,INDIANAPOLIS/I.-MUN,INDIANAPOLIS STOUT FIELD,FORT WAYNE/BAER FLD,MILWAUKEE WI AIRPORT,MUSKEGON,SPRINGFIELD,PEORIA GTR PEORIA AP,JOLIET,SOUTH BEND ST JOSEPH	245928
530	46.46353195682779	23.44742319449181	12.5	MIELEC,SATU MARE,POPRAD/TATRY,PECS/POGANY,ARAD,ORADEA,BAIA MARE,KURDJALI,TR. MAGURELE,CRAIOVA,DROBETA TURNU SEVER,BEOGRAD/SELENO BRD,TIMISOARA,FAGARAS,DEVA,BRASOV-GHIMBAV,SIBIU,TG. MURES,BACAU,IASI,SUCEAVA,BUZAU,SULINA,PREDEAL,GALATI	64213
531	50.78362689393183	8.476398096077766	13.4	KOLN/BONN,LUDENSCHEID,KALKAR,NORDHORN,HANNOVER,JEVER,KEIL/HOLTENAU,EGGEBECK,DIJON,AUXERRE,CHAUMONT,REIMS,BAUMHOLDER (USA-AF),TRIER,BITBURG,LANGEN,PRAHA/RUZYNE,WAHNSDORF,ERFURT,WERNIGERODE,NEUHAUSEN OB ECK,FREIBURG,MUNICH/RIEM,FEUCHT(USA-AF),GRAFENWOEHR,KITZINGEN AAF,WIESBADEN,HANAU	196836
532	32.150481718998456	-88.75854563088454	15.0	ALEXANDRIA,ALEXANDRIA (ESLER FIELD),SHREVEPORT BARKSDALE AFB,MONROE (SELMAN FIELD),BATON ROUGE (HARDING FIELD),DE RIDDER (AFB),FORT POLK (ARMY),CLAIBORNE RNG (AFS),MOBILE,HATTIESBURG,JACKSON (AAB),VICKSBURG,BURRWOOD,BOOTHVILLE WSCMO CIT,NEW ORLEANS (AAB),NASA MISS. TEST,BILOXI (KEESLER AFB),HURLBURT FIELD (AF),EGLIN AFB RANGE NO.,MOBILE (BROOKLEY AFB),CAPE SAN BLAS SITE D 3,APALACHICOLA MUNI,PANAMA CITY (TYNDALL FIELD),PENSACOLA FOREST SHERMAN NAS,MARIANNA (AAF),VALDOSTA MOODY AFB,BAINBRIDGE AAF,MOULTRIE SPENCE FIELD,GREENVILLE,GREENWOOD AAF,COLUMBUS AAF,COURTLAND (AAF),DYERSBURG AAF,BLYTHEVILLE AFB,SMYRNA SEWART AFB,FORT CAMPBELL (AAF),CHATTANOOGA,TULLAHOMA WILLIAM NORTHERN AAF,MURFREESBORO,KNOXVILLE (ISLAND AIRPORT),FORT BENNING,SELMA CRAIG AFB,MERIDIAN (KEY FIELD),MONTGOMERY (GUNTER FIELD),TUSKEGEE (AAF),WARNER ROBINS ROBINS AFB,CENTREVILLE WSMO,BIRMINGHAM MUNI	164666
533	36.35817879938949	-118.50395007825317	15.0	BAKER,KINGMAN (AAF),SHOSHONE,INDIAN SPRINGS GUNN,JACKASS FLATS,YUCCA FLATS TEST 21,ST. GEORGE,MILFORD MUNICIPAL,SAN DIEGO (LINDBERGH FIELD),EL CENTRO NAF,MOUNT LAGUNA,CAMP PENDLETON,BLYTHE,THERMAL (AAF),CA SANTA ANA/ORANGE COUNTY AAF,LOMITA (AAF),BISHOP AIRPORT,TONAPAH APRT (NEV),TAFT (GARDNER FIELD),CUDDLEBACK GUNNERY,BICYCLE LAKE (AAF),SUPERIOR VALLEY GUN,LONG BEACH,PALM SPRINGS (AAF),SAN BERNARDINO (NORTON AFB),OXNARD (FLIGHT STRIP),BURBANK,VICTORVILLE (GEORGE AFB),SANDBURG (AUT),SANTA MARIA/PUBLIC (CAL),BAKERSFIELD,BAKERSFIELD (MINTER FIELD),LEMOORE,SALINAS (AAB),SAN JOSE/EMSU,CASTLE AFB,SAN FRANCISCO,STOCKTON (FIELD),SAN RAFAEL (HAMILTON AFB),SANTA ROSA (AAF),SACRAMENTO/EXECUTIV,SACRAMENTO (MATHER AFB),AUBURN,CHICO MUNI,RED BLUFF MUNICIPAL,REDDING (AAF)	141396
534	40.22690958210392	-73.37572945372675	15.0	OCEAN WEATHER SHIP H,LA GUARDIA,NEW YORK UNIVERSITY,WESTHAMPTON SUFFOLK COUNTY AAF,NANTUCKET MEM AP,FISHERS ISLAND FORT H G WRIGHT,POINT JUDITH,FALMOUTH OTIS AFB,HARTFORD,WINDSOR LOCKS/BRADLEY FIELD,NORTH TRURO,CHICOPEE FALLS (WESTOVER AFB),CAMBRIDGE MIT,BEDFORD HANSCOM AP,ENVIRONM BUOY 44005,MANCHESTER (GRENIER FIELD),BRUNSWICK,BINGHAMTON,ELMIRA,BINGHAMTON/BROOME C,SYRACUSE,ROME,WILLIAMSPORT/LYCOMI,NEWBURGH/STEWART AFB,WILMINGTON (NEW CASTLE AAB),PHILADELPHIA INTL,CAMDEN,LAKEHURST,CAPE HATTERAS WB BLDG,DARE COUNTY GUNNERY,NORFOLK/MUNI (VA),RICHMOND/BYRD FIELD,DAHLGREN,CAMP SPRINGS (ANDREWS AFB),DOVER (AAF),ATLANTIC CITY U-A,SPRING LAKE BELMAR,HARRISBURG,READING AAF,NEW YORK JFK AP,PITTSBURGH/EMSU,PHILIPSBURG,BELLEFONTE,KYLERTOWN	266409
