	latitude	longitude	radius	station	records
0	-80.017	-119.533	5.0	BYRD STN	7679
1	-79.25	-147.5	5.0	LITTLE ROCKFORD	309
2	-78.45	106.867	5.0	VOSTOK	7319
3	-78.4	87.583	5.0	SOVIETSKAVA	273
4	-78.2	-162.25	5.0	LITTLE AMERICA	1612
5	-77.9667	-38.8	5.0	GENERAL BELGRANO	1782
6	-77.7333	-41.1167	5.0	ELLSWORTH IGY	2138
7	-76.2667	-147.5	5.0	LITTLE ROCKFORD	389
8	-72.3	170.2167	5.0	ADARE HALLETT	4373
9	-70.4333	24.3167	5.0	BASE ROI BAUDOUIN	1097
10	-70.317	-2.367	5.0	SANAE	9815
11	-69.73	95.05	5.0	PIONERSKAVA	121
12	-69.5	159.4	5.0	LENINGRADSKAJA	2575
13	-67.667	45.85	5.0	MOLODEZNAJA	13014
14	-66.27	100.73	5.0	BUNGER OASIS	548
15	-65.25	-64.2667	5.0	FARADAY	10141
16	-63.4667	-56.2833	5.0	PETREL NAS	1654
17	-62.183	-58.883	5.0	BELLINGSHAUSEN AWS	6342
18	-60.75	-44.7167	5.0	ISLAS ORCADAS (MET)	8699
19	-59.45	-27.267	5.0	CORBETA URUGUAY DN	275
20	-54.8	-68.3167	5.0	USHUAIA	1943
21	-53.8	-67.75	5.0	RIO GRANDE AIRPORT	3267
22	-53.1	73.7167	5.0	HEARD IS.(THESPIT)	2295
23	-52.55	169.15	5.0	CAMPBELL ISLAND	18775
24	-51.7	-57.8667	5.0	STANLEY	4603
25	-51.6333	-69.2167	5.0	RIO GALLEGOS B. A.	4526
26	-43.78	172.02	5.0	RAKAIA	12147
27	-43.483	172.55	5.0	CHRISTCHURCH	31930
28	-43.2333	-65.3	5.0	ALMIRANTE ZAR	1150
29	-42.8833	147.3333	5.0	HOBART	1774
30	-42.417	173.7	5.0	KAIKOURA	5055
31	-42.2	145.05	5.0	GEOGERTOWN	2980
32	-41.533	147.2	5.0	LAUNCESTON AIRPORT	53633
33	-41.3	174.63	5.0	OUTLOOK HILL	11385
34	-39.467	175.683	5.0	WAIOURU	2309
35	-38.7333	-62.1667	5.0	COMANDANTE ESPORA	13733
36	-38.1	147.1333	5.0	EAST SALE (AUS-AFB)	45308
37	-37.867	144.75	5.0	LAVERTON AERODROME	58326
38	-36.3	174.7	5.0	MT TAMAHUNGA	14698
39	-35.367	-57.283	5.0	PUNTA INDIO B.A.	151
40	-35.3	149.183	5.0	CANBERRA AIRPORT	54494
41	-35.1	173.267	5.0	KAITAIA	14537
42	-34.58	-58.48	5.0	BUENOS AIRES	107
43	-34.017	22.383	5.0	GEORGE AIRPORT	4491
44	-33.6	115.4667	5.0	LUDLOW	539
45	-33.033	27.833	5.0	EAST LONDON	3098
46	-32.8833	-68.85	5.0	OBSERV MENDOZA	3075
47	-32.78	-71.51	5.0	QUINTERO (MIL)	28938
48	-32.5667	148.95	5.0	WELLINGTON	948
49	-31.35	-54.117	5.0	BAGE (AEROPORTO)	1012
50	-30.833	128.1	5.0	FORREST AIRPORT	54264
51	-30.5167	151.65	5.0	ARMIDALE	728
52	-30.0833	145.9667	5.0	BOURKE (S23'05'11'17)	130
53	-30.01	131.583	5.0	MARALINGA	7453
54	-29.9667	30.95	5.0	DURBAN/LOUIS BOTHA	29090
55	-28.8	24.767	5.0	KIMBERLEY	9829
56	-28.567	16.533	5.0	KORTDOORN/ALEXANDER	11144
57	-28.25	28.3333	5.0	BETHLEHEM AIRPORT	11390
58	-27.65	152.7167	5.0	AMBERLEY	2455
59	-27.55	135.4833	5.0	OODNADATTA	37900
60	-27.4667	-58.9833	5.0	RESISTENCIA	1200
61	-26.05	22.45	5.0	TSABONG	836
62	-25.917	32.567	5.0	MAPUTO/MAVALANE	20132
63	-25.783	25.533	5.0	MAFIKENG WO	1154
64	-25.733	28.183	5.0	PRETORIA-EENDRACHT	3937
65	-25.55	45.533	5.0	FAUX-CAP	549
66	-24.667	25.917	5.0	GABORONE	695
67	-23.867	35.383	5.0	INHAMBANE	4808
68	-23.8667	29.45	5.0	PIETERSBURG (SAAF)	13740
69	-23.85	151.25	5.0	GLADSTONE	46725
70	-23.617	-46.65	5.0	SAO PAULO	16840
71	-23.383	43.733	5.0	TOLIARA	5308
72	-23.35	-149.4833	5.0	TUBUAI ISLAND	19527
73	-22.8	47.833	5.0	FARAFANGANA	2385
74	-22.55	45.4	5.0	RANOHIRA	1639
75	-22.483	17.467	5.0	HOSEA KUTAKO INTL A	7483
76	-22.333	40.333	5.0	ILE EUROPA	7597
77	-22.217	30.0	5.0	BEITBRIDGE	3367
78	-22.03	-63.68	5.0	YACUIBA	670
79	-22.0167	-60.6167	5.0	MARISCAL ESTIGARRIBIA	708
80	-21.817	-138.8	5.0	MURUROA	6907
81	-21.75	43.367	5.0	MOROMBE	1328
82	-21.6333	115.1167	5.0	ONSLOW	25950
83	-21.45	47.1	5.0	FIANARANTSOA	1453
84	-21.417	25.6	5.0	LETLHAKANE	693
85	-21.333	55.483	5.0	ST. PIERRE/FONDS	5723
86	-21.233	-175.15	5.0	FUAAMOTU	5436
87	-21.217	27.5	5.0	FRANCISTOWN	613
88	-21.2	48.367	5.0	MANANJARY	4840
89	-21.017	31.583	5.0	BUFFALO RANGE	6492
90	-20.767	167.233	5.0	OUANAHAM	7206
91	-20.7667	-138.55	5.0	TUREIA	271
92	-20.6667	140.5	5.0	CLONCURRY	33366
93	-20.567	164.283	5.0	KOUMAC	11482
94	-20.283	44.317	5.0	MORONDAVA	3268
95	-20.233	169.767	5.0	ANEITYUM	125
96	-20.15	28.617	5.0	BULAWAYO	14661
97	-20.067	30.867	5.0	MASVINGO	8225
98	-19.9061	-144.9494	5.0	HEREHERETUE	7607
99	-19.833	48.8	5.0	MAHANORO	1069
100	-19.8	34.9	5.0	BEIRA	8665
101	-19.783	-47.967	5.0	UBERABA	134
102	-19.683	63.417	5.0	RODRIGUES	10891
103	-19.6	18.117	5.0	GROOTFONTEIN	4094
104	-19.45	29.85	5.0	GWERU	5186
105	-19.28	121.5	5.0	TALGARNO	297
106	-18.9	47.5333	5.0	TANANARIVE/SCM	4211
107	-18.633	26.85	5.0	HWANGE NATIONAL PAR	2189
108	-18.533	32.15	5.0	RUSAPE	2604
109	-18.317	29.883	5.0	KADOMA	1432
110	-18.3167	-59.7667	5.0	ROBORE	144
111	-18.217	28.933	5.0	GOKWE	1693
112	-18.067	-140.95	5.0	HAO	18186
113	-17.917	31.133	5.0	HARARE (KUTSAGA)	926
114	-17.883	36.883	5.0	QUELIMANE	2266
115	-17.8	-63.1833	5.0	SANTA CRUZ/EL TROMPILLO	1454
116	-17.75	168.3	5.0	VILA (EFATE)	12954
117	-17.7333	139.5333	5.0	BURKETOWN	145
118	-17.6833	141.0667	5.0	NORMANTON AIRPORT	229
119	-17.417	32.217	5.0	MUTOKO	4155
120	-17.38	-66.17	5.0	COCHABAMBA	1502
121	-17.3167	123.6333	5.0	DERBY	7081
122	-17.083	49.817	5.0	SAINTE-MARIE AERODR	681
123	-17.05	42.717	5.0	ILE JUAN DE NOVA	5730
124	-16.833	29.617	5.0	KAROI	4958
125	-16.517	-68.183	5.0	LA PAZ/ALTO	4156
126	-16.517	28.883	5.0	KARIBA	2203
127	-16.45	-151.75	5.0	BORA-BORA	11160
128	-16.45	59.617	5.0	ST. BRANDON	5725
129	-16.333	-71.567	5.0	AREQUIPA	3138
130	-16.2667	133.3833	5.0	DALY WATERS	20570
131	-16.183	33.583	5.0	TETE	2074
132	-15.683	34.967	5.0	CHILEKA	10079
133	-15.6	-56.1	5.0	CUIABA	443
134	-15.517	167.217	5.0	PEKOA AIRPORT	661
135	-15.417	28.317	5.0	LUSAKA CITY AIRPORT	9588
136	-15.25	23.15	5.0	MONGU	5748
137	-15.2167	12.1667	5.0	MOCAMEDES	1595
138	-15.1	39.283	5.0	NAMPULA	4237
139	-15.0	50.333	5.0	ANTALAHA	4654
140	-14.95	-147.659	5.0	RANGIROA	5720
141	-14.95	-40.883	5.0	VITORIA DA CONQUIST	123
142	-14.933	13.567	5.0	LUBANGO	236
143	-14.8167	-64.9167	5.0	TRINIDAD	937
144	-14.633	47.767	5.0	ANALALAVA	1607
145	-14.4833	-145.0333	5.0	TAKAROA ATOLL	17249
146	-14.45	-67.53	5.0	RURRENABAQUE	125
147	-14.4167	28.4833	5.0	KABWE	12025
148	-14.3667	-170.7833	5.0	LEONE BAY AMERICAN S	359
149	-14.283	50.167	5.0	SAMBAVA	2763
150	-13.8	-171.783	5.0	APIA	10496
151	-13.75	34.583	5.0	SALIMA	2342
152	-13.733	-76.217	5.0	PISCO	1501
153	-13.55	32.583	5.0	CHIPATA	140
154	-13.367	50.0	5.0	VOHEMAR	807
155	-13.317	48.317	5.0	FASCENE (NOSSI-BE)	786
156	-13.3	35.233	5.0	LICHINGA	1908
157	-13.0	28.65	5.0	NDOLA	2372
158	-12.983	40.533	5.0	PEMBA	3898
159	-12.8	15.75	5.0	HUAMBO	301
160	-12.8	45.2833	5.0	DZAOUDZI/PAMANZI	15117
161	-12.5	177.05	5.0	ROTUMA	6835
162	-12.37	13.53	5.0	LOBITO	100
163	-12.35	49.3	5.0	ANTSIRANANA	8157
164	-12.15	-77.0	5.0	LAS PALMAS	389
165	-12.15	-45.0	5.0	BARREIRAS	1194
166	-12.117	44.433	5.0	OUANI (ANJOUAN)	3271
167	-11.883	33.617	5.0	MZIMBA	4451
168	-11.783	19.917	5.0	LUENA (LUSO)	1995
169	-11.75	24.4333	5.0	MWINLUNGA	2872
170	-11.7	43.233	5.0	MORONI AIRPORT	5231
171	-11.583	47.283	5.0	ILES GLORIEUSES	7379
172	-11.45	34.017	5.0	MZUZU	3655
173	-11.3	-41.867	5.0	IRECE	347
174	-11.0333	-68.7833	5.0	COBIJA	222
175	-10.917	-37.05	5.0	ARACAJU	417
176	-10.82	-65.37	5.0	GUAYARAMERIN	618
177	-10.7	-48.4	5.0	PORTO NACIONAL	1005
178	-10.7	152.833	5.0	MISIMA ISLAND	2055
179	-10.7	165.8	5.0	SANTA CRUZ ISLAND	151
180	-10.583	142.217	5.0	THURSDAY IL/HORN IL	21187
181	-10.45	105.7	5.0	CHRISTMAS ISL (PVT)	3447
182	-10.433	56.75	5.0	AGALEGA	2514
183	-10.217	31.133	5.0	KASAMA	3135
184	-9.95	33.883	5.0	KARONGA	2595
185	-9.517	-35.783	5.0	MACEIO (AEROPORTO)	133
186	-9.35	46.533	5.0	ALDABRA	143
187	-9.333	-54.967	5.0	CACHIMBO AERO	2176
188	-9.2	124.367	5.0	OE-CUSSIE	498
189	-9.1	-44.117	5.0	BOM JESUS	376
190	-9.0	-158.05	5.0	PENRHYN	8316
191	-8.933	33.467	5.0	MBEYA	767
192	-8.85	13.233	5.0	LUANDA	8531
193	-8.55	125.55	5.0	DILLI/DILLI AIRPORT	7176
194	-8.367	-74.567	5.0	PUCALLPA	328
195	-7.967	112.7	5.0	MALANG/ABDUL (AFB)	586
196	-7.9667	-14.4	5.0	WIDE AWAKE FIELD	18170
197	-7.783	110.433	5.0	ADISUCIPTO/JOGYAKAR	3047
198	-7.633	35.767	5.0	IRINGA	677
199	-7.617	111.517	5.0	MADIUN/ISWAHYUD AFB	3443
200	-7.5167	110.75	5.0	SURAKARTA/ADISUMARM	3567
201	-7.4	20.817	5.0	DUNDO	6240
202	-7.333	108.25	5.0	CIBEUREM/TASIK(AFB)	625
203	-7.317	-39.3	5.0	BARBALHA	334
204	-7.3	72.4	5.0	DIEGO GARCIA	16326
205	-7.017	-37.267	5.0	PATOS	137
206	-6.9	107.583	5.0	BANDUNG/HUSEIN	2478
207	-6.833	37.65	5.0	MOROGORO	142
208	-6.783	-79.817	5.0	CHICLAYO	1504
209	-6.733	147.0	5.0	LAE	29138
210	-6.55	107.667	5.0	KALIJATI	1040
211	-6.267	-57.733	5.0	JACAREACANGA	287
212	-6.167	35.767	5.0	DODOMA	1096
213	-5.5	-45.267	5.0	BARRA DO CORDA	161
214	-5.217	145.783	5.0	MADANG	18232
215	-5.2	-80.6	5.0	PIURA	919
216	-5.2	-39.3	5.0	QUIXERAMOBIM	334
217	-5.083	32.833	5.0	TABORA AIRPORT	1062
218	-5.083	39.067	5.0	TANGA	776
219	-5.05	-42.817	5.0	TERESINA	313
220	-4.883	29.667	5.0	KIGOMA	112
221	-4.883	38.283	5.0	MOMBO	113
222	-4.567	-81.233	5.0	TALARA	1823
223	-4.45	105.183	5.0	MENGGALA/ASTRA KSET	181
224	-4.217	12.667	5.0	DOLISIE	7834
225	-4.217	152.183	5.0	RABAUL	27818
226	-4.1	122.433	5.0	KENDARI/WOLTER MONG	1064
227	-4.05	-154.9833	5.0	MALDEN ISLAND AF	274
228	-4.033	39.617	5.0	MOMBASA	3673
229	-3.417	37.067	5.0	KILIMANJARO AIRPORT	696
230	-3.4	38.567	5.0	VOI	4508
231	-3.217	40.1	5.0	MALINDI	1769
232	-3.083	-41.783	5.0	PARNAIBA	665
233	-2.767	-171.717	5.0	KANTON ISLAND	16684
234	-2.533	14.767	5.0	DJAMBALA	1376
235	-2.467	32.917	5.0	MWANZA	383
236	-2.283	37.833	5.0	MAKINDU	5723
237	-2.2	-81.0	5.0	CHINCHIPE	601
238	-1.333	31.817	5.0	BUKOBA	1433
239	-1.133	35.833	5.0	NAROK	4802
240	-0.7	8.75	5.0	PORT-GENTIL	10586
241	-0.617	30.65	5.0	MBARARA	114
242	-0.5	37.45	5.0	EMBU	862
243	-0.467	39.633	5.0	GARISSA	7179
244	-0.433	36.967	5.0	NYERI	426
245	-0.367	35.267	5.0	KERICHO	1787
246	-0.267	36.1	5.0	NAKURU	7184
247	-0.1	34.75	5.0	KISUMU	9077
248	0.033	37.033	5.0	NANUYKI	3435
249	0.083	37.65	5.0	MERU	2638
250	0.183	30.1	5.0	KASESE	419
251	0.383	6.717	5.0	S. TOME	5381
252	0.483	35.3	5.0	ELDORET	1687
253	0.683	34.167	5.0	TORORO	264
254	1.017	35.0	5.0	KITALE	9576
255	1.083	154.767	5.0	KAPINGAMARANGI ATOL	487
256	1.617	18.067	5.0	IMPFONDO	986
257	1.683	31.717	5.0	MASINDI	632
258	1.717	33.617	5.0	SOROTI	112
259	1.75	40.067	5.0	WAJIR	3181
260	1.85	-78.767	5.0	TUMACO	344
261	2.0	-157.4	5.0	CHRISTMAS ISLAND	29424
262	2.033	-56.117	5.0	SIPALIWINI	331
263	2.083	11.483	5.0	BITAM	483
264	2.333	37.983	5.0	MARSABIT	1160
265	3.117	35.617	5.0	LODWAR	8644
266	3.367	-57.333	5.0	COEROENI	254
267	3.533	39.05	5.0	MOYALE	3218
268	3.633	-54.033	5.0	MARIPASOULA	1329
269	3.783	-56.15	5.0	TAFELBERG	228
270	3.833	11.517	5.0	YAOUNDE	7131
271	3.85	-159.367	5.0	FANNING ISLAND	103
272	3.883	-51.8	5.0	SAINT GEORGES	2681
273	3.933	41.867	5.0	MANDERA	3516
274	4.25	15.8	5.0	BERBERATI	2543
275	4.317	21.183	5.0	MOBAYE	150
276	4.35	-54.417	5.0	STOELMANSEILAND	153
277	4.417	-7.367	5.0	TABOU	12633
278	4.467	14.367	5.0	BATOURI	4064
279	4.55	-70.917	5.0	LAS GAVIOTAS	3770
280	4.733	22.833	5.0	BANGASSOU	2199
281	4.867	31.6	5.0	JUBA	1813
282	4.883	-1.767	5.0	TAKORADI	135
283	5.3333	163.0167	5.0	KUSAIE/CAROLINES	1652
284	5.45	-55.2	5.0	ZANDERIJ	2383
285	5.467	100.383	5.0	BUTTERWORTH AB	24729
286	5.5	-54.033	5.0	SAINT-LAURENT	3207
287	5.55	12.367	5.0	YOKO	1316
288	5.6	-0.1667	5.0	ACCRA/KOTOKA INTL	3276
289	5.65	10.75	5.0	KOUNDJA	5780
290	5.8833	-162.05	5.0	PALMYRA ISLAND	631
291	5.9	43.583	5.0	GODE	237
292	5.917	169.65	5.0	JALUIT ATOLL	130
293	5.95	-57.033	5.0	NICKERIE	382
294	5.967	15.633	5.0	BOUAR	2424
295	6.25	-10.35	5.0	ROBERTS FIELD	1457
296	6.467	7.55	5.0	ENUGU	469
297	6.483	17.433	5.0	BOSSANGOA	3181
298	6.583	3.333	5.0	LAGOS/IKEJA	3244
299	6.9	122.067	5.0	ZAMBOANGA	4876
300	7.233	-70.8	5.0	GUASDUALITO	356
301	7.3	-61.45	5.0	TUMEREMO	451
302	7.383	143.917	5.0	WOLEAI ATOLL	106
303	7.7	28.017	5.0	WAU	717
304	7.733	-5.067	5.0	BOUAKE	14811
305	8.15	-63.55	5.0	CIUDAD BOLIVAR	641
306	8.28	73.05	5.0	MALIKU	574
307	8.3333	80.4167	5.0	ANURADHAPURA	612
308	8.4	20.65	5.0	NDELE	2173
309	8.617	-13.2	5.0	LUNGI	1194
310	8.8667	2.6	5.0	TCHAOUROU	6364
311	8.983	1.15	5.0	SOKODE	5401
312	9.15	92.81	5.0	CAR NICOBAR	1627
313	9.417	-5.617	5.0	KORHOGO	11845
314	9.467	170.25	5.0	WOTJE ATOLL	299
315	9.5	-7.567	5.0	ODIENNE	140
316	9.5	-0.85	5.0	TAMALE	1562
317	9.55	31.65	5.0	MALKAL	4130
318	9.5667	-13.6167	5.0	CONAKRY	13759
319	9.6	105.967	5.0	BA-XUYEN/SOC TRANG	170
320	9.617	6.533	5.0	MINNA	440
321	9.75	-63.183	5.0	MATURIN	1184
322	9.8	125.5	5.0	SURIGAO	347
323	9.817	-70.933	5.0	MENE GRANDE	780
324	10.067	-69.317	5.0	BARQUISIMETO	741
325	10.117	-64.683	5.0	BARCELONA	1459
326	10.333	123.9	5.0	LAHUG	2175
327	10.3667	-12.0833	5.0	MAMOU	2746
328	10.3833	-9.3	5.0	KANKAN	11475
329	10.5	107.1667	5.0	BARIA (PHUOC LE)	747
330	10.6	-66.983	5.0	CARACAS/MAIQUETIA A	912
331	10.6833	-61.6167	5.0	TRINIDAD BWI	10395
332	10.717	115.833	5.0	NENSHA ISL	436
333	10.7667	78.7167	5.0	TIRUCHCHIRAPALLI	12612
334	10.85	121.033	5.0	CUYO	270
335	10.917	-63.967	5.0	PORLAMAR	739
336	11.233	169.85	5.0	UTIRIK ATOLL M.ISL	577
337	11.3	167.48	5.0	RONGERIK	145
338	11.3167	-12.3	5.0	LABE	3485
339	11.35	162.35	5.0	ENEWETAK	16361
340	11.52	165.55	5.0	BIKINI	294
341	11.55	43.15	5.0	DJIBOUTI	2487
342	11.783	34.383	5.0	DAMAZINE	1808
343	11.85	13.083	5.0	MAIDUGURI	593
344	11.87	-15.5	5.0	BISSAU	2569
345	12.15	-86.167	5.0	MANAGUA A.C.SANDINO	2831
346	12.433	98.6	5.0	MERGUI	3067
347	12.55	-16.267	5.0	ZIGUINCHOR	40419
348	12.633	-8.033	5.0	BAMAKO	18540
349	12.7	28.433	5.0	EN NAHUD	198
350	12.833	45.033	5.0	ADEN	16467
351	13.0667	-9.4833	5.0	KITA	4283
352	13.167	30.233	5.0	EL OBEID	4005
353	13.167	32.667	5.0	AROMA	298
354	13.3	-87.1833	5.0	CHOLUTECA	767
355	13.433	-6.283	5.0	SEGOU	22146
356	13.467	7.083	5.0	MARADI	18936
357	13.483	22.45	5.0	GENINA	1058
358	13.567	-89.833	5.0	ACAJUTLA	185
359	13.617	25.333	5.0	EL FASHER	2234
360	13.683	44.15	5.0	TAIZ (CIV/MIL)	449
361	13.7	-89.117	5.0	SAN SALVADOR/ILOPAN	689
362	13.75	-60.98	5.0	VIEUX FORT	815
363	13.85	20.85	5.0	ABECHE	4728
364	13.917	-90.817	5.0	SAN JOSE	1220
365	13.9667	108.65	5.0	AN KHE (VVAK)	224
366	14.0	108.0167	5.0	PLEIKU AB	698
367	14.033	35.4	5.0	GEDAREF	238
368	14.05	-87.25	5.0	TEGUCIGALPA	5493
369	14.067	-83.367	5.0	PUERTO CABEZAS	4028
370	14.1	98.2167	5.0	DAWEI	3999
371	14.117	93.367	5.0	COCO ISLAND	985
372	14.4	33.483	5.0	WAD MEDANI	269
373	14.5	-4.2	5.0	MOPTI-SEVARE	11065
374	14.5333	-90.5667	5.0	GUATEMALA CITY	5620
375	14.6	-61.0	5.0	LAMENTIN AERO	9234
376	14.6833	77.6167	5.0	ANANTAPUR	10993
377	14.75	42.967	5.0	HODEIDAH (CIV/MIL)	542
378	14.8	-17.0667	5.0	THIES	3844
379	14.8	100.617	5.0	LOP BURI	837
380	14.8	120.267	5.0	SUBIC BAY WEATHER	1333
381	14.9	-23.517	5.0	PRAIA	123
382	15.117	105.783	5.0	PAKSE	590
383	15.117	145.733	5.0	SAIPAN/ISLEY (CGS)	7992
384	15.15	76.95	5.0	BELLARY	989
385	15.167	-7.283	5.0	NARA	9645
386	15.283	38.917	5.0	ASMARA	2299
387	15.383	73.817	5.0	GOA/DABOLIM AIRPORT	1902
388	15.4167	108.7	5.0	CHU LAI	822
389	15.467	36.4	5.0	KASSALA	4169
390	15.58	32.55	5.0	AL-KHARTUM	3020
391	15.717	-88.6	5.0	PUERTO BARRIOS	639
392	15.85	73.63	5.0	VENGURLA	121
393	16.1667	-95.1667	5.0	SALINA CRUZ	556
394	16.267	-0.05	5.0	GAO	33723
395	16.4	107.6833	5.0	HUE/PHU BAI	508
396	16.433	101.15	5.0	PHETCHABUN	401
397	16.533	80.8	5.0	VIJAYAWADA/GANNAVA	8012
398	16.55	104.65	5.0	SAVANNAKHET	508
399	16.55	111.617	5.0	HOANG SA (PATTLE)	417
400	16.6	-7.267	5.0	NEMA	14295
401	16.633	-11.4	5.0	KIFFA	4608
402	16.7333	-169.5167	5.0	JOHNSTON IS WSO AP	27741
403	16.7333	-9.6333	5.0	AIOUN ELATROUSS	4231
404	16.767	94.767	5.0	PATHEIN	2065
405	16.883	42.583	5.0	GIZAN	1629
406	16.9	96.183	5.0	MINGALADON	945
407	17.117	-61.783	5.0	COOLIDGE FIELD (UA)	13896
408	17.4	-83.9333	5.0	SWAN ISLAND	22712
409	17.417	104.783	5.0	NAKHON PHANOM	2528
410	17.68	83.35	5.0	WALTAIR	3498
411	17.7	-64.8	5.0	ST CROIX (BENEDICT FIELD)	346
412	17.7	33.967	5.0	ATBARA	361
413	17.9	-62.85	5.0	ST. BARTHELEMY	4048
414	17.95	102.567	5.0	VIENTIANE	2162
415	18.0	19.167	5.0	FAYA	2999
416	18.0167	-66.5	5.0	PONCE LOSEY FIELD	4773
417	18.3	42.8	5.0	KHAMIS MUSHAIT	11138
418	18.433	1.35	5.0	KIDAL	5839
419	18.467	94.35	5.0	SANDOWAY	6057
420	18.55	31.85	5.0	KARIMA	2435
421	18.633	-91.833	5.0	CUIDAD DEL CARMEN	185
422	18.683	12.917	5.0	BILMA	21154
423	18.717	-110.95	5.0	ISLA SOCORRO	9477
424	18.9	72.82	5.0	COLABA	973
425	18.9167	-155.6833	5.0	MORSE FIELD	492
426	19.05	-69.3833	5.0	SABANA DE LA MAR	4059
427	19.1	108.617	5.0	DONGFANG	6890
428	19.167	30.483	5.0	DONGOLA	1444
429	19.2833	166.65	5.0	WAKE IS	38611
430	19.533	33.317	5.0	ABU HAMED	1995
431	19.583	37.217	5.0	PORT SUDAN	2214
432	19.883	102.133	5.0	LUANG-PRABANG	472
433	19.9	-75.217	5.0	GUANTANAMO BAY NAS	23093
434	20.133	92.883	5.0	SITTWE	9125
435	20.2	0.9833	5.0	TESSALIT	13490
436	20.45	121.967	5.0	BASCO	867
437	20.48	85.87	5.0	CUTTACK	318
438	20.517	-13.067	5.0	ATAR	22233
439	20.57	74.53	5.0	MALEGAON	2563
440	20.667	58.9	5.0	MASIRAH	514
441	20.883	95.9	5.0	MEIKTILA	5141
442	20.899	-156.43	5.0	KAHULUI ARPT/MAUI	19540
443	20.9	70.367	5.0	VERAVAL	17106
444	21.15	-157.1	5.0	MOLOKAI HOMESTEAD FIELD	1921
445	21.217	110.4	5.0	ZHANJIANG	5208
446	21.3	99.617	5.0	KENGTUNG	231
447	21.4	-77.85	5.0	CAMAGUEY	5786
448	21.45	-71.15	5.0	TURKS ISLAND	10548
449	21.47	83.98	5.0	SAMBALPUR	4315
450	21.817	31.35	5.0	WADI HALFA	3487
451	21.983	96.1	5.0	MANDALAY	5055
452	22.0	120.75	5.0	467590	4646
453	22.0333	-159.7833	5.0	BARKING SANDS	5267
454	22.18	88.18	5.0	DIAMOND HARBOUR	1268
455	22.25	91.82	5.0	CHATTAGRAM	1629
456	22.283	-97.85	5.0	TAMPICO	165
457	22.367	106.75	5.0	LONGZHOU	4011
458	22.37	-73.03	5.0	MAYAGUAN	1160
459	22.45	70.083	5.0	JAMNAGAR	895
460	22.467	120.433	5.0	DONGGANG (=595530)	21904
461	22.5	103.95	5.0	HEKOU	13535
462	22.767	81.9	5.0	PENDRA ROAD	5308
463	22.783	115.367	5.0	SHANWEI	2322
464	22.95	120.217	5.0	TAINAN (TW-AFB)	6094
465	23.217	113.483	5.0	GUANGZHOU	28004
466	23.28	69.67	5.0	BHUJ	1679
467	23.467	120.383	5.0	CHIAYI (TW-AFB)	6409
468	23.6	58.55	5.0	BAIT AL FALAJ	4268
469	23.62	90.05	5.0	DACCA	3646
470	23.73	-99.11	5.0	CIUDAD VICTORIA	1366
471	23.8167	5.15	5.0	IN AMGUEL	144
472	23.8833	100.0833	5.0	LINCANG	2076
473	24.067	105.067	5.0	GUANGNAN	5390
474	24.183	120.65	5.0	TAICHUNG (TW-AFB)	4776
475	24.217	23.3	5.0	KUFRA	6321
476	24.267	9.467	5.0	DJANET	6261
477	24.35	109.4	5.0	LIUZHOU	4445
478	24.367	114.483	5.0	LIANPING	20784
479	24.583	73.7	5.0	UDAIPUR	1174
480	24.7	46.733	5.0	RIYADH OBS.	11578
481	24.783	141.333	5.0	IWOTO	16295
482	24.83	92.85	5.0	SILCHAR	1477
483	24.8333	113.5	5.0	CHU CHIANG	1393
484	25.0167	102.8333	5.0	KAN-HAI-TZU	598
485	25.05	73.88	5.0	KANKROLI/RAJSAMAND	1612
486	25.067	121.233	5.0	TAOYUAN AB	13298
487	25.13	62.32	5.0	GWADAR	4276
488	25.233	-11.617	5.0	BIR MOGHREIN	5175
489	25.25	55.37	5.0	SHARJAH	2477
490	25.2667	-76.3	5.0	ELEUTHERA ISLAND	6389
491	25.2667	63.4833	5.0	PASNI	119
492	25.3667	97.4	5.0	MYITKYINA	3942
493	25.433	105.183	5.0	XINGREN	4750
494	25.433	106.767	5.0	LUODIAN	3236
495	25.45	30.533	5.0	KHARGA	5223
496	25.517	119.783	5.0	PINGTAN	3181
497	25.533	-103.45	5.0	TORREON AIRPORT	1530
498	25.5667	91.8833	5.0	SHILLONG S06 03Z	280
499	25.617	-109.05	5.0	TOPOLOBAMPO	251
500	25.667	32.7	5.0	LUXOR	7013
501	25.77	87.52	5.0	PURNEA	179
502	25.8	21.133	5.0	TAZERBO	3989
503	25.85	116.367	5.0	CHANGTING	5057
504	25.88	89.43	5.0	LALMANIR HAT	407
505	25.8833	-97.55	5.0	BROWNSVILLE (FORT BROWN)	161
506	25.9	-81.7167	5.0	DELTA SEVEN	436
507	25.967	108.533	5.0	RONGJIANG	2499
508	26.15	119.95	5.0	MAZU (=588490)	4062
509	26.2	36.483	5.0	AL-WEJH	5395
510	26.2333	-97.6667	5.0	HARLINGEN AAF	2317
511	26.267	50.167	5.0	DHAHRAN	17304
512	26.267	50.617	5.0	BAHRAIN/MUHARRAQ	18609
513	26.4	-98.35	5.0	MISSION (MOORE FIELD)	2133
514	26.45	74.73	5.0	AJMER	3098
515	26.5	8.417	5.0	ILLIZI	502
516	26.6167	-78.3667	5.0	GOLD ROCK CREEK	13583
517	26.717	127.783	5.0	IEJIMA AUXILIARY AB	1571
518	26.867	100.233	5.0	LIJING	20204
519	26.9667	1.0833	5.0	AOULEF	3606
520	26.983	84.85	5.0	RAXAUL	1140
521	27.05	88.3	5.0	DARJEELING	116
522	27.117	114.967	5.0	JIAN	4747
523	27.15	33.717	5.0	HURGUADA	2188
524	27.2	31.12	5.0	ASYUT	4165
525	27.3	105.233	5.0	BIJIE	1335
526	27.333	120.2	5.0	FUDING	4348
527	27.5333	-99.4833	5.0	LAREDO	5690
528	27.6667	98.3833	5.0	LA WANG/TZUKEI	857
529	27.7	68.92	5.0	SUKKUR	668
530	27.7	85.367	5.0	KATHMANDU AIRPORT	651
531	27.75	89.167	5.0	PAGRI	5820
532	27.85	-82.5	5.0	TAMPA MACDILL FIELD	206
533	27.883	-0.283	5.0	ADRAR	22304
534	27.95	-80.5667	5.0	VALKARIA	798
535	27.95	108.25	5.0	SINAN	3144
536	28.05	9.633	5.0	IN-AMENAS	12360
537	28.083	30.733	5.0	MINYA	2596
538	28.2	-177.3833	5.0	MIDWAY IS NAS	33263
539	28.417	92.467	5.0	LHUNZE	9321
540	28.45	98.883	5.0	DEQEN	6169
541	28.45	121.883	5.0	DACHEN DAO	18781
542	28.467	-16.25	5.0	STA. CRUZ DE TENERI	22725
543	28.63	77.2	5.0	NEW DEHLI	2068
544	28.633	87.083	5.0	TINGRI	4882
545	28.8	-81.8	5.0	LEESBURG (AAF)	133
546	28.817	104.533	5.0	YIBIN	27926
547	28.833	108.767	5.0	YOUYANG	169
548	28.8667	-100.5167	5.0	EAGLE PASS (AAF)	311
549	28.883	-118.3	5.0	ISLA GUADALUPE	13025
550	29.0	135.0	5.0	OCEAN WEATHER SHIP T	5347
551	29.033	21.567	5.0	JALO	3469
552	29.033	101.5	5.0	JIULONG	1437
553	29.0333	66.5833	5.0	KALAT	172
554	29.05	111.683	5.0	CHANGDE	4719
555	29.117	15.933	5.0	HON	3794
556	29.183	25.517	5.0	SIWA	7069
557	29.217	88.917	5.0	XIGAZE	11663
558	29.25	0.283	5.0	TIMIMOUN	9666
559	29.2833	-94.85	5.0	GALVESTON (FORT CROCKETT)	597
560	29.3	-100.4333	5.0	BRACKETTVILLE (FORT CLARK)	187
561	29.3	117.2	5.0	JINGDEZHEN	5385
562	29.3333	-100.8833	5.0	DEL RIO TEXAS	18085
563	29.383	113.083	5.0	YUEYANG	4823
564	29.55	34.95	5.0	EILAT	6192
565	29.5667	94.4667	5.0	NYINGCHI	6509
566	29.75	24.533	5.0	GIARABUB	2551
567	29.8833	69.7167	5.0	BARKHAN	1029
568	29.967	-95.35	5.0	HOUSTON/INTERCONTIN	1796
569	29.967	99.067	5.0	BATANG	19656
570	30.0	-140.0	5.0	OCEAN WEATHER SHIP N	19180
571	30.033	122.117	5.0	DINGHAI	3697
572	30.05	-102.2167	5.0	DRYDEN AAF	854
573	30.05	101.967	5.0	KANGDING	3716
574	30.0667	-85.5833	5.0	PANAMA CITY (TYNDALL FIELD)	1074
575	30.133	-2.167	5.0	BENI-ABBES	7838
576	30.133	9.5	5.0	GHADAMES	5808
577	30.167	35.783	5.0	MAAN	595
578	30.2	-97.6667	5.0	AUSTIN (BERGSTROM FIELD)	1076
579	30.35	-87.3167	5.0	PENSACOLA FOREST SHERMAN NAS	3463
580	30.3667	-104.0167	5.0	MARFA MUNI (AMOS)	5463
581	30.3667	-89.5833	5.0	NASA MISS. TEST	1068
582	30.383	13.583	5.0	GARIAT EL-SHARGHIA	688
583	30.4	-88.9167	5.0	BILOXI (KEESLER AFB)	2014
584	30.483	140.3	5.0	TORISHIMA	6556
585	30.517	47.783	5.0	BASRAH-HUSSEN	2290
586	30.5333	-91.15	5.0	BATON ROUGE (HARDING FIELD)	1485
587	30.567	2.867	5.0	EL-GOLEA	31528
588	30.667	104.017	5.0	CHENGDU	34761
589	30.717	20.167	5.0	AGEDABIA	3757
590	30.8	106.083	5.0	NANCHONG	8082
591	30.8333	-85.2	5.0	MARIANNA (AAF)	1082
592	30.933	-6.9	5.0	OUARZAZATE	8186
593	30.95	88.633	5.0	XAINZA	12076
594	30.9667	-83.2	5.0	VALDOSTA MOODY AFB	1437
595	30.9833	-84.6333	5.0	BAINBRIDGE AAF	1172
596	31.017	46.233	5.0	NASIRIYA	750
597	31.08	77.18	5.0	SHIMLA	728
598	31.1	-97.717	5.0	FT HOOD AAF/KILLEEN	2923
599	31.1333	-83.7	5.0	MOULTRIE SPENCE FIELD	2269
600	31.2	16.583	5.0	SIRTE	2738
601	31.217	107.5	5.0	DA XIAN	23565
602	31.233	34.783	5.0	BEER-SHEVA	2318
603	31.25	-82.4	5.0	WAYCROSS WARE CO AP	20191
604	31.2667	-89.25	5.0	HATTIESBURG	1210
605	31.3167	-85.45	5.0	DOTHAN (NAPIER FIELD)	1663
606	31.35	69.467	5.0	ZHOB	8789
607	31.367	90.017	5.0	BAINGOIN	11427
608	31.367	130.833	5.0	KANOYA AB	464
609	31.4167	-100.4	5.0	MATHIS FLD/S.ANGELO	2501
610	31.417	95.6	5.0	DENGQEN	6863
611	31.4667	-109.6167	5.0	DOUGLAS (AAF)	1752
612	31.5167	-103.1333	5.0	PYOTE (AFB)	1395
613	31.533	25.183	5.0	SALLUM PLATEAU	5346
614	31.583	-110.333	5.0	FORT HUACHUCA	9251
615	31.617	-8.033	5.0	MARRAKECH	9944
616	31.62	25.93	5.0	SIDI BARRANI	1563
617	31.62	74.4	5.0	LAHORE	12639
618	31.683	9.3	5.0	EL BORMA	1728
619	31.867	-81.633	5.0	FORT STEWART RESERV	3618
620	31.867	10.983	5.0	NALUT	2037
621	31.867	93.767	5.0	SOG XIAN	7101
622	31.867	117.233	5.0	HEFEI	9149
623	31.9	102.233	5.0	BARKAM	6148
624	31.933	-4.4	5.0	ERRACHIDIA	6598
625	31.933	34.833	5.0	BEER-YA AQOV TO 401790	2572
626	31.9333	5.4	5.0	OUARGLA	2887
627	31.983	35.983	5.0	AMMAN AIRPORT	1315
628	32.0167	-81.1333	5.0	SAVANNAH HUNTER AFB	1973
629	32.05	72.667	5.0	SARGODHA	19138
630	32.067	108.033	5.0	WANYUAN	3574
631	32.1	23.933	5.0	TOBRUK	7553
632	32.133	114.05	5.0	XINYANG	7884
633	32.1667	-110.8833	5.0	TUCSON (DAVIS-MONTHAN AFB)	236
634	32.2167	-98.1833	5.0	STEPHENVILLE	15234
635	32.2333	-101.5	5.0	BIG SPRING	13868
636	32.25	-107.7167	5.0	DEMING AAF	518
637	32.283	-9.233	5.0	SAFI	1179
638	32.317	10.4	5.0	REMADA	9738
639	32.3333	-108.7	5.0	LORDSBURG AAF	1409
640	32.3333	-90.2333	5.0	JACKSON (AAB)	400
641	32.35	-104.25	5.0	CARLSBAD AAF	2356
642	32.35	-94.65	5.0	LONGVIEW WSMO	14445
643	32.35	-90.8833	5.0	VICKSBURG	4567
644	32.35	-88.65	5.0	MERIDIAN (KEY FIELD)	2282
645	32.35	-86.9833	5.0	SELMA CRAIG AFB	1440
646	32.367	-6.4	5.0	BENI-MELLAL	2448
647	32.383	3.817	5.0	GHARDAIA	31999
648	32.383	111.667	5.0	GUANGHUA	3239
649	32.4167	-99.6833	5.0	ABILENE MUNI AP	19791
650	32.417	15.05	5.0	MISURATA	1073
651	32.43	109.02	5.0	ANKANG	23991
652	32.5	-93.6667	5.0	SHREVEPORT BARKSDALE AFB	8274
653	32.5	-85.7667	5.0	TUSKEGEE (AAF)	1157
654	32.5	80.067	5.0	SHIQUANHE	10631
655	32.5167	-92.05	5.0	MONROE (SELMAN FIELD)	2178
656	32.55	35.85	5.0	IRBED	691
657	32.65	-114.6	5.0	YUMA INTL AIRPORT	13843
658	32.683	-4.733	5.0	MIDELT	2966
659	32.717	133.017	5.0	SHIMIZU	5015
660	32.7333	-117.1667	5.0	SAN DIEGO (LINDBERGH FIELD)	248
661	32.7333	-96.9667	5.0	DALLAS HENSLEY FIELD	505
662	32.783	22.583	5.0	DERNA	4590
663	32.8	21.883	5.0	SHAHAT	1530
664	32.817	-115.683	5.0	EL CENTRO NAF	1361
665	32.8667	-116.4167	5.0	MOUNT LAGUNA	605
666	32.883	12.083	5.0	ZUARA	2793
667	32.9	-106.1	5.0	HOLLOMAN AFB	10948
668	32.9	-87.25	5.0	CENTREVILLE WSMO	14447
669	32.9167	-80.6333	5.0	WALTERBORO AAF	499
670	32.917	129.917	5.0	NAGASAKI AIRPORT	506
671	32.933	-112.7	5.0	GILA BEND (AAF)	19204
672	32.9333	-111.4333	5.0	COOLIDGE (AAF)	100
673	32.967	114.05	5.0	ZHUMADIAN	6626
674	33.033	40.283	5.0	RUTBAH	2392
675	33.15	130.3	5.0	SAGA AIRPORT	499
676	33.167	-106.5	5.0	WHITE SANDS MISSILE	1539
677	33.233	126.25	5.0	MOESULPO AB	17945
678	33.37	43.57	5.0	AL HABBANIYAH	5634
679	33.383	104.917	5.0	WUDU	27511
680	33.4	-117.5	5.0	CAMP PENDLETON	207
681	33.417	36.517	5.0	DAMASCUS INT. AIRPO	10082
682	33.45	-94.0	5.0	TEXARKANA	6925
683	33.4667	-82.0333	5.0	AUGUSTA DANIEL FIELD	2266
684	33.48	-90.98	5.0	GREENVILLE	2188
685	33.5	-90.0833	5.0	GREENWOOD AAF	1164
686	33.5	6.783	5.0	EL-OUED	28456
687	33.567	-86.75	5.0	BIRMINGHAM MUNI	14141
688	33.583	102.967	5.0	RUOERGAI	2991
689	33.6	-114.75	5.0	BLYTHE	2084
690	33.6167	73.1	5.0	ISLAMABAD AIRPORT	7050
691	33.6333	-116.1667	5.0	THERMAL (AAF)	348
692	33.6333	-88.45	5.0	COLUMBUS AAF	401
693	33.65	-84.4167	5.0	ATLANTA	23845
694	33.683	1.0	5.0	EL-BAYADH	10962
695	33.6833	-78.9333	5.0	MYRTLE BEACH AAF	2003
696	33.7167	-96.6667	5.0	SHERMAN PERRIN FIELD	1179
697	33.783	114.517	5.0	XIHUA	6675
698	33.8	-106.6667	5.0	STALLION SITE	610
699	33.8	99.8	5.0	DARLAG	12064
700	33.817	35.483	5.0	RAFIC HARIRI INTL	12102
701	33.8333	-116.55	5.0	PALM SPRINGS (AAF)	1411
702	33.8667	70.0833	5.0	PARACHINAR	2376
703	33.867	10.767	5.0	DJERBA MELLITA	27692
704	33.883	-5.533	5.0	MEKNES	2167
705	33.8833	-78.0167	5.0	OAK ISLAND	1470
706	33.95	-83.3167	5.0	ATHENS BEN EPPS AP	28581
707	33.95	-81.1167	5.0	COLUMBIA AAB	2011
708	33.95	92.617	5.0	TUOTUOHE	11291
709	33.98	-98.5	5.0	WICHITA FALLS	113
710	34.0	164.0	5.0	OCEAN WEATHER SHIP V	12375
711	34.05	131.05	5.0	OZUKI AB	303
712	34.15	132.22	5.0	IWAKUNI	2734
713	34.2	-119.0667	5.0	OXNARD (FLIGHT STRIP)	174
714	34.217	-4.0	5.0	TAZA	2441
715	34.217	62.217	5.0	HERAT	1107
716	34.2667	-77.9	5.0	WILMINGTON (NEW HANOVER AP)	1212
717	34.3	-103.8	5.0	MELROSE GUNNERY RAN	151
718	34.3	-97.0167	5.0	ARDMORE AFB	1195
719	34.35	-82.3667	5.0	DUE WEST	7331
720	34.3833	-103.3167	5.0	CLOVIS AAF	2127
721	34.417	8.817	5.0	GAFSA	20537
722	34.583	105.75	5.0	TIANSHUI	6899
723	34.5833	-117.3833	5.0	VICTORVILLE (GEORGE AFB)	3313
724	34.6	138.217	5.0	OMAEZAKI	4148
725	34.65	-99.2667	5.0	ALTUS AFB (OKLA)	2675
726	34.6667	-87.3333	5.0	COURTLAND (AAF)	1491
727	34.683	135.517	5.0	OSAKA	7833
728	34.6833	3.25	5.0	DJELFA	9814
729	34.717	10.683	5.0	SFAX EL-MAOU	30654
730	34.7667	-82.3833	5.0	GREENVILLE DONALDSON AFB	1649
731	34.783	-1.95	5.0	OUJDA	7639
732	34.8	-79.3667	5.0	LAURINBURG (MAXTON AAB)	2054
733	34.8	5.733	5.0	BISKRA	19871
734	34.85	119.133	5.0	GANYU	7452
735	34.9167	-81.95	5.0	SPARTANBURG	17820
736	34.917	98.217	5.0	MADOI	6085
737	34.933	136.583	5.0	YOKKAICHI	4758
738	35.0	-48.0	5.0	OCEAN WEATHER SHIP E	8767
739	35.0281	-110.7208	5.0	WINSLOW MUNI AP	47510
740	35.0333	-85.2	5.0	CHATTANOOGA	8998
741	35.05	-89.9833	5.0	MEMPHIS	23896
742	35.083	128.083	5.0	SACHEON AB	8441
743	35.117	36.75	5.0	HAMA	741
744	35.133	-78.933	5.0	FORT BRAGG/SIMMONS	159
745	35.169	128.934	5.0	GIMHAE INTL AIRPORT	5577
746	35.183	-3.85	5.0	AL HOCEIMA	4040
747	35.2	-80.95	5.0	CHARLOTTE MORRIS FIELD	602
748	35.217	93.083	5.0	WUDAOLIANG	5083
749	35.2667	-116.0833	5.0	BAKER	592
750	35.2667	-113.95	5.0	KINGMAN (AAF)	1831
751	35.2667	-75.55	5.0	CAPE HATTERAS WB BLDG	42554
752	35.281	-116.63	5.0	BICYCLE LAKE (AAF)	1660
753	35.3333	-94.3667	5.0	FT SMITH CAMP CHAFFEE	5244
754	35.35	1.467	5.0	TIARET	280
755	35.383	-97.6	5.0	OKLAHOMA CITY/W. RO	55703
756	35.3833	-86.2333	5.0	TULLAHOMA WILLIAM NORTHERN AAF	537
757	35.417	8.117	5.0	TEBESSA	6009
758	35.4333	133.35	5.0	YONAGO	60127
759	35.533	35.767	5.0	LATTAKIA	458
760	35.55	8.683	5.0	THALA	10938
761	35.633	-0.6	5.0	ORAN-SENIA	38241
762	35.667	-75.9	5.0	DARE COUNTY GUNNERY	5845
763	35.667	10.1	5.0	KAIROUAN	22918
764	35.733	-5.9	5.0	TANGER (AERODROME)	389
765	35.75	-95.3667	5.0	MUSKOGEE (HATBOX FIELD/AAF)	3078
766	35.75	10.75	5.0	MONASTIR-SKANES	22479
767	35.8	140.017	5.0	SHIMOFUSA AB	467
768	35.85	14.483	5.0	LUQA	21963
769	35.867	-78.783	5.0	RALEIGH/RALEIGH-DUR	9591
770	35.9	-89.4	5.0	DYERSBURG AAF	821
771	35.9	62.9667	5.0	TAGTABAZAR	13721
772	35.9	128.65	5.0	DAEGU AB	5685
773	35.9167	74.3333	5.0	GILGIT	521
774	35.933	39.017	5.0	RAQQA	252
775	35.9667	-116.2667	5.0	SHOSHONE	313
776	35.967	-89.95	5.0	BLYTHEVILLE AFB	1375
777	35.983	129.417	5.0	POHANG AB	862
778	36.0333	-102.5333	5.0	DALHART	2180
779	36.05	103.883	5.0	LANZHOU	30960
780	36.05	114.4	5.0	ANYANG	7228
781	36.183	5.25	5.0	SETIF	5598
782	36.183	118.15	5.0	YIYUAN	6101
783	36.2	-95.883	5.0	TULSA INTL ARPT(AW)	8677
784	36.217	1.333	5.0	CHLEF	3213
785	36.25	-119.95	5.0	LEMOORE	1341
786	36.283	6.617	5.0	CONSTANTINE	21262
787	36.2969	-99.775	5.0	GAGE	586
788	36.3	2.233	5.0	MILIANA	14988
789	36.317	43.15	5.0	MOSUL	884
790	36.333	-97.667	5.0	ENID/VANCE AFB	1147
791	36.333	37.217	5.0	ALEPPO INT. AEROPOR	18332
792	36.4	139.067	5.0	MAEBASHI	5175
793	36.483	8.8	5.0	JENDOUBA	19808
794	36.617	128.35	5.0	YECHEON AB	5663
795	36.667	-87.5	5.0	FORT CAMPBELL (AAF)	2026
796	36.683	116.983	5.0	JINAN	33391
797	36.7	119.1167	5.0	WEI HSIEN	254
798	36.717	5.067	5.0	BEJAIA-AEROPORT	12372
799	36.75	-104.5	5.0	RATON	5905
800	36.767	-119.717	5.0	FRESNO AIRTERM	24368
801	36.767	126.467	5.0	SEOSAN	566
802	36.77	3.05	5.0	ALGER	2691
803	36.833	7.817	5.0	ANNABA	30088
804	36.85	11.083	5.0	KELIBIA	18563
805	36.867	30.733	5.0	ANTALYA	1476
806	36.883	6.9	5.0	SKIKDA	639
807	36.8833	-93.9	5.0	MONETT	18071
808	36.8833	-76.2	5.0	NORFOLK/MUNI (VA)	27148
809	36.95	8.75	5.0	TABARKA	4939
810	37.017	-7.967	5.0	FARO/AEROPORTO	1831
811	37.05	41.217	5.0	KAMISHLI	136
812	37.0667	-88.7667	5.0	PADUCAH BARKLEY FLD	4390
813	37.1	-113.6	5.0	ST. GEORGE	591
814	37.1	128.8667	5.0	SANGDONG	294
815	37.1333	-76.6	5.0	NEWPORT NEWS (FORT EUSTIS)	471
816	37.233	9.817	5.0	BIZERTE	7207
817	37.233	67.267	5.0	TERMEZ	20099
818	37.3167	-121.8667	5.0	SAN JOSE/EMSU	188
819	37.317	97.217	5.0	DELINGHA	10750
820	37.3333	-79.2	5.0	LYNCHBURG	4148
821	37.3667	-120.5667	5.0	CASTLE AFB	3294
822	37.367	-118.367	5.0	BISHOP AIRPORT	1144
823	37.4	122.683	5.0	CHENGSHANTOU	15581
824	37.433	-105.867	5.0	ALAMOSA MUNI(AWOS)	921
825	37.433	127.95	5.0	WONJU AB	6345
826	37.467	53.967	5.0	ESENGYLY	36098
827	37.47	15.07	5.0	CATANIA	912
828	37.4833	116.3667	5.0	TE HSIEN/TECHOW	498
829	37.5	71.5	5.0	KHOROG	28898
830	37.617	120.317	5.0	LONGKOU	8328
831	37.65	-97.433	5.0	WICHITA/MID-CONTINE	23414
832	37.75	128.95	5.0	GANGNEUNG AB	6015
833	37.78	12.45	5.0	MARSALA	112
834	37.783	-81.117	5.0	BECKLEY	114
835	37.783	-0.8	5.0	MURCIA/SAN JAVIER	1000
836	37.8	-113.9	5.0	MODENA	20748
837	37.85	91.65	5.0	MANGYA	1192
838	37.85	95.367	5.0	DA-QAIDAM	5439
839	37.9	-121.2333	5.0	STOCKTON (FIELD)	1204
840	37.917	139.05	5.0	NIIGATA	2033
841	37.93	83.65	5.0	ANDIR	14362
842	37.966	124.63	5.0	BAENGNYEONGDO	8261
843	37.987	58.361	5.0	ASHGABAT KESHI	38470
844	38.0	-71.0	5.0	OCEAN WEATHER SHIP H	3274
845	38.05	-103.52	5.0	LA JUNTA	164
846	38.05	-87.533	5.0	EVANSVILLE REGIONAL	22434
847	38.0667	-117.0833	5.0	TONAPAH APRT (NEV)	3624
848	38.2	15.55	5.0	MESSINA	5442
849	38.25	90.85	5.0	MANGNAI	15030
850	38.267	140.9	5.0	SENDAI	57672
851	38.33	-77.03	5.0	DAHLGREN	2797
852	38.3667	-82.55	5.0	HUNTINGTON TRI STATE AP	35391
853	38.373	-81.6	5.0	YEAGER	1619
854	38.417	-113.017	5.0	MILFORD MUNICIPAL	774
855	38.433	77.267	5.0	SHACHE	15714
856	38.5167	-122.8	5.0	SANTA ROSA (AAF)	213
857	38.55	68.783	5.0	DUSHANBE	35803
858	38.65	-88.9667	5.0	SALEM LECKRONE AP	15223
859	38.72	-9.15	5.0	LISBOA/GEOFISICO	669
860	38.733	48.833	5.0	LANKARAN	33653
861	38.733	115.483	5.0	BAODING	9153
862	38.7333	-93.5667	5.0	KNOBNOSTER SEDALIA AFB	1436
863	38.7667	-87.6167	5.0	LAWRENCEVILLE GEORGE FIELD	1385
864	38.8	-97.63	5.0	SALINA	3551
865	38.817	-92.217	5.0	COLUMBIA REGIONAL	19320
866	38.817	35.433	5.0	KAYSERI/ERKILET	1942
867	38.833	93.383	5.0	LENGHU	15645
868	38.8333	-85.4167	5.0	MADISON JEFFERSON PRVGR	842
869	38.8833	-79.85	5.0	ELKINS	10236
870	38.95	-121.07	5.0	AUBURN	133
871	38.95	-95.6667	5.0	TOPEKA (FORBES AFB)	1930
872	39.083	63.6	5.0	CHARDZHEV	36014
873	39.1	107.983	5.0	OTOG QI	9443
874	39.1167	-94.5833	5.0	KANSAS CITY	26901
875	39.1333	-75.4667	5.0	DOVER (AAF)	888
876	39.2	45.417	5.0	NAXCIVAN	914
877	39.283	109.75	5.0	CHASAKOCHI	3515
878	39.295	-114.8453	5.0	ELY YELLAND FLD AP	48437
879	39.367	-101.7	5.0	GOODLAND/RENNER FIE	8448
880	39.37	-94.92	5.0	FT. LEAVENWORTH	5295
881	39.383	111.15	5.0	HEQU	8713
882	39.4167	-76.3	5.0	EDGEWOOD	823
883	39.4333	118.9	5.0	LETING	20578
884	39.45	-74.6667	5.0	ATLANTIC CITY U-A	10118
885	39.55	2.617	5.0	PALMA DE MALLORCA	9948
886	39.6667	-78.6667	5.0	CUMBERLAND	197
887	39.6667	118.1167	5.0	TANG SHAN	251
888	39.7167	-104.9	5.0	DENVER (LOWRY FIELD)	878
889	39.783	105.75	5.0	JARTAI	9470
890	39.7833	-121.85	5.0	CHICO MUNI	2664
891	39.8	78.567	5.0	BACHU	9060
892	39.8333	-89.6667	5.0	SPRINGFIELD	11873
893	39.8333	-79.75	5.0	UNIONTOWN BURGESS FIELD	472
894	39.867	4.233	5.0	MENORCA/MAHON	165
895	39.9	-84.2	5.0	DAYTON MCCOOK FIELD	1122
896	39.9	116.47	5.0	PEIPING	701
897	39.983	46.75	5.0	KHANKANDY	657
898	40.083	124.333	5.0	DANDONG	24594
899	40.1	113.333	5.0	DATONG	8658
900	40.12	-103.17	5.0	AKRON	214
901	40.15	-122.25	5.0	RED BLUFF MUNICIPAL	4637
902	40.2	-8.417	5.0	COIMBRA	458
903	40.217	69.733	5.0	KHUDJAND	382
904	40.267	97.033	5.0	YUMENZHEN	2942
905	40.3	-88.15	5.0	RANTOUL	16640
906	40.3833	-75.9667	5.0	READING AAF	1035
907	40.433	-80.0	5.0	PITTSBURGH/EMSU	544
908	40.55	70.95	5.0	KOKAND	7416
909	40.617	47.15	5.0	EVLAKH AIRPORT	164
910	40.633	87.7	5.0	TIKANLIK	16175
911	40.6667	-89.6833	5.0	PEORIA GTR PEORIA AP	29195
912	40.717	46.417	5.0	GANDJA	818
913	40.733	-114.033	5.0	WENDOVER/AF. AUX. F	1089
914	40.75	104.5	5.0	BAYAN MOD	20474
915	40.783	43.833	5.0	GUMRI	147
916	40.85	-72.6333	5.0	WESTHAMPTON SUFFOLK COUNTY AAF	828
917	40.85	35.583	5.0	MERZIFON	1796
918	40.9019	-117.8072	5.0	WINNEMUCCA MUNI AP	43590
919	40.917	72.95	5.0	DZHALAL-ABAD	30741
920	40.933	78.45	5.0	AKQI	5651
921	40.95	-5.5	5.0	SALAMANCA/MATACAN	173
922	40.967	117.917	5.0	CHENGDE	6676
923	40.97	107.17	5.0	XAMBA	1094
924	41.0	-85.2	5.0	FORT WAYNE/BAER FLD	9534
925	41.0333	-81.4833	5.0	AKRON	11543
926	41.1167	122.95	5.0	AN SHAN	362
927	41.117	121.067	5.0	JINZHOU	26088
928	41.15	-104.817	5.0	CHEYENNE/WARREN AFB	25238
929	41.22	-103.1	5.0	SYDNEY	677
930	41.233	-8.683	5.0	PORTO/PEDRAS RUBRAS	1615
931	41.25	-76.917	5.0	WILLIAMSPORT/LYCOMI	463
932	41.25	-70.0667	5.0	NANTUCKET MEM AP	22618
933	41.26	80.3	5.0	WEN-SU	9162
934	41.2667	-72.0167	5.0	FISHERS ISLAND FORT H G WRIGHT	165
935	41.267	69.267	5.0	TASHKENT	46679
936	41.3333	-96.2667	5.0	DREXEL	2667
937	41.3667	-71.4833	5.0	POINT JUDITH	1724
938	41.417	-81.867	5.0	CLEVELAND	15064
939	41.433	76.0	5.0	NARYN	13926
940	41.45	-90.5167	5.0	MOLINE	21497
941	41.45	31.8	5.0	ZONGULDAK	304
942	41.45	106.383	5.0	HAILS	4738
943	41.5	-88.1667	5.0	JOLIET	7402
944	41.5	-74.1	5.0	NEWBURGH/STEWART AFB	3104
945	41.533	-93.65	5.0	DES MOINES INTL	11917
946	41.55	46.667	5.0	ZAKATALA	424
947	41.6	-109.0667	5.0	ROCK SPRINGS	20297
948	41.6	-83.8	5.0	TOLEDO EXPRESS	14112
949	41.633	41.6	5.0	BATUMI	7554
950	41.65	-70.5167	5.0	FALMOUTH OTIS AFB	383
951	41.65	25.367	5.0	KURDJALI	9983
952	41.6833	44.95	5.0	TBILISI/NOVOALEXEYE	30083
953	41.7	-86.3167	5.0	SOUTH BEND ST JOSEPH	612
954	41.717	-4.85	5.0	VALLADOLID/VILLANUB	206
955	41.733	64.617	5.0	TAMDY	24209
956	41.75	86.133	5.0	KORLA	21640
957	41.75	103.9667	5.0	PANG-TING-TO-TO-KAI	1057
958	41.7833	95.1333	5.0	XING-XING-XIA	122
959	41.8	12.233	5.0	ROMA FIUMICINO	25186
960	41.833	59.983	5.0	DASHKHOVUZ	40766
961	41.8667	-103.5833	5.0	SCOTTSBLUFF AAF	987
962	41.95	21.633	5.0	SKOPJE- AIRPORT	2454
963	42.0333	-70.0333	5.0	NORTH TRURO	1581
964	42.0833	-91.6167	5.0	CEDAR RAPIDS ECHO SI	1310
965	42.1	-102.8333	5.0	ALLIANCE AAF	611
966	42.1667	-76.9	5.0	ELMIRA	1639
967	42.2	-1.45	5.0	BARDENAS REALES	4866
968	42.4	-96.383	5.0	SIOUX CITY MUNI	9727
969	42.4	112.9	5.0	JURH	11935
970	42.45	-2.333	5.0	LOGRONO/AGONCILLO	349
971	42.583	-5.65	5.0	LEON/VIRGEN DEL CAM	200
972	42.5833	-100.0	5.0	AINSWORTH AAF	1523
973	42.7	-68.3	5.0	ENVIRONM BUOY 44005	574
974	42.8167	-108.7333	5.0	LANDER HUNT FLD AP	34519
975	42.833	74.583	5.0	BISHKEK	24813
976	42.9167	-112.5333	5.0	POCATELLO	11754
977	42.933	89.2	5.0	TURPAN	10824
978	42.9333	-71.4333	5.0	MANCHESTER (GRENIER FIELD)	1073
979	42.95	-87.9	5.0	MILWAUKEE WI AIRPORT	11003
980	42.9667	-83.75	5.0	FLINT BISHOP AP	29048
981	43.0	1.1	5.0	SAINT GIRONS	158
982	43.017	41.033	5.0	SUKHUMI (AGMS)	37578
983	43.0667	-76.2667	5.0	SYRACUSE	12089
984	43.167	-86.25	5.0	MUSKEGON	10171
985	43.2	107.167	5.0	HANBOGD	2539
986	43.23	-75.4	5.0	ROME	8975
987	43.3333	145.5833	5.0	NEMURO	57934
988	43.417	6.75	5.0	SAINT-RAPHAEL	230
989	43.467	-1.533	5.0	BIARRITZ	1055
990	43.483	91.633	5.0	SHISANJIANFANG	15467
991	43.517	16.433	5.0	SPLIT/MARJAN	4568
992	43.6	118.067	5.0	LINXI	3300
993	43.633	1.367	5.0	TOULOUSE BLAGNAC	1937
994	43.65	7.2	5.0	NICE	437
995	43.683	-1.067	5.0	DAX	328
996	43.75	24.883	5.0	TR. MAGURELE	218
997	43.88	-69.93	5.0	BRUNSWICK	965
998	43.917	-0.5	5.0	MONT-DE-MARSAN	166
999	43.9333	-91.2833	5.0	LA CROSSE	9613
1000	43.983	119.4	5.0	LINDONG	4651
1001	44.0	-41.0	5.0	OCEAN WEATHER SHIP D	9766
1002	44.017	89.567	5.0	QITAI	9992
1003	44.017	145.867	5.0	JUZHNO-KURILSK	37102
1004	44.05	43.03	5.0	PJATIGORSK	230
1005	44.117	-123.217	5.0	EUGENE/MAHLON SWEET	5856
1006	44.117	-77.533	5.0	TRENTON ARPT	142
1007	44.167	80.067	5.0	ZHARKENT	23543
1008	44.217	28.633	5.0	CONSTANTA	27610
1009	44.2667	-71.3	5.0	MOUNT WASHINGTON	506
1010	44.317	23.867	5.0	CRAIOVA	548
1011	44.3833	-98.2167	5.0	HURON RGNL AP	33451
1012	44.55	50.25	5.0	FORT SHEVCHENKO	1177
1013	44.567	129.6	5.0	MUDANJIANG	4789
1014	44.583	4.733	5.0	MONTELIMAR	189
1015	44.583	117.6	5.0	XI UJIMQIN QI	8443
1016	44.617	82.9	5.0	JINGHE	10505
1017	44.617	114.15	5.0	NARAN BULAG	14093
1018	44.62	33.53	5.0	SEWASTOPOL	723
1019	44.633	22.633	5.0	DROBETA TURNU SEVER	953
1020	44.6833	34.1333	5.0	SIMFEROPOL	43580
1021	44.767	-106.967	5.0	SHERIDAN CO. ARPT	16448
1022	44.7833	20.5333	5.0	BEOGRAD/SELENO BRD	8769
1023	44.9	110.117	5.0	SAINSHAND	17817
1024	44.9333	-93.0667	5.0	ST PAUL	17907
1025	45.0	-16.0	5.0	OCEAN WEATHER SHIP K	2558
1026	45.0	136.6	5.0	TERNEJ	35417
1027	45.15	26.817	5.0	BUZAU	652
1028	45.15	29.667	5.0	SULINA	178
1029	45.3	-82.8	5.0	ENVIRONM BUOY 45003	574
1030	45.367	90.533	5.0	BAYTIK SHAN	19772
1031	45.417	-91.767	5.0	RICE LAKE RGNL CARLS	581
1032	45.467	-73.733	5.0	MONTREAL/TRUDEAU INT	17827
1033	45.5	28.2	5.0	GALATI	7351
1034	45.5333	-122.6833	5.0	PORTLAND INTL	27685
1035	45.55	-94.0667	5.0	ST CLOUD MUNI AP	35321
1036	45.6	84.85	5.0	KARAMAY	20097
1037	45.667	-0.317	5.0	COGNAC	356
1038	45.683	-118.85	5.0	PENDLETON MUNICIPAL	17867
1039	45.717	4.95	5.0	LYON-BRON	10582
1040	45.767	21.25	5.0	TIMISOARA	862
1041	45.767	106.283	5.0	MANDALGOBI	3030
1042	45.783	24.083	5.0	SIBIU	813
1043	45.8	-108.533	5.0	BILLINGS/LOGAN INT.	18423
1044	45.817	-73.433	5.0	LASSOMPTION CDA	104
1045	45.833	24.933	5.0	FAGARAS	154
1046	45.867	1.183	5.0	LIMOGES	190
1047	45.867	22.9	5.0	DEVA	887
1048	45.95	-77.317	5.0	PETAWAWA	1273
1049	45.9667	-112.5	5.0	BUTTE	12098
1050	46.0	18.233	5.0	PECS/POGANY	127
1051	46.167	21.317	5.0	ARAD	7175
1052	46.18	45.35	5.0	YASHKUL	3336
1053	46.2	150.5	5.0	URUP	29544
1054	46.22	122.05	5.0	ULANHOT	2278
1055	46.2667	-119.1167	5.0	PASCO	5233
1056	46.374	-117.015	5.0	LEWISTON NEZ PERCE	432
1057	46.4667	-84.35	5.0	SAULT STE MARIE SANDERSON FLD	58659
1058	46.5	121.36	5.0	TE-PO-SU-K/-MIAO	11684
1059	46.533	24.533	5.0	TG. MURES	1169
1060	46.5667	-87.4	5.0	MARQUETTE	8748
1061	46.567	-120.533	5.0	YAKIMA AIRTERM	2200
1062	46.583	26.983	5.0	BACAU	1500
1063	46.733	83.0	5.0	TACHENG	22028
1064	46.767	-56.167	5.0	SAINT-PIERRE	690
1065	46.783	61.65	5.0	ARALSKOE MORE	40172
1066	46.8	75.083	5.0	BALHASH	36009
1067	46.817	130.333	5.0	CHIAMUSSU	2815
1068	46.833	-92.183	5.0	DULUTH INTL AIRPORT	8808
1069	46.85	1.7167	5.0	CHATEAUROUX	5082
1070	46.85	151.8667	5.0	SIMUSIR	4608
1071	46.9	-96.8	5.0	FARGO/HECTOR FIELD	15380
1072	46.9	-71.483	5.0	VALCARTIER AIRPORT	2371
1073	46.917	-114.083	5.0	MISSOULA/JOHNSON-BE	15882
1074	47.0	-15.0	5.0	WEATHERSHIP K CIRRUS	477
1075	47.017	28.867	5.0	KISINEV	37217
1076	47.033	21.9	5.0	ORADEA	822
1077	47.0333	-120.5167	5.0	ELLENSBURG	10146
1078	47.067	2.367	5.0	BOURGES	3475
1079	47.15	-1.6	5.0	NANTES	256
1080	47.167	27.633	5.0	IASI	1100
1081	47.1833	-119.3167	5.0	MOSES LAKE (LARSON AFB)	344
1082	47.267	5.083	5.0	DIJON	234
1083	47.267	16.633	5.0	SZOMBATHELY	183
1084	47.3	-54.0	5.0	ARGENTIA	11299
1085	47.383	123.917	5.0	QIQIHAR	17927
1086	47.45	101.467	5.0	TSETSERLEG	2069
1087	47.567	-59.15	5.0	PORT-AUX-BASQUES	2303
1088	47.633	26.25	5.0	SUCEAVA	513
1089	47.6667	-117.3333	5.0	SPOKANE (FELTS FIELD)	7917
1090	47.6667	-52.75	5.0	SAINT JOHN'S ARPT	30095
1091	47.667	23.5	5.0	BAIA MARE	1152
1092	47.717	22.883	5.0	SATU MARE	1507
1093	47.733	130.967	5.0	EKATERINO-NIKOLSKOE	30472
1094	47.75	96.85	5.0	ULIASTAI	1923
1095	47.8	3.55	5.0	AUXERRE	185
1096	47.9	-122.2833	5.0	EVERETT (PAINE FIELD)	200
1097	47.95	-97.4	5.0	GRAND FORKS AFB	517
1098	48.017	91.567	5.0	HOVD	3097
1099	48.02	7.83	5.0	FREIBURG	1516
1100	48.067	-1.733	5.0	RENNES	1102
1101	48.07	5.03	5.0	CHAUMONT	4616
1102	48.1333	-123.4167	5.0	PORT ANGELES	3357
1103	48.354	11.786	5.0	MUNICH/RIEM	20686
1104	48.3833	-124.7333	5.0	TATOOSH ISLAND WB	21960
1105	48.55	7.6333	5.0	STRASBOURG	1364
1106	48.633	22.267	5.0	UZHHOROD	40708
1107	48.65	144.75	5.0	M. TERPENIYA (FL)	7763
1108	48.667	116.817	5.0	XIN BARAG YOUQI	12550
1109	48.6833	6.2167	5.0	NANCY/ESSEY	32474
1110	48.7	-8.9167	5.0	ENVIRONM BUOY 62027	215
1111	48.8	103.55	5.0	BULGAN	2639
1112	48.85	2.33	5.0	PARIS	270
1113	48.917	106.067	5.0	BARUUNHARAA	2895
1114	48.95	-97.25	5.0	PEMBINA	2575
1115	49.067	20.25	5.0	POPRAD/TATRY	15541
1116	49.08	16.62	5.0	BRNO REBESOVICE	4516
1117	49.2	-123.167	5.0	VANCOUVER INT. AIRP	14056
1118	49.3	4.033	5.0	REIMS	179
1119	49.383	11.167	5.0	FEUCHT(USA-AF)	1528
1120	49.6	34.55	5.0	POLTAVA	634
1121	49.633	-112.8	5.0	LETHBRIDGE AWOS	9936
1122	49.7	11.95	5.0	GRAFENWOEHR	3151
1123	49.7167	-124.9	5.0	COMOX A	104
1124	49.75	10.2	5.0	KITZINGEN AAF	631
1125	49.783	-99.633	5.0	SHILO	6238
1126	49.9	-97.233	5.0	WINNIPEG INT.AIRPOR	16336
1127	49.9031	-98.2842	5.0	PORTAGE SOUTHPORT	554
1128	49.95	6.57	5.0	BITBURG	3760
1129	50.0	-145.0	5.0	OCEAN WEATHER SHIP P	12221
1130	50.0	88.667	5.0	KOS-AGAC	10486
1131	50.017	155.4	5.0	M. VASILYEV	34757
1132	50.033	5.4	5.0	ST-HUBERT	26357
1133	50.1	14.2833	5.0	PRAHA/RUZYNE	8770
1134	50.133	1.833	5.0	ABBEVILLE	116
1135	50.133	65.233	5.0	AMANGELDY	15887
1136	50.233	-119.283	5.0	VERNON AUTO	15732
1137	50.28	-64.17	5.0	MINGAN	632
1138	50.28	21.43	5.0	MIELEC	738
1139	50.383	-102.683	5.0	BROADVIEW	8722
1140	50.417	80.3	5.0	SEMIPALATINSK	42269
1141	50.433	-104.667	5.0	REGINA INTL	6105
1142	50.6	137.0333	5.0	KOMSOMOLSK-ON-AMUR	33016
1143	50.8667	7.1333	5.0	KOLN/BONN	1759
1144	51.02	11.03	5.0	ERFURT	465
1145	51.083	-0.217	5.0	CRAWLEY	37592
1146	51.083	2.65	5.0	KOKSIJDE	311
1147	51.1	-100.05	5.0	DAUPHIN AIRPORT	2648
1148	51.11	13.67	5.0	WAHNSDORF	40165
1149	51.117	-114.017	5.0	CALGARY INTL	15534
1150	51.12	17.03	5.0	WROCLAW	146
1151	51.13	9.28	5.0	FRITZLAR/KASSELER	21333
1152	51.133	-106.583	5.0	ELBOW CS	165
1153	51.1333	71.3667	5.0	CELINOGRAD	167
1154	51.1833	40.7	5.0	KAMENNAYA STEP NO2	6225
1155	51.2333	7.6	5.0	LUDENSCHEID	1004
1156	51.25	51.4	5.0	URALSK	34602
1157	51.3833	179.25	5.0	AMCHITKA ISLAND	1908
1158	51.4	-3.35	5.0	CARDIFF-WALES ARPT	890
1159	51.517	-109.183	5.0	KINDERSLEY ARPT	914
1160	51.55	12.0667	5.0	OPPIN	3700
1161	51.5547	0.8269	5.0	SHOEBURYNESS	10753
1162	51.717	126.65	5.0	HUMA	6620
1163	51.733	6.267	5.0	KALKAR	3052
1164	51.75	-1.583	5.0	BRIZE NORTON	1008
1165	51.85	10.7667	5.0	WERNIGERODE	9806
1166	51.883	-176.65	5.0	ADAK (NAS)	33391
1167	51.9833	177.5667	5.0	KISKA ISLAND	308
1168	52.05	29.25	5.0	MOZYR (AMOS)	6912
1169	52.117	0.967	5.0	WATTISHAM	437
1170	52.167	-106.717	5.0	SASKATOON DIEFENBAKE	2309
1171	52.167	4.433	5.0	VALKENBURG	583
1172	52.18	20.97	5.0	WARSZAWA	1720
1173	52.267	7.433	5.0	NORDHORN	5346
1174	52.267	104.317	5.0	IRKUTSK	39087
1175	52.4167	-4.0	5.0	CAPEL DEWI	6559
1176	52.417	16.85	5.0	POZNAN	31288
1177	52.433	-114.917	5.0	ROCKY MTN HOUSE	1475
1178	52.467	9.7	5.0	HANNOVER	44613
1179	52.483	13.417	5.0	BERLIN/TEMPELHOF	30570
1180	52.5	-20.0	5.0	OCEAN WEATHER SHIP J	2559
1181	52.67	1.68	5.0	HEMSBY	50217
1182	52.733	41.467	5.0	TAMBOV	38381
1183	52.75	-35.5	5.0	OCEAN WEATHER SHIP C	13900
1184	52.767	-108.25	5.0	NORTH BATTLEFORD	2182
1185	52.8	-2.667	5.0	SHAWBURY	561
1186	52.8	173.16	5.0	ATTU ISLAND	3463
1187	53.05	158.33	5.0	NIKOLAEVKA	127
1188	53.067	132.983	5.0	EKIMCHAN	29232
1189	53.167	-0.517	5.0	WADDINGTON	992
1190	53.2	-70.9	5.0	NITCHEQUON	15444
1191	53.217	-105.667	5.0	PRINCE ALBERT ARPT	9605
1192	53.25	4.917	5.0	VLIELAND	6803
1193	53.25	50.45	5.0	SAMARA	39657
1194	53.38	-167.9	5.0	UMNAK ISLAND	2799
1195	53.5333	7.8833	5.0	JEVER	872
1196	53.55	-2.917	5.0	AUGHTON	43285
1197	53.6167	109.6333	5.0	BARGUZIN	6508
1198	53.7333	87.1833	5.0	ABAGUR	181
1199	53.833	-89.867	5.0	TROUT LAKE	15743
1200	53.85	-94.65	5.0	ISLAND LAKE ARPT	4067
1201	53.883	-122.667	5.0	PRINCE GEORGE	30854
1202	53.9	-166.53	5.0	DUTCH HARBOR	2953
1203	53.933	27.633	5.0	MINSK	43880
1204	54.0	123.967	5.0	SKOVORODINO	31293
1205	54.2	16.1833	5.0	KOSZALIN	1537
1206	54.3	-1.533	5.0	LEEMING	777
1207	54.383	10.15	5.0	KEIL/HOLTENAU	15248
1208	54.62	-113.33	5.0	MEANOOK	101
1209	54.6333	9.35	5.0	EGGEBECK	2824
1210	54.75	-110.05	5.0	PRIMROSE LAKE	845
1211	54.8	105.167	5.0	ZHIGALOVO	35584
1212	55.283	-114.783	5.0	SLAVE LAKE AIRPORT	13183
1213	55.317	-3.2	5.0	ESKDALEMUIR	233
1214	55.35	-131.65	5.0	KETCHIKAN	5932
1215	55.417	-1.6	5.0	BOULMER	13127
1216	56.0	92.883	5.0	KRASNOYARSK	40900
1217	56.483	21.017	5.0	LIEPAJA	26905
1218	56.5	-51.0	5.0	OCEAN WEATHER SHIP B	11583
1219	56.65	-111.217	5.0	FORT MCMURRAY ARPT	11470
1220	56.8	60.6	5.0	SWERDLOWSK	171
1221	56.917	23.967	5.0	RIGA	47749
1222	57.1	9.867	5.0	FLYVESTATION AALBOR	4824
1223	57.2	-2.217	5.0	ABERDEEN/DYCE AIRPO	421
1224	57.58	39.58	5.0	JAROSLAVL	529
1225	57.65	-3.567	5.0	KINLOSS	767
1226	57.717	11.783	5.0	GOTEBURG/TORSLANDA	20557
1227	57.817	28.333	5.0	PSKOV	39213
1228	58.183	12.15	5.0	TORPABRON	288
1229	58.217	-6.317	5.0	STORNOWAY	52782
1230	58.37	-134.58	5.0	JUNEAU	15260
1231	59.0	-19.0	5.0	OCEAN WEATHER SHIP I	2647
1232	59.35	17.95	5.0	STOCKHOLM/BROMMA	41574
1233	59.78	21.37	5.0	UTO	674
1234	60.2	-166.1	5.0	NUNIVAK AAF	100
1235	60.3167	24.9667	5.0	HELSINKI/SEUTALA	4544
1236	60.35	166.0	5.0	KORF	42069
1237	60.38	5.33	5.0	BERGEN	179
1238	60.4833	-145.5	5.0	CORDOVA	2276
1239	60.57	28.63	5.0	SUUR-MERIJOKI	418
1240	60.88	26.97	5.0	UTTI	630
1241	61.08	-69.55	5.0	CAPE HOPES ADVANCE STATION	661
1242	61.267	108.2	5.0	ERBOGACEN	35974
1243	61.717	30.717	5.0	SORTAVALA	36442
1244	61.95	160.8667	5.0	GIZIGA	28015
1245	62.0	-33.0	5.0	OCEAN WEATHER SHIP A	7562
1246	62.1	42.9	5.0	SENKURSK	255
1247	62.1167	-163.75	5.0	MOUNTAIN VILLAGE	147
1248	62.7833	148.1333	5.0	SUSUMAN	12807
1249	62.85	149.76	5.0	SHTURMOVOY	2661
1250	62.97	-141.96	5.0	NORTHWAY	12371
1251	63.017	179.283	5.0	BERINGOVSKAJA	25831
1252	63.12	23.08	5.0	KAUHAVA	611
1253	63.183	14.5	5.0	OSTERSUND/FROSON	16859
1254	63.32	30.5	5.0	LIEKSA	148
1255	63.3333	-149.15	5.0	SUMMIT	2843
1256	63.43	-51.18	5.0	MARRAK POINT	353
1257	63.5	-90.7	5.0	CHESTERFIELD INLET	472
1258	63.85	-171.6	5.0	GAMBELL	8490
1259	63.9	-160.7833	5.0	UNALAKLEET	1191
1260	64.0	-145.733	5.0	FT GREELY/ALLEN AAF	1398
1261	64.13	-21.9	5.0	REYKJAVIK	270
1262	64.22	27.73	5.0	KAJAANI	181
1263	64.383	-173.233	5.0	BUHTA PROVIDENJA	27529
1264	64.683	170.417	5.0	MARKOVO	33706
1265	64.7167	-156.9	5.0	GALENA	571
1266	64.917	77.817	5.0	TARKO-SALE	33211
1267	65.6167	-168.05	5.0	WALES	863
1268	65.93	-36.68	5.0	IKATEQ	111
1269	66.0	2.0	5.0	OCEAN WEATHER SHIP M	2031
1270	66.167	-169.833	5.0	MYS UELEN	30932
1271	66.567	-145.267	5.0	FORT YUKON	133
1272	67.0	-50.8	5.0	KANGERLUSSUAK	3155
1273	67.47	86.57	5.0	IGARKA	13709
1274	67.8167	-115.0833	5.0	COPPERMINE	14703
1275	68.1	-165.7667	5.0	CAPE THOMPSON	100
1276	68.23	-135.0	5.0	AKLAVIK	7053
1277	68.35	-166.7833	5.0	POINT HOPE	425
1278	68.47	17.5	5.0	NARVIK	128
1279	68.47	73.6	5.0	MYS KAMENNY	29022
1280	68.65	43.3	5.0	KANIN NOS	4393
1281	68.92	-179.48	5.0	MYS SHMIDTA	33429
1282	69.3667	-152.1333	5.0	UMIAT	611
1283	69.4	86.17	5.0	DUDINKA	5076
1284	69.7	19.02	5.0	TROMSO	3783
1285	69.783	61.783	5.0	AMDERMA	34229
1286	69.9333	167.9667	5.0	AJON ISLAND	9137
1287	70.1333	-143.6333	5.0	BARTER ISLAND WSO AP	25677
1288	70.42	-21.97	5.0	KAP TOBIN	18381
1289	70.45	-68.55	5.0	CLYDE RIVER	13851
1290	70.63	162.4	5.0	OSTROV CHETYREKHSTOLBO	32761
1291	70.967	-178.65	5.0	OSTROV VRANGELYA	29474
1292	71.17	-24.4	5.0	OSTSTATION	106
1293	71.317	-156.617	5.0	SANDIA LAB. D	523
1294	72.0	-125.27	5.0	SACHS HARBOUR	22298
1295	73.0	-85.3	5.0	ARCTIC BAY (NWT)	7539
1296	73.2	143.533	5.0	MYS SHALAUROVA	27652
1297	73.33	70.03	5.0	IM POPOVA	11828
1298	74.67	112.93	5.0	OSTROV PREOBRAZHENIA	28488
1299	76.15	152.83	5.0	OSTROV ZOHOVA	20328
1300	76.1833	62.5667	5.0	RUSSKAJA GAVAN	246
1301	76.25	-119.35	5.0	MOULD BAY	34676
1302	76.533	-68.75	5.0	PITUFFIK	50379
1303	76.95	68.58	5.0	MYS ZHELANIA	29248
1304	77.23	-62.33	5.0	THULE	119
1305	77.5	82.23	5.0	OSTROV UEDINENIA	24206
1306	77.72	104.28	5.0	MYS CHELIUSKINA	657
1307	78.8	-103.5	5.0	ISACHSEN	21510
1308	79.5	76.98	5.0	OSTROV VIZE	26148
1309	80.05	18.3	5.0	KINNVIKA STATION	259
1310	80.45	52.8	5.0	BUKHTA TIKHAYA/GUKER IS.	4385
1311	81.6	-16.67	5.0	NORD	10981
1312	-78.535	-163.865	5.6	LITTLE AMERICA I,LITTLE AMERICA	1172
1313	-36.9335	174.79000000000002	5.6	AUCKLAND AIRPORT,AUCKLAND	26042
1314	-17.9585	25.833500000000004	5.6	VICTORIA FALLS,LIVINGSTONE	14079
1315	-14.989999999999998	40.67	5.6	LUMBO,MOSSURIL	5616
1316	-13.771499999999998	33.73350000000001	5.6	LILONGWE INTL AIRPO,LILONGWE	15098
1317	-8.525	126.4835	5.6	KOMORO,BAU CAU	6939
1318	-4.375	15.3415	5.6	KINSHASA/NDJILI,KINSHASA/BINZA	1037
1319	-3.7581499999999997	-73.275	5.6	IQUITOS,MORONA	1396
1320	3.1085000000000003	101.6	5.6	PETALING JAYA,KUALA LUMPUR SUBANG	34224
1321	9.975	98.6	5.6	VICTORIA POINT,RANONG	4161
1322	10.541999999999998	-71.69149999999999	5.6	LA CANADA,MARACAIBO-LA CHINIT	1487
1323	10.898349999999999	106.89335000000001	5.6	AN LOC,BIEN HOA (VVBH)	1065
1324	12.948500000000001	74.88149999999999	5.6	MANGALORE/BAJPE,MANGALORE/MANGALURU	5531
1325	13.825	100.5835	5.6	BANGKOK METROPOLIS,DON MUANG	59253
1326	14.457650000000001	-11.43665	5.6	KAYES,KAYES/DAG-DAG	28913
1327	15.242	120.475	5.6	CLARK AB,CROW VALLEY GUNNERY	38919
1328	15.45	44.1915	5.6	SANAA,SANA'A (CIV/MIL)	2841
1329	16.775	107.1333	5.6	QUANG TRI,DONG HA	1610
1330	18.375	-67.1333	5.6	MAYAGUEZ,AGUADILLA RAMEY AFB	6815
1331	22.65	88.385	5.6	ALIPORE,BARAKPUR	4067
1332	22.7165	-12.5915	5.6	FORT GOURAUD,ZOUERATE	12816
1333	23.1335	-82.39000000000001	5.6	VILLA SAN CRISTOBAL DE LA HABA,CASA BLANCA	9746
1334	24.3665	118.258	5.6	CHIANGYANG,CHINMEM/SHATOU(AFB)	10508
1335	25.5	28.993499999999994	5.6	DAKHLA,AL-DAKHLA	7513
1336	26.275	127.7165	5.6	NAHA,KADENA AB	69747
1337	26.5257	-80.09970000000001	5.6	BOCA RATON (AAF),WEST PALM BEACH INTL AP	15396
1338	26.608299999999996	-81.78335	5.6	FORT MYERS (PAIGE FIELD),FORT MYERS (BUCKINGHAM AAF)	1286
1339	26.6935	92.80999999999999	5.6	TEZPUR,TEZPUR/BINDUKURI	5178
1340	27.233299999999996	-82.49165	5.6	VENICE (AAF),SARASOTA AAF	2304
1341	27.558349999999997	-81.34984999999999	5.6	SEBRING HENDRICKS FIELD,AVON PARK GUNNERY R	13029
1342	28.351499999999998	28.898500000000002	5.6	BAHARIA,AL-WAHAT AL-BAHRIYA	7028
1343	28.5	-81.31665000000001	5.6	ORLANDO (PINECASTLE AAF),ORLANDO (AAB)	3107
1344	28.80835	-97.01669999999999	5.6	VICTORIA (ALOE AAF),VICTORIA RGNL AP	19942
1345	29.158299999999997	-89.38335	5.6	BURRWOOD,BOOTHVILLE WSCMO CIT	27347
1346	29.511296226415098	-98.38019056603773	5.9	SAN ANTONIO RANDOLPH AFB,SAN ANTONIO FORT SAM HOUSTON,SAN ANTONIO INTL AP	26399
1347	29.70815	-85.19149999999999	5.6	CAPE SAN BLAS SITE D 3,APALACHICOLA MUNI	15037
1348	30.00665	-90.14165	5.6	NEW ORLEANS,NEW ORLEANS (AAB)	24687
1349	30.0179716981132	31.44429245283019	5.9	CAIRO,AL-MINYA,ALMAZA	11488
1350	30.357999999999997	-9.492	5.6	AGADIR AL MASSIRA,AGADIR INEZGANNE	17056
1351	30.5	-86.5	5.6	HURLBURT FIELD (AF),EGLIN AFB RANGE NO.	777
1352	30.64835	-96.51500000000001	5.6	BRYAN,COLLEGE STATION (BRYAN AFB)	2651
1353	30.658299999999997	-88.15	5.6	MOBILE (BROOKLEY AFB),MOBILE	11613
1354	30.93315	-93.19985	5.6	DE RIDDER (AFB),FORT POLK (ARMY)	2376
1355	31.1385	29.866499999999995	5.6	DEKHEILA/AL DAKHELA,ALEXANDRIA/NOUZHA	2862
1356	31.2665	32.26649999999999	5.6	BUR SAID,PORT SAID/EL GAMIL	5607
1357	31.32418867924528	-92.454	5.9	ALEXANDRIA (ESLER FIELD),CLAIBORNE RNG (AFS),ALEXANDRIA	5329
1358	31.589999999999996	-84.10164999999999	5.6	ALBANY,ALBANY TURNER FIELD	1030
1359	31.625149999999998	-97.14185	5.6	WACO RGNL,WACO (JAMES CONNALLY AFB)	11745
1360	31.808300000000003	-106.40835000000001	5.6	EL PASO (FORT BLISS),EL PASO (BIGGS AFB)	2777
1361	32.341499999999996	-84.9165	5.6	FORT BENNING,FORT BENNING LAWSON AAF	8029
1362	32.39165	-86.3	5.6	MONTGOMERY (MAXWELL FIELD),MONTGOMERY (GUNTER FIELD)	5783
1363	32.45	-106.39185000000002	5.6	WHITE SANDS TEST RG,FRYE SITE	8720
1364	32.66665	-83.625	5.6	WARNER ROBINS ROBINS AFB,MACON COCHRAN FIELD	3363
1365	32.791650000000004	13.225	5.6	TRIPOLI INTL ARPT,WHEELUS	36796
1366	33.35	-104.53315	5.6	ROSWELL/INDUSTRIAL,ROSWELL	11787
1367	33.61665000000001	-102.025	5.6	REESE AFB,LUBBOCK/MUNI (TEX)	3650
1368	33.9085	-80.483	5.6	POINSETT RANGE,SHAW AFB/SUMTER	5600
1369	33.99165	-117.24165	5.6	RIVERSIDE (MARCH AFB),SAN BERNARDINO (NORTON AFB)	7710
1370	34.066500000000005	134.6165	5.6	KOMATSUSHIMA AB,TOKUSHIMA AB	5729
1371	34.175	-6.68335	5.6	RABAT,KENITRA PORT LYAUTEY	12678
1372	34.275	108.9315	5.6	SIAN,XIAN	36871
1373	34.632999999999996	32.9	5.6	AKROTIRI,EPISKOPI	21901
1374	34.775	-120.5085	5.6	SOUTH VANDENBERG AF,SANTA MARIA/PUBLIC (CAL)	16004
1375	34.791650000000004	-118.79984999999999	5.6	SANDBURG (AUT),LEBEC	18798
1376	35.1315	139.7515	5.6	TATEYAMA AB,YOKOSUKA	1947
1377	35.3	-117.2665	5.6	CUDDLEBACK GUNNERY,SUPERIOR VALLEY GUN	6790
1378	35.29719433962264	-119.20313584905661	5.9	TAFT (GARDNER FIELD),BAKERSFIELD,BAKERSFIELD (MINTER FIELD)	9417
1379	35.89185	-83.94985	5.6	KNOXVILLE MUNICIPAL,KNOXVILLE (ISLAND AIRPORT)	22111
1380	35.958349999999996	-86.5	5.6	MURFREESBORO,SMYRNA SEWART AFB	6381
1381	36.6665	127.4665	5.6	CHEONGJU,CHEONGJU INTL AIRPO	6428
1382	36.75	-121.50835	5.6	SALINAS (AAB),HOLLISTER	1219
1383	37.51665	-77.37485	5.6	RICHMOND/BYRD FIELD,RICHMOND CITY	17848
1384	37.47428301886792	126.90662264150944	5.9	GIMPO INTL AIRPORT,SV RI SAN,SEOUL AB	23474
1385	37.87738301886793	-122.4594320754717	5.9	SAN RAFAEL (HAMILTON AFB),SAN FRANCISCO,SAN FRANCISCO CRISSY FIELD	6631
1386	38.2	-85.7	5.6	LOUISVILLE,LOUISVILLE (BOWMAN FIELD)	10604
1387	38.25815	-104.56665000000001	5.6	PUEBLO,PUEBLO MEMORIAL(AW)	12762
1388	38.54185	-121.4	5.6	SACRAMENTO/EXECUTIV,SACRAMENTO (MATHER AFB)	14536
1389	38.8335	-104.792	5.6	FORT CARSON/BUTTS,AIR FORCE ACADEMY	10010
1390	38.66634339622642	-90.18632075471699	5.9	ST. LOUIS/LAMBERT,BELLEVILLE SCOTT FIELD,ST LOUIS	36722
1391	38.825	-76.93334999999999	5.6	CAMP SPRINGS (ANDREWS AFB),WASHINGTON (BOLLING FIELD)	3154
1392	38.885000000000005	-98.96834999999999	5.6	RUSSELL,VICTORIA (WALKER AAF)	1573
1393	39.10165000000001	-85.90835	5.6	SEYMOUR FREEMAN FIELD,COLUMBUS	2850
1394	39.075	-96.76685	5.6	MARSHALL FIELD FORT RILEY,FT RILEY/MARSHALL A	4841
1395	39.075	-84.54185	5.6	CINCINNATI/GREATER,CINCINNATI (LUNKEN AIRPORT)	19027
1396	39.741499999999995	-86.25014999999999	5.6	INDIANAPOLIS/I.-MUN,INDIANAPOLIS STOUT FIELD	21052
1397	39.90835	-82.90830000000001	5.6	COLUMBUS LOCKBOURNE AFB,COLUMBUS	20915
1398	39.853975471698114	-75.26382075471697	5.9	CAMDEN,WILMINGTON (NEW CASTLE AAB),PHILADELPHIA INTL	13055
1399	40.20835	-76.80834999999999	5.6	MIDDLETOWN OLMSTED AFB,HARRISBURG	14489
1400	40.541700000000006	-122.35835000000002	5.6	REDDING (AAF),REDDING	18308
1401	40.94275849056604	-78.02580188679245	5.9	KYLERTOWN,PHILIPSBURG,BELLEFONTE	17876
1402	41.15	-111.9917	5.6	OGDEN (HILL AFB),OGDEN	7026
1403	41.7915	-87.675	5.6	CHICAGO/MIDWAY,CHICAGO UNIVERSITY	26196
1404	42.15015	-76.0415	5.6	BINGHAMTON,BINGHAMTON/BROOME C	9283
1405	42.2	42.833000000000006	5.6	SAKARA,KUTAISI	571
1406	42.0062716981132	-72.60374905660377	5.9	CHICOPEE FALLS (WESTOVER AFB),HARTFORD,WINDSOR LOCKS/BRADLEY FIELD	14999
1407	42.33396226415095	-83.20249811320754	5.9	DETROIT,YPSILANTI,DETROIT METRO.	30075
1408	42.41394905660378	-71.16876415094339	5.9	BEDFORD HANSCOM AP,CAMBRIDGE MIT,BOSTON/LOGAN INTL	23246
1409	42.616499999999995	-92.44149999999999	5.6	WATERLOO,WAVERLY	1548
1410	42.91685	-106.40014999999998	5.6	CASPER WYO,CASPER/NATRONA COUN	11626
1411	43.58315	-119.0	5.6	BURNS MUNI (AMOS),BURNS	9056
1412	45.06685	-83.50015	5.6	ALPENA,ALPENA/PHELPS COLLI	9332
1413	45.6	25.558	5.6	PREDEAL,BRASOV-GHIMBAV	1501
1414	47.048350000000006	-122.75	5.6	OLYMPIA MUN I AP,GRAY AAF	5246
1415	47.41004716981132	-122.3169566037736	5.9	SEATTLE (BOEING FIELD),TACOMA (MCCHORD AFB),SEATTLE-TACOMA INTL	37337
1416	48.0415	9.075	5.6	NEUHAUSEN OB ECK,SIGMARINGEN	21411
1417	48.1665	-103.60814999999998	5.6	WILLISTON,WILLISTON/SLOULIN F	6802
1418	48.55835	-109.71685000000002	5.6	HAVRE (AMOS),HAVRE	20908
1419	49.7	7.140000000000001	5.6	BAUMHOLDER (USA-AF),TRIER	1562
1420	50.09647169811321	8.711471698113208	5.9	HANAU,LANGEN,WIESBADEN	10990
1421	53.492000000000004	-113.525	5.6	EDMONTON INTL ARPT,EDMONTON NAMAO ARPT	10372
1422	54.565	-6.15835	5.6	LONG KESH,BELFAST/ALDERGROVE ARPT	52711
1423	55.70015000000001	12.59985	5.6	KOBENHAVN/KASTRUP,JAEGERSBORG	49140
1424	56.408	-2.867	5.6	LEUCHARS,SHANWELL	38226
1425	59.80650000000001	30.383500000000005	5.6	SLUTSK,LENINGRAD/CHOSSEYNOR	440
1426	60.085	11.0565	5.6	KJELLER,OSLO/GARDERMOEN	29414
1427	61.25834999999999	-149.725	5.6	ANCHORAGE ELMENDORF FIELD,FT. RICHARDSON/BRYANT AHP	1195
1428	78.06834999999998	13.92665	5.6	ISFJORD RADIO,BARENTSBURG	31038
1429	21.468944915254237	-157.9627156779661	6.8	WAHIAWA,KAHUKU AAB,BARBERS POINT NAS,HONOLULU HICKAM FIELD,HONOLULU INTL,KANEOHE BAY (MCAF)	42626
1430	33.429075	-112.062525	6.2	CHANDLER (WILLIAMS FIELD),PHOENIX,PHOENIX/SKY HARBOR,PHOENIX (LUKE FIELD)	34782
1431	33.99108432203389	-118.25229025423727	6.8	GLENDALE,BURBANK,CA SANTA ANA/ORANGE COUNTY AAF,LONG BEACH,LOMITA (AAF),LOS ANGELES INTL	45046
1432	36.7259	-116.002875	6.2	INDIAN SPRINGS GUNN,MERCURY DESERT ROCK AP,JACKASS FLATS,YUCCA FLATS TEST 21	40991
1433	40.27	-74.131675	6.2	LAKEHURST,SPRING LAKE BELMAR,FT. MONMOUTH,STATEN ISLAND MILLER FIELD	7316
1434	40.745824999999996	-73.93334999999999	6.2	NEW YORK JFK AP,NEWARK,LA GUARDIA,NEW YORK UNIVERSITY	47934
