	latitude	longitude	radius	station	records
0	-77.9667	-38.8	5.0	GENERAL BELGRANO	1782
1	-69.5	159.4	5.0	LENINGRADSKAJA	2575
2	-62.183	-58.883	5.0	BELLINGSHAUSEN AWS	6342
3	-59.45	-27.267	5.0	CORBETA URUGUAY DN	275
4	-53.8	-67.75	5.0	RIO GRANDE AIRPORT	3267
5	-43.78	172.02	5.0	RAKAIA	12147
6	-43.2333	-65.3	5.0	ALMIRANTE ZAR	1150
7	-42.7167	170.9833	5.0	HOKITIKA AERODROME	26036
8	-42.417	173.7	5.0	KAIKOURA	5055
9	-41.3	174.63	5.0	OUTLOOK HILL	11385
10	-39.0167	174.1833	5.0	NEW PLYMOUTH AERO	31454
11	-38.6667	177.9833	5.0	GISBORNE AERODROME	28600
12	-36.3	174.7	5.0	MT TAMAHUNGA	14698
13	-35.367	-57.283	5.0	PUNTA INDIO B.A.	151
14	-35.1	173.267	5.0	KAITAIA	14537
15	-34.017	22.383	5.0	GEORGE AIRPORT	4491
16	-33.033	27.833	5.0	EAST LONDON	3098
17	-31.6667	128.8667	5.0	EUCLA	12086
18	-31.35	-54.117	5.0	BAGE (AEROPORTO)	1012
19	-28.8	24.767	5.0	KIMBERLEY	9829
20	-28.25	28.3333	5.0	BETHLEHEM AIRPORT	11390
21	-26.5333	18.1167	5.0	KEETMANSHOOP	6019
22	-26.05	22.45	5.0	TSABONG	836
23	-25.783	25.533	5.0	MAFIKENG WO	1154
24	-25.55	45.533	5.0	FAUX-CAP	549
25	-25.2333	-57.5167	5.0	AEROPUERTO SILVIO PETTIROSSI	5464
26	-25.0333	46.95	5.0	TAOLAGNARO	29889
27	-23.8667	29.45	5.0	PIETERSBURG (SAAF)	13740
28	-23.383	43.733	5.0	TOLIARA	5308
29	-23.35	-149.4833	5.0	TUBUAI ISLAND	19527
30	-22.9833	14.65	5.0	WALVIS BAY AIRPORT	1174
31	-22.8	47.833	5.0	FARAFANGANA	2385
32	-22.5667	17.1	5.0	WINDHOEK	12545
33	-22.55	45.4	5.0	RANOHIRA	1639
34	-22.483	17.467	5.0	HOSEA KUTAKO INTL A	7483
35	-22.333	40.333	5.0	ILE EUROPA	7597
36	-22.217	30.0	5.0	BEITBRIDGE	3367
37	-22.0167	-60.6167	5.0	MARISCAL ESTIGARRIBIA	708
38	-21.817	-138.8	5.0	MURUROA	6907
39	-21.75	43.367	5.0	MOROMBE	1328
40	-21.45	47.1	5.0	FIANARANTSOA	1453
41	-21.417	25.6	5.0	LETLHAKANE	693
42	-21.333	55.483	5.0	ST. PIERRE/FONDS	5723
43	-21.233	-175.15	5.0	FUAAMOTU	5436
44	-21.217	27.5	5.0	FRANCISTOWN	613
45	-21.2	48.367	5.0	MANANJARY	4840
46	-21.017	31.583	5.0	BUFFALO RANGE	6492
47	-20.8925	55.5286	5.0	SAINT-DENIS/GILLOT (REUNION)	24745
48	-20.767	167.233	5.0	OUANAHAM	7206
49	-20.7667	-138.55	5.0	TUREIA	271
50	-20.567	164.283	5.0	KOUMAC	11482
51	-20.283	44.317	5.0	MORONDAVA	3268
52	-20.233	169.767	5.0	ANEITYUM	125
53	-20.15	28.617	5.0	BULAWAYO	14661
54	-20.067	30.867	5.0	MASVINGO	8225
55	-19.9061	-144.9494	5.0	HEREHERETUE	7607
56	-19.833	48.8	5.0	MAHANORO	1069
57	-19.783	-47.967	5.0	UBERABA	134
58	-19.683	63.417	5.0	RODRIGUES	10891
59	-19.6	18.117	5.0	GROOTFONTEIN	4094
60	-19.45	29.85	5.0	GWERU	5186
61	-18.633	26.85	5.0	HWANGE NATIONAL PAR	2189
62	-18.533	32.15	5.0	RUSAPE	2604
63	-18.317	29.883	5.0	KADOMA	1432
64	-18.3167	-59.7667	5.0	ROBORE	144
65	-18.217	28.933	5.0	GOKWE	1693
66	-18.1	25.85	5.0	VICTORIA FALLS	6409
67	-18.067	-140.95	5.0	HAO	18186
68	-17.7333	-39.25	5.0	CARAVELAS	5524
69	-17.7333	139.5333	5.0	BURKETOWN	145
70	-17.7	168.3	5.0	BAUERFIELD (EFATE)	7305
71	-17.417	32.217	5.0	MUTOKO	4155
72	-17.3167	123.6333	5.0	DERBY	7081
73	-17.083	49.817	5.0	SAINTE-MARIE AERODR	681
74	-17.05	42.717	5.0	ILE JUAN DE NOVA	5730
75	-16.833	29.617	5.0	KAROI	4958
76	-16.517	28.883	5.0	KARIBA	2203
77	-16.45	-151.75	5.0	BORA-BORA	11160
78	-16.45	59.617	5.0	ST. BRANDON	5725
79	-16.333	-71.567	5.0	AREQUIPA	3138
80	-15.8878	54.5206	5.0	SERGE-FROLOW (ILE TROMELIN)	20680
81	-15.6667	46.35	5.0	MAHAJANGA	36011
82	-15.6	-56.1	5.0	CUIABA	443
83	-15.517	167.217	5.0	PEKOA AIRPORT	661
84	-15.1	39.283	5.0	NAMPULA	4237
85	-15.0	50.333	5.0	ANTALAHA	4654
86	-14.95	-147.659	5.0	RANGIROA	5720
87	-14.95	-40.883	5.0	VITORIA DA CONQUIST	123
88	-14.933	13.567	5.0	LUBANGO	236
89	-14.633	47.767	5.0	ANALALAVA	1607
90	-14.4833	-145.0333	5.0	TAKAROA ATOLL	17249
91	-14.283	50.167	5.0	SAMBAVA	2763
92	-13.8	-171.783	5.0	APIA	10496
93	-13.783	33.767	5.0	LILONGWE INTL AIRPO	7888
94	-13.75	34.583	5.0	SALIMA	2342
95	-13.733	-76.217	5.0	PISCO	1501
96	-13.367	50.0	5.0	VOHEMAR	807
97	-13.317	48.317	5.0	FASCENE (NOSSI-BE)	786
98	-13.2667	-43.4167	5.0	BOM JESUS DA LAPA	6605
99	-13.0167	-38.5167	5.0	SALVADOR	7952
100	-12.8	45.2833	5.0	DZAOUDZI/PAMANZI	15117
101	-12.5	177.05	5.0	ROTUMA	6835
102	-12.35	49.3	5.0	ANTSIRANANA	8157
103	-12.15	-77.0	5.0	LAS PALMAS	389
104	-12.15	-45.0	5.0	BARREIRAS	1194
105	-12.117	44.433	5.0	OUANI (ANJOUAN)	3271
106	-11.7	43.233	5.0	MORONI AIRPORT	5231
107	-11.583	47.283	5.0	ILES GLORIEUSES	7379
108	-11.3	-41.867	5.0	IRECE	347
109	-11.0333	-68.7833	5.0	COBIJA	222
110	-10.917	-37.05	5.0	ARACAJU	417
111	-10.7	-48.4	5.0	PORTO NACIONAL	1005
112	-10.7	152.833	5.0	MISIMA ISLAND	2055
113	-10.7	165.8	5.0	SANTA CRUZ ISLAND	151
114	-10.433	56.75	5.0	AGALEGA	2514
115	-9.95	33.883	5.0	KARONGA	2595
116	-9.517	-35.783	5.0	MACEIO (AEROPORTO)	133
117	-9.3833	-40.4833	5.0	PETROLINA	9393
118	-9.35	46.533	5.0	ALDABRA	143
119	-9.333	-54.967	5.0	CACHIMBO AERO	2176
120	-9.2	124.367	5.0	OE-CUSSIE	498
121	-9.1	-44.117	5.0	BOM JESUS	376
122	-9.0	-158.05	5.0	PENRHYN	8316
123	-8.933	33.467	5.0	MBEYA	767
124	-8.55	126.567	5.0	KOMORO	6384
125	-8.367	-74.567	5.0	PUCALLPA	328
126	-7.967	112.7	5.0	MALANG/ABDUL (AFB)	586
127	-7.783	110.433	5.0	ADISUCIPTO/JOGYAKAR	3047
128	-7.633	35.767	5.0	IRINGA	677
129	-7.617	111.517	5.0	MADIUN/ISWAHYUD AFB	3443
130	-7.5167	110.75	5.0	SURAKARTA/ADISUMARM	3567
131	-7.3333	-47.4667	5.0	CAROLINA	5666
132	-7.333	108.25	5.0	CIBEUREM/TASIK(AFB)	625
133	-7.317	-39.3	5.0	BARBALHA	334
134	-7.017	-37.267	5.0	PATOS	137
135	-6.833	37.65	5.0	MOROGORO	142
136	-6.783	-79.817	5.0	CHICLAYO	1504
137	-6.7667	-43.0167	5.0	FLORIANO	7626
138	-6.55	107.667	5.0	KALIJATI	1040
139	-6.267	-57.733	5.0	JACAREACANGA	287
140	-6.167	35.767	5.0	DODOMA	1096
141	-5.5	-45.267	5.0	BARRA DO CORDA	161
142	-5.2	-39.3	5.0	QUIXERAMOBIM	334
143	-5.083	32.833	5.0	TABORA AIRPORT	1062
144	-5.083	39.067	5.0	TANGA	776
145	-5.05	-42.817	5.0	TERESINA	313
146	-4.883	29.667	5.0	KIGOMA	112
147	-4.883	38.283	5.0	MOMBO	113
148	-4.567	-81.233	5.0	TALARA	1823
149	-4.45	105.183	5.0	MENGGALA/ASTRA KSET	181
150	-4.367	15.25	5.0	KINSHASA/BINZA	383
151	-4.1	122.433	5.0	KENDARI/WOLTER MONG	1064
152	-4.033	39.617	5.0	MOMBASA	3673
153	-3.7667	-38.6	5.0	FORTALEZA	9728
154	-3.417	37.067	5.0	KILIMANJARO AIRPORT	696
155	-3.4	38.567	5.0	VOI	4508
156	-3.2944	-60.6283	5.0	MANACAPURU	2770
157	-3.217	40.1	5.0	MALINDI	1769
158	-3.083	-41.783	5.0	PARNAIBA	665
159	-2.533	14.767	5.0	DJAMBALA	1376
160	-2.467	32.917	5.0	MWANZA	383
161	-2.283	37.833	5.0	MAKINDU	5723
162	-1.133	35.833	5.0	NAROK	4802
163	-0.617	30.65	5.0	MBARARA	114
164	-0.5	37.45	5.0	EMBU	862
165	-0.467	39.633	5.0	GARISSA	7179
166	-0.433	36.967	5.0	NYERI	426
167	-0.367	35.267	5.0	KERICHO	1787
168	-0.267	36.1	5.0	NAKURU	7184
169	0.083	37.65	5.0	MERU	2638
170	0.183	30.1	5.0	KASESE	419
171	0.483	35.3	5.0	ELDORET	1687
172	0.683	34.167	5.0	TORORO	264
173	1.617	18.067	5.0	IMPFONDO	986
174	1.683	31.717	5.0	MASINDI	632
175	1.717	33.617	5.0	SOROTI	112
176	1.85	-78.767	5.0	TUMACO	344
177	2.033	-56.117	5.0	SIPALIWINI	331
178	2.083	11.483	5.0	BITAM	483
179	2.333	37.983	5.0	MARSABIT	1160
180	3.117	35.617	5.0	LODWAR	8644
181	3.367	-57.333	5.0	COEROENI	254
182	3.533	39.05	5.0	MOYALE	3218
183	3.55	-76.3833	5.0	CALI/ALFONSO BONILLA ARAGON	1230
184	3.633	-54.033	5.0	MARIPASOULA	1329
185	3.783	-56.15	5.0	TAFELBERG	228
186	3.85	-159.367	5.0	FANNING ISLAND	103
187	3.883	-51.8	5.0	SAINT GEORGES	2681
188	3.933	41.867	5.0	MANDERA	3516
189	4.1917	73.5292	5.0	MALE	4090
190	4.2167	100.7	5.0	SITIAWAN	52733
191	4.25	15.8	5.0	BERBERATI	2543
192	4.317	21.183	5.0	MOBAYE	150
193	4.35	-54.417	5.0	STOELMANSEILAND	153
194	4.55	-70.917	5.0	LAS GAVIOTAS	3770
195	4.6	-61.1167	5.0	SANTA ELENA DE UAIREN	813
196	4.733	22.833	5.0	BANGASSOU	2199
197	4.883	-1.767	5.0	TAKORADI	135
198	5.45	-55.2	5.0	ZANDERIJ	2383
199	5.5	-54.033	5.0	SAINT-LAURENT	3207
200	5.55	12.367	5.0	YOKO	1316
201	5.6	-0.1667	5.0	ACCRA/KOTOKA INTL	3276
202	5.9	43.583	5.0	GODE	237
203	5.9	118.0667	5.0	SANDAKAN	47253
204	5.917	169.65	5.0	JALUIT ATOLL	130
205	5.95	-57.033	5.0	NICKERIE	382
206	5.967	15.633	5.0	BOUAR	2424
207	6.25	-10.35	5.0	ROBERTS FIELD	1457
208	6.467	7.55	5.0	ENUGU	469
209	6.483	17.433	5.0	BOSSANGOA	3181
210	6.8833	81.8333	5.0	POTTUVIL	151
211	7.233	-70.8	5.0	GUASDUALITO	356
212	7.3	-61.45	5.0	TUMEREMO	451
213	7.383	143.917	5.0	WOLEAI ATOLL	106
214	7.7	28.017	5.0	WAU	717
215	7.9	-67.4167	5.0	SAN FERNANDO DE APURE	1404
216	8.0333	79.8333	5.0	PUTTALAM	6376
217	8.15	-63.55	5.0	CIUDAD BOLIVAR	641
218	8.3333	80.4167	5.0	ANURADHAPURA	612
219	8.4	20.65	5.0	NDELE	2173
220	8.4089	124.6119	5.0	LUMBIA AIRPORT	3518
221	8.617	-13.2	5.0	LUNGI	1194
222	9.25	7.0	5.0	ABUJA	972
223	9.417	-5.617	5.0	KORHOGO	11845
224	9.467	170.25	5.0	WOTJE ATOLL	299
225	9.5	-7.567	5.0	ODIENNE	140
226	9.5	-0.85	5.0	TAMALE	1562
227	9.6	105.967	5.0	BA-XUYEN/SOC TRANG	170
228	9.617	6.533	5.0	MINNA	440
229	9.75	-63.183	5.0	MATURIN	1184
230	9.8	125.5	5.0	SURIGAO	347
231	9.817	-70.933	5.0	MENE GRANDE	780
232	9.983	98.617	5.0	RANONG	194
233	10.067	-69.317	5.0	BARQUISIMETO	741
234	10.117	-64.683	5.0	BARCELONA	1459
235	10.5	107.1667	5.0	BARIA (PHUOC LE)	747
236	10.6	-66.983	5.0	CARACAS/MAIQUETIA A	912
237	10.6667	-63.25	5.0	CARUPANO	159
238	10.717	115.833	5.0	NENSHA ISL	436
239	10.85	121.033	5.0	CUYO	270
240	10.917	-63.967	5.0	PORLAMAR	739
241	11.1167	72.7333	5.0	AMINIDIVI	26613
242	11.5333	-72.9333	5.0	RIOHACHA/ALMIRANTE PADILLA	2967
243	11.55	43.15	5.0	DJIBOUTI	2487
244	11.783	34.383	5.0	DAMAZINE	1808
245	11.85	13.083	5.0	MAIDUGURI	593
246	12.7	28.433	5.0	EN NAHUD	198
247	12.917	74.883	5.0	MANGALORE/BAJPE	2209
248	13.167	32.667	5.0	AROMA	298
249	13.3	-87.1833	5.0	CHOLUTECA	767
250	13.467	7.083	5.0	MARADI	18936
251	13.567	-89.833	5.0	ACAJUTLA	185
252	13.683	44.15	5.0	TAIZ (CIV/MIL)	449
253	13.7	-89.117	5.0	SAN SALVADOR/ILOPAN	689
254	13.85	20.85	5.0	ABECHE	4728
255	13.917	-90.817	5.0	SAN JOSE	1220
256	13.917	100.6	5.0	DON MUANG	780
257	14.0	108.0167	5.0	PLEIKU AB	698
258	14.033	35.4	5.0	GEDAREF	238
259	14.05	-87.25	5.0	TEGUCIGALPA	5493
260	14.067	-83.367	5.0	PUERTO CABEZAS	4028
261	14.117	93.367	5.0	COCO ISLAND	985
262	14.3667	-87.6167	5.0	SOTO CANO AB	298
263	14.4	33.483	5.0	WAD MEDANI	269
264	14.482	-11.44	5.0	KAYES/DAG-DAG	16115
265	14.5333	-90.5667	5.0	GUATEMALA CITY	5620
266	14.6	-61.0	5.0	LAMENTIN AERO	9234
267	14.6833	77.6167	5.0	ANANTAPUR	10993
268	14.75	42.967	5.0	HODEIDAH (CIV/MIL)	542
269	14.8	100.617	5.0	LOP BURI	837
270	14.8	120.267	5.0	SUBIC BAY WEATHER	1333
271	14.9	-23.517	5.0	PRAIA	123
272	15.117	105.783	5.0	PAKSE	590
273	15.117	145.733	5.0	SAIPAN/ISLEY (CGS)	7992
274	15.167	-7.283	5.0	NARA	9645
275	15.283	38.917	5.0	ASMARA	2299
276	15.317	120.383	5.0	CROW VALLEY GUNNERY	3166
277	15.4167	75.6333	5.0	GADAG	12739
278	15.717	-88.6	5.0	PUERTO BARRIOS	639
279	16.1667	-95.1667	5.0	SALINA CRUZ	556
280	16.4	107.6833	5.0	HUE/PHU BAI	508
281	16.433	101.15	5.0	PHETCHABUN	401
282	16.533	80.8	5.0	VIJAYAWADA/GANNAVA	8012
283	16.55	104.65	5.0	SAVANNAKHET	508
284	16.55	111.617	5.0	HOANG SA (PATTLE)	417
285	16.633	-11.4	5.0	KIFFA	4608
286	16.7167	-3.0	5.0	TOMBOUCTOU	28543
287	16.767	94.767	5.0	PATHEIN	2065
288	16.883	42.583	5.0	GIZAN	1629
289	16.9	96.183	5.0	MINGALADON	945
290	17.417	104.783	5.0	NAKHON PHANOM	2528
291	17.9	-62.85	5.0	ST. BARTHELEMY	4048
292	17.95	102.567	5.0	VIENTIANE	2162
293	18.0	19.167	5.0	FAYA	2999
294	18.2167	109.5833	5.0	SANYA	23144
295	18.3	42.8	5.0	KHAMIS MUSHAIT	11138
296	18.433	1.35	5.0	KIDAL	5839
297	18.633	-91.833	5.0	CUIDAD DEL CARMEN	185
298	18.717	-110.95	5.0	ISLA SOCORRO	9477
299	19.0833	82.0333	5.0	JAGDALPUR	26956
300	19.1	108.617	5.0	DONGFANG	6890
301	19.167	30.483	5.0	DONGOLA	1444
302	19.2667	84.8833	5.0	GOPALPUR	9005
303	19.883	102.133	5.0	LUANG-PRABANG	472
304	20.45	121.967	5.0	BASCO	867
305	20.667	58.9	5.0	MASIRAH	514
306	20.7167	116.7167	5.0	DONGSHA (=597920)	9110
307	20.899	-156.43	5.0	KAHULUI ARPT/MAUI	19540
308	21.2	72.8333	5.0	SURAT	2307
309	21.217	110.4	5.0	ZHANJIANG	5208
310	21.3	99.617	5.0	KENGTUNG	231
311	21.3333	0.95	5.0	BORDJ-BADJ-MOKHTAR	231
312	21.433	-157.767	5.0	KANEOHE BAY (MCAF)	1432
313	21.4833	109.1	5.0	BEIHAI	9881
314	21.5167	86.9333	5.0	BALASORE	1408
315	21.9167	84.0833	5.0	JHARSIGUDA	8456
316	22.283	-97.85	5.0	TAMPICO	165
317	22.367	106.75	5.0	LONGZHOU	4011
318	22.45	70.083	5.0	JAMNAGAR	895
319	22.6667	120.45	5.0	PINGTUNG SOUTH(AFB)	11471
320	22.6833	121.5	5.0	LU-TAO	3323
321	22.75	-12.483	5.0	ZOUERATE	2072
322	22.767	81.9	5.0	PENDRA ROAD	5308
323	22.783	115.367	5.0	SHANWEI	2322
324	22.95	120.217	5.0	TAINAN (TW-AFB)	6094
325	23.25	69.8	5.0	BHUJ-RUDRAMATA	12439
326	23.2833	77.35	5.0	BHOPAL/BAIRAGHAR	35992
327	23.3833	87.0833	5.0	BANKURA	1420
328	23.467	120.383	5.0	CHIAYI (TW-AFB)	6409
329	23.8	114.7333	5.0	HEYUAN	2983
330	23.8833	91.25	5.0	AGARTALA	37876
331	23.8833	100.0833	5.0	LINCANG	2076
332	23.9833	121.6	5.0	HUA-LIEN CITY	17027
333	24.067	105.067	5.0	GUANGNAN	5390
334	24.183	120.65	5.0	TAICHUNG (TW-AFB)	4776
335	24.217	23.3	5.0	KUFRA	6321
336	24.267	9.467	5.0	DJANET	6261
337	24.35	109.4	5.0	LIUZHOU	4445
338	24.583	73.7	5.0	UDAIPUR	1174
339	24.7	108.0333	5.0	HECHI	22855
340	24.7667	93.9	5.0	IMPHAL/TULIHAL	19897
341	25.05	-77.4667	5.0	NASSAU AIRPORT NEW PROVIDENCE	14365
342	25.15	75.85	5.0	KOTA AERODROME	1768
343	25.2667	63.4833	5.0	PASNI	119
344	25.3667	97.4	5.0	MYITKYINA	3942
345	25.3833	68.4167	5.0	HYDERABAD	934
346	25.433	105.183	5.0	XINGREN	4750
347	25.433	106.767	5.0	LUODIAN	3236
348	25.5	28.967	5.0	DAKHLA	4922
349	25.517	119.783	5.0	PINGTAN	3181
350	25.533	-103.45	5.0	TORREON AIRPORT	1530
351	25.617	-109.05	5.0	TOPOLOBAMPO	251
352	25.75	71.3833	5.0	BARMER	2587
353	25.8	21.133	5.0	TAZERBO	3989
354	25.85	116.367	5.0	CHANGTING	5057
355	25.967	108.533	5.0	RONGJIANG	2499
356	26.15	119.95	5.0	MAZU (=588490)	4062
357	26.2	36.483	5.0	AL-WEJH	5395
358	26.2	127.683	5.0	NAHA	45567
359	26.2003	32.7467	5.0	SOUTH OF VALLEY UNIVERSITY	4197
360	26.267	50.167	5.0	DHAHRAN	17304
361	26.5	8.417	5.0	ILLIZI	502
362	26.5333	88.7167	5.0	JALPAIGURI	1807
363	26.6667	88.3667	5.0	SILIGURI	19334
364	26.717	92.8	5.0	TEZPUR/BINDUKURI	424
365	26.717	127.783	5.0	IEJIMA AUXILIARY AB	1571
366	26.9667	64.1	5.0	PANJGUR	8843
367	26.983	84.85	5.0	RAXAUL	1140
368	27.0167	14.45	5.0	SEBHA	3998
369	27.117	114.967	5.0	JIAN	4747
370	27.3	105.233	5.0	BIJIE	1335
371	27.333	120.2	5.0	FUDING	4348
372	27.5667	81.6	5.0	BAHRAICH	9170
373	27.65	-81.333	5.0	AVON PARK GUNNERY R	11151
374	27.7	85.367	5.0	KATHMANDU AIRPORT	651
375	27.75	89.167	5.0	PAGRI	5820
376	27.8333	66.6333	5.0	KHUZDAR	1098
377	27.883	-0.283	5.0	ADRAR	22304
378	27.95	108.25	5.0	SINAN	3144
379	28.05	9.633	5.0	IN-AMENAS	12360
380	28.083	30.733	5.0	MINYA	2596
381	28.333	28.867	5.0	BAHARIA	5180
382	28.417	92.467	5.0	LHUNZE	9321
383	28.633	87.083	5.0	TINGRI	4882
384	28.8167	62.75	5.0	NOKKUNDI	1323
385	28.833	108.767	5.0	YOUYANG	169
386	28.883	-118.3	5.0	ISLA GUADALUPE	13025
387	29.033	21.567	5.0	JALO	3469
388	29.033	101.5	5.0	JIULONG	1437
389	29.0333	66.5833	5.0	KALAT	172
390	29.05	111.683	5.0	CHANGDE	4719
391	29.117	15.933	5.0	HON	3794
392	29.217	88.917	5.0	XIGAZE	11663
393	29.2425	47.9714	5.0	KUWAIT INTERNATIONAL AIRPORT	36208
394	29.25	0.283	5.0	TIMIMOUN	9666
395	29.3	117.2	5.0	JINGDEZHEN	5385
396	29.383	113.083	5.0	YUEYANG	4823
397	29.55	34.95	5.0	EILAT	6192
398	29.5667	94.4667	5.0	NYINGCHI	6509
399	29.75	24.533	5.0	GIARABUB	2551
400	29.8833	69.7167	5.0	BARKHAN	1029
401	29.95	73.25	5.0	BAHAWALNAGAR	1115
402	29.967	-95.35	5.0	HOUSTON/INTERCONTIN	1796
403	29.967	99.067	5.0	BATANG	19656
404	30.033	122.117	5.0	DINGHAI	3697
405	30.05	101.967	5.0	KANGDING	3716
406	30.133	-2.167	5.0	BENI-ABBES	7838
407	30.133	9.5	5.0	GHADAMES	5808
408	30.167	35.783	5.0	MAAN	595
409	30.333	-9.417	5.0	AGADIR AL MASSIRA	2971
410	30.3333	76.4667	5.0	PATIALA	23763
411	30.383	13.583	5.0	GARIAT EL-SHARGHIA	688
412	30.433	-86.683	5.0	HURLBURT FIELD (AF)	375
413	30.567	-86.317	5.0	EGLIN AFB RANGE NO.	402
414	30.567	2.867	5.0	EL-GOLEA	31528
415	30.717	20.167	5.0	AGEDABIA	3757
416	30.8	106.083	5.0	NANCHONG	8082
417	30.933	-6.9	5.0	OUARZAZATE	8186
418	30.95	88.633	5.0	XAINZA	12076
419	31.017	46.233	5.0	NASIRIYA	750
420	31.033	-93.033	5.0	FORT POLK (ARMY)	1222
421	31.183	-92.633	5.0	CLAIBORNE RNG (AFS)	3303
422	31.2	16.583	5.0	SIRTE	2738
423	31.233	34.783	5.0	BEER-SHEVA	2318
424	31.283	32.233	5.0	PORT SAID/EL GAMIL	1814
425	31.367	90.017	5.0	BAINGOIN	11427
426	31.367	130.833	5.0	KANOYA AB	464
427	31.417	95.6	5.0	DENGQEN	6863
428	31.5	65.85	5.0	KANDAHAR AIRPORT	5934
429	31.617	-8.033	5.0	MARRAKECH	9944
430	31.683	9.3	5.0	EL BORMA	1728
431	31.8667	34.6833	5.0	ASHDOD NORTH	1453
432	31.867	-81.633	5.0	FORT STEWART RESERV	3618
433	31.867	10.983	5.0	NALUT	2037
434	31.867	93.767	5.0	SOG XIAN	7101
435	31.9	54.2833	5.0	YAZD	1516
436	31.933	-4.4	5.0	ERRACHIDIA	6598
437	31.983	35.983	5.0	AMMAN AIRPORT	1315
438	32.05	72.667	5.0	SARGODHA	19138
439	32.067	108.033	5.0	WANYUAN	3574
440	32.133	114.05	5.0	XINYANG	7884
441	32.2167	-98.1833	5.0	STEPHENVILLE	15234
442	32.283	-9.233	5.0	SAFI	1179
443	32.317	10.4	5.0	REMADA	9738
444	32.35	-94.65	5.0	LONGVIEW WSMO	14445
445	32.367	-6.4	5.0	BENI-MELLAL	2448
446	32.383	3.817	5.0	GHARDAIA	31999
447	32.383	111.667	5.0	GUANGHUA	3239
448	32.417	15.05	5.0	MISURATA	1073
449	32.5	74.5333	5.0	SIALKOT	942
450	32.5	80.067	5.0	SHIQUANHE	10631
451	32.55	35.85	5.0	IRBED	691
452	32.683	-4.733	5.0	MIDELT	2966
453	32.6833	13.1667	5.0	TRIPOLI INTL ARPT	18212
454	32.717	133.017	5.0	SHIMIZU	5015
455	32.8	21.883	5.0	SHAHAT	1530
456	32.883	12.083	5.0	ZUARA	2793
457	32.9	-87.25	5.0	CENTREVILLE WSMO	14447
458	32.917	129.917	5.0	NAGASAKI AIRPORT	506
459	32.933	-112.7	5.0	GILA BEND (AAF)	19204
460	32.967	114.05	5.0	ZHUMADIAN	6626
461	33.033	40.283	5.0	RUTBAH	2392
462	33.15	130.3	5.0	SAGA AIRPORT	499
463	33.2939	126.1628	5.0	GOSAN	21028
464	33.417	36.517	5.0	DAMASCUS INT. AIRPO	10082
465	33.45	-111.95	5.0	WFO PHOENIX	4904
466	33.5	6.783	5.0	EL-OUED	28456
467	33.5333	-0.2833	5.0	MECHERIA	6933
468	33.583	102.967	5.0	RUOERGAI	2991
469	33.6167	73.1	5.0	ISLAMABAD AIRPORT	7050
470	33.683	1.0	5.0	EL-BAYADH	10962
471	33.783	114.517	5.0	XIHUA	6675
472	33.85	-80.483	5.0	POINSETT RANGE	3637
473	33.8667	70.0833	5.0	PARACHINAR	2376
474	33.867	10.767	5.0	DJERBA MELLITA	27692
475	33.883	-5.533	5.0	MEKNES	2167
476	33.95	92.617	5.0	TUOTUOHE	11291
477	34.05	131.05	5.0	OZUKI AB	303
478	34.0803	111.0728	5.0	LUSHI	26483
479	34.217	-4.0	5.0	TAZA	2441
480	34.217	62.217	5.0	HERAT	1107
481	34.3	-103.8	5.0	MELROSE GUNNERY RAN	151
482	34.417	8.817	5.0	GAFSA	20537
483	34.583	105.75	5.0	TIANSHUI	6899
484	34.6	-86.6333	5.0	REDSTONE ARSENAL	2583
485	34.6	138.217	5.0	OMAEZAKI	4148
486	34.6833	3.25	5.0	DJELFA	9814
487	34.717	10.683	5.0	SFAX EL-MAOU	30654
488	34.783	-1.95	5.0	OUJDA	7639
489	34.8	5.733	5.0	BISKRA	19871
490	34.85	119.133	5.0	GANYU	7452
491	34.917	98.217	5.0	MADOI	6085
492	34.933	136.583	5.0	YOKKAICHI	4758
493	34.983	139.833	5.0	TATEYAMA AB	533
494	35.117	36.75	5.0	HAMA	741
495	35.133	-78.933	5.0	FORT BRAGG/SIMMONS	159
496	35.169	128.934	5.0	GIMHAE INTL AIRPORT	5577
497	35.183	-3.85	5.0	AL HOCEIMA	4040
498	35.217	93.083	5.0	WUDAOLIANG	5083
499	35.267	-117.433	5.0	CUDDLEBACK GUNNERY	2651
500	35.281	-116.63	5.0	BICYCLE LAKE (AAF)	1660
501	35.333	-117.1	5.0	SUPERIOR VALLEY GUN	4139
502	35.35	1.467	5.0	TIARET	280
503	35.417	8.117	5.0	TEBESSA	6009
504	35.533	35.767	5.0	LATTAKIA	458
505	35.55	8.683	5.0	THALA	10938
506	35.633	-0.6	5.0	ORAN-SENIA	38241
507	35.667	-75.9	5.0	DARE COUNTY GUNNERY	5845
508	35.667	10.1	5.0	KAIROUAN	22918
509	35.733	-5.9	5.0	TANGER (AERODROME)	389
510	35.75	10.75	5.0	MONASTIR-SKANES	22479
511	35.8	140.017	5.0	SHIMOFUSA AB	467
512	35.9	128.65	5.0	DAEGU AB	5685
513	35.9167	74.3333	5.0	GILGIT	521
514	35.933	39.017	5.0	RAQQA	252
515	35.983	129.417	5.0	POHANG AB	862
516	36.05	114.4	5.0	ANYANG	7228
517	36.183	5.25	5.0	SETIF	5598
518	36.183	118.15	5.0	YIYUAN	6101
519	36.217	1.333	5.0	CHLEF	3213
520	36.283	6.617	5.0	CONSTANTINE	21262
521	36.3	2.233	5.0	MILIANA	14988
522	36.4	139.067	5.0	MAEBASHI	5175
523	36.483	8.8	5.0	JENDOUBA	19808
524	36.533	-115.667	5.0	INDIAN SPRINGS GUNN	335
525	36.617	128.35	5.0	YECHEON AB	5663
526	36.6667	68.9167	5.0	KUNDUZ	4540
527	36.7	67.2	5.0	MAZAR-I-SHARIF	2179
528	36.717	5.067	5.0	BEJAIA-AEROPORT	12372
529	36.767	126.467	5.0	SEOSAN	566
530	36.833	7.817	5.0	ANNABA	30088
531	36.85	11.083	5.0	KELIBIA	18563
532	36.867	30.733	5.0	ANTALYA	1476
533	36.883	6.9	5.0	SKIKDA	639
534	36.8833	-93.9	5.0	MONETT	18071
535	36.95	8.75	5.0	TABARKA	4939
536	37.017	-7.967	5.0	FARO/AEROPORTO	1831
537	37.05	41.217	5.0	KAMISHLI	136
538	37.0667	-88.7667	5.0	PADUCAH BARKLEY FLD	4390
539	37.1	128.8667	5.0	SANGDONG	294
540	37.233	9.817	5.0	BIZERTE	7207
541	37.3167	-121.8667	5.0	SAN JOSE/EMSU	188
542	37.317	97.217	5.0	DELINGHA	10750
543	37.4	122.683	5.0	CHENGSHANTOU	15581
544	37.433	-105.867	5.0	ALAMOSA MUNI(AWOS)	921
545	37.433	127.95	5.0	WONJU AB	6345
546	37.617	120.317	5.0	LONGKOU	8328
547	37.75	128.95	5.0	GANGNEUNG AB	6015
548	37.783	-81.117	5.0	BECKLEY	114
549	37.783	-0.8	5.0	MURCIA/SAN JAVIER	1000
550	37.85	95.367	5.0	DA-QAIDAM	5439
551	37.9025	127.7358	5.0	CHUNCHEON	397
552	37.917	139.05	5.0	NIIGATA	2033
553	37.93	83.65	5.0	ANDIR	14362
554	37.966	124.63	5.0	BAENGNYEONGDO	8261
555	38.0	-71.0	5.0	OCEAN WEATHER SHIP H	3274
556	38.25	90.85	5.0	MANGNAI	15030
557	38.2508	128.5647	5.0	SOKCHO	10880
558	38.283	-104.5	5.0	PUEBLO MEMORIAL(AW)	1430
559	38.373	-81.6	5.0	YEAGER	1619
560	38.417	-113.017	5.0	MILFORD MUNICIPAL	774
561	38.433	77.267	5.0	SHACHE	15714
562	38.7	-104.767	5.0	FORT CARSON/BUTTS	5776
563	38.733	115.483	5.0	BAODING	9153
564	38.817	35.433	5.0	KAYSERI/ERKILET	1942
565	38.967	-104.817	5.0	AIR FORCE ACADEMY	4234
566	39.0833	-28.0333	5.0	GRACIOSA/AERODROME	2173
567	39.1	107.983	5.0	OTOG QI	9443
568	39.2	45.417	5.0	NAXCIVAN	914
569	39.383	111.15	5.0	HEQU	8713
570	39.4333	118.9	5.0	LETING	20578
571	39.45	-74.6667	5.0	ATLANTIC CITY U-A	10118
572	39.5	-76.1667	5.0	ABERDEEN PRVGR	5475
573	39.55	2.617	5.0	PALMA DE MALLORCA	9948
574	39.783	105.75	5.0	JARTAI	9470
575	39.8	78.567	5.0	BACHU	9060
576	39.867	4.233	5.0	MENORCA/MAHON	165
577	39.9333	127.55	5.0	HAMHEUNG	11836
578	39.983	46.75	5.0	KHANKANDY	657
579	40.1	113.333	5.0	DATONG	8658
580	40.2	-8.417	5.0	COIMBRA	458
581	40.217	69.733	5.0	KHUDJAND	382
582	40.267	97.033	5.0	YUMENZHEN	2942
583	40.433	-80.0	5.0	PITTSBURGH/EMSU	544
584	40.55	70.95	5.0	KOKAND	7416
585	40.617	47.15	5.0	EVLAKH AIRPORT	164
586	40.633	87.7	5.0	TIKANLIK	16175
587	40.717	46.417	5.0	GANDJA	818
588	40.75	104.5	5.0	BAYAN MOD	20474
589	40.783	43.833	5.0	GUMRI	147
590	40.7833	114.8833	5.0	ZHANGJIAKOU	23066
591	40.85	35.583	5.0	MERZIFON	1796
592	40.933	78.45	5.0	AKQI	5651
593	40.95	-5.5	5.0	SALAMANCA/MATACAN	173
594	40.967	117.917	5.0	CHENGDE	6676
595	41.233	-8.683	5.0	PORTO/PEDRAS RUBRAS	1615
596	41.25	-76.917	5.0	WILLIAMSPORT/LYCOMI	463
597	41.45	31.8	5.0	ZONGULDAK	304
598	41.45	106.383	5.0	HAILS	4738
599	41.55	46.667	5.0	ZAKATALA	424
600	41.5667	108.5167	5.0	HALIUT	23054
601	41.717	-4.85	5.0	VALLADOLID/VILLANUB	206
602	41.95	21.633	5.0	SKOPJE- AIRPORT	2454
603	42.133	43.033	5.0	SAKARA	126
604	42.2	-1.45	5.0	BARDENAS REALES	4866
605	42.217	-75.983	5.0	BINGHAMTON/BROOME C	109
606	42.267	42.633	5.0	KUTAISI	445
607	42.45	-2.333	5.0	LOGRONO/AGONCILLO	349
608	42.583	-5.65	5.0	LEON/VIRGEN DEL CAM	200
609	42.917	-106.467	5.0	CASPER/NATRONA COUN	1420
610	42.933	89.2	5.0	TURPAN	10824
611	43.0	1.1	5.0	SAINT GIRONS	158
612	43.2	107.167	5.0	HANBOGD	2539
613	43.417	6.75	5.0	SAINT-RAPHAEL	230
614	43.467	-1.533	5.0	BIARRITZ	1055
615	43.483	91.633	5.0	SHISANJIANFANG	15467
616	43.583	-118.95	5.0	BURNS MUNI (AMOS)	1705
617	43.5833	39.7667	5.0	SOCHI	194
618	43.6	118.067	5.0	LINXI	3300
619	43.633	1.367	5.0	TOULOUSE BLAGNAC	1937
620	43.65	7.2	5.0	NICE	437
621	43.683	-1.067	5.0	DAX	328
622	43.75	24.883	5.0	TR. MAGURELE	218
623	43.917	-0.5	5.0	MONT-DE-MARSAN	166
624	43.983	119.4	5.0	LINDONG	4651
625	44.017	89.567	5.0	QITAI	9992
626	44.117	-77.533	5.0	TRENTON ARPT	142
627	44.317	23.867	5.0	CRAIOVA	548
628	44.567	129.6	5.0	MUDANJIANG	4789
629	44.583	4.733	5.0	MONTELIMAR	189
630	44.583	117.6	5.0	XI UJIMQIN QI	8443
631	44.617	82.9	5.0	JINGHE	10505
632	44.617	114.15	5.0	NARAN BULAG	14093
633	44.633	22.633	5.0	DROBETA TURNU SEVER	953
634	45.0464	34.5989	5.0	KRYMSKA	493
635	45.067	-83.567	5.0	ALPENA/PHELPS COLLI	111
636	45.15	26.817	5.0	BUZAU	652
637	45.15	29.667	5.0	SULINA	178
638	45.417	-91.767	5.0	RICE LAKE RGNL CARLS	581
639	45.467	-73.733	5.0	MONTREAL/TRUDEAU INT	17827
640	45.5	28.2	5.0	GALATI	7351
641	45.6	84.85	5.0	KARAMAY	20097
642	45.667	-0.317	5.0	COGNAC	356
643	45.7264	5.0778	5.0	LYON-ST EXUPERY	35372
644	45.767	21.25	5.0	TIMISOARA	862
645	45.767	106.283	5.0	MANDALGOBI	3030
646	45.783	24.083	5.0	SIBIU	813
647	45.817	-73.433	5.0	LASSOMPTION CDA	104
648	45.833	24.933	5.0	FAGARAS	154
649	45.867	1.183	5.0	LIMOGES	190
650	45.867	22.9	5.0	DEVA	887
651	45.95	-77.317	5.0	PETAWAWA	1273
652	46.0	18.233	5.0	PECS/POGANY	127
653	46.0303	12.5992	5.0	AVIANO	1508
654	46.167	21.317	5.0	ARAD	7175
655	46.2667	102.7833	5.0	ARVAIHEER	13261
656	46.374	-117.015	5.0	LEWISTON NEZ PERCE	432
657	46.4	96.25	5.0	ALTAI	14794
658	46.5	121.36	5.0	TE-PO-SU-K/-MIAO	11684
659	46.533	24.533	5.0	TG. MURES	1169
660	46.583	26.983	5.0	BACAU	1500
661	46.767	-56.167	5.0	SAINT-PIERRE	690
662	46.81	85.7489	5.0	HOBOKSAR	26741
663	46.9	-71.483	5.0	VALCARTIER AIRPORT	2371
664	46.9931	15.4392	5.0	GRAZ-THALERHOF-FLUGHAFEN	10698
665	47.033	21.9	5.0	ORADEA	822
666	47.067	2.367	5.0	BOURGES	3475
667	47.15	-1.6	5.0	NANTES	256
668	47.167	27.633	5.0	IASI	1100
669	47.2603	11.3439	5.0	INNSBRUCK-FLUGHAFEN	7542
670	47.267	5.083	5.0	DIJON	234
671	47.267	16.633	5.0	SZOMBATHELY	183
672	47.383	123.917	5.0	QIQIHAR	17927
673	47.45	101.467	5.0	TSETSERLEG	2069
674	47.567	-59.15	5.0	PORT-AUX-BASQUES	2303
675	47.633	26.25	5.0	SUCEAVA	513
676	47.667	23.5	5.0	BAIA MARE	1152
677	47.717	22.883	5.0	SATU MARE	1507
678	47.75	96.85	5.0	ULIASTAI	1923
679	47.8	3.55	5.0	AUXERRE	185
680	48.017	91.567	5.0	HOVD	3097
681	48.0833	114.55	5.0	CHOIBALSAN	11826
682	48.183	-103.633	5.0	WILLISTON/SLOULIN F	460
683	48.2353	14.1881	5.0	LINZ/HOERSCHING-FLUGHAFEN	10855
684	48.55	-109.767	5.0	HAVRE (AMOS)	690
685	48.667	116.817	5.0	XIN BARAG YOUQI	12550
686	48.8	103.55	5.0	BULGAN	2639
687	48.917	106.067	5.0	BARUUNHARAA	2895
688	49.08	16.62	5.0	BRNO REBESOVICE	4516
689	49.2	-123.167	5.0	VANCOUVER INT. AIRP	14056
690	49.3	4.033	5.0	REIMS	179
691	49.383	11.167	5.0	FEUCHT(USA-AF)	1528
692	49.633	-112.8	5.0	LETHBRIDGE AWOS	9936
693	49.65	7.3	5.0	BAUMHOLDER (USA-AF)	1342
694	49.7	11.95	5.0	GRAFENWOEHR	3151
695	49.7167	-124.9	5.0	COMOX A	104
696	49.75	10.2	5.0	KITZINGEN AAF	631
697	49.9031	-98.2842	5.0	PORTAGE SOUTHPORT	554
698	49.9408	-119.4003	5.0	KELOWNA UA	16898
699	50.017	8.667	5.0	LANGEN	349
700	50.133	1.833	5.0	ABBEVILLE	116
701	50.233	-119.283	5.0	VERNON AUTO	15732
702	50.383	-102.683	5.0	BROADVIEW	8722
703	51.083	2.65	5.0	KOKSIJDE	311
704	51.1	-100.05	5.0	DAUPHIN AIRPORT	2648
705	51.13	9.28	5.0	FRITZLAR/KASSELER	21333
706	51.133	-106.583	5.0	ELBOW CS	165
707	51.4	-3.35	5.0	CARDIFF-WALES ARPT	890
708	51.517	-109.183	5.0	KINDERSLEY ARPT	914
709	51.55	12.0667	5.0	OPPIN	3700
710	51.717	126.65	5.0	HUMA	6620
711	51.733	6.267	5.0	KALKAR	3052
712	51.75	-1.583	5.0	BRIZE NORTON	1008
713	52.117	0.967	5.0	WATTISHAM	437
714	52.167	-106.717	5.0	SASKATOON DIEFENBAKE	2309
715	52.167	4.433	5.0	VALKENBURG	583
716	52.267	7.433	5.0	NORDHORN	5346
717	52.4167	-4.0	5.0	CAPEL DEWI	6559
718	52.767	-108.25	5.0	NORTH BATTLEFORD	2182
719	52.8	-2.667	5.0	SHAWBURY	561
720	53.167	-0.517	5.0	WADDINGTON	992
721	53.217	-105.667	5.0	PRINCE ALBERT ARPT	9605
722	53.25	4.917	5.0	VLIELAND	6803
723	53.317	-113.583	5.0	EDMONTON INTL ARPT	4780
724	53.667	-113.467	5.0	EDMONTON NAMAO ARPT	5592
725	53.85	-94.65	5.0	ISLAND LAKE ARPT	4067
726	54.3	-1.533	5.0	LEEMING	777
727	54.417	-110.283	5.0	COLD LAKE	5396
728	55.283	-114.783	5.0	SLAVE LAKE AIRPORT	13183
729	55.317	-3.2	5.0	ESKDALEMUIR	233
730	55.417	-1.6	5.0	BOULMER	13127
731	56.2933	9.1139	5.0	FLYVESTATION KARUP	5675
732	56.5422	3.2236	5.0	EKOFISK	15135
733	56.65	-111.217	5.0	FORT MCMURRAY ARPT	11470
734	57.2	-2.217	5.0	ABERDEEN/DYCE AIRPO	421
735	57.65	-3.567	5.0	KINLOSS	767
736	57.65	18.35	5.0	VISBY AEROLOGISKA STATION	28914
737	58.183	12.15	5.0	TORPABRON	288
738	59.9428	10.7194	5.0	OSLO-BLINDERN	934
739	61.2667	-149.65	5.0	FT. RICHARDSON/BRYANT AHP	972
740	66.567	-145.267	5.0	FORT YUKON	133
741	69.3153	16.1308	5.0	ANDOYA	3633
742	71.317	-156.617	5.0	SANDIA LAB. D	523
743	-24.6085	25.91685	5.6	GABORONE,SERETSE KHAMA INTERNATIONAL AI	6466
744	-17.87515	31.074850000000005	5.6	HARARE (KUTSAGA),HARARE (BELVEDERE)	19508
745	-5.19165	-80.6	5.6	PIURA,PIURA GRUP7	1436
746	-3.7581499999999997	-73.275	5.6	IQUITOS,MORONA	1396
747	3.1085000000000003	101.6	5.6	PETALING JAYA,KUALA LUMPUR SUBANG	34224
748	10.541999999999998	-71.69149999999999	5.6	LA CANADA,MARACAIBO-LA CHINIT	1487
749	15.45	44.1915	5.6	SANAA,SANA'A (CIV/MIL)	2841
750	34.066500000000005	134.6165	5.6	KOMATSUSHIMA AB,TOKUSHIMA AB	5729
751	34.632999999999996	32.9	5.6	AKROTIRI,EPISKOPI	21901
752	36.6665	127.4665	5.6	CHEONGJU,CHEONGJU INTL AIRPO	6428
753	37.39149999999999	127.01700000000001	5.6	SV RI SAN,SEOUL AB	7063
754	45.6	25.558	5.6	PREDEAL,BRASOV-GHIMBAV	1501
755	48.0415	9.075	5.6	NEUHAUSEN OB ECK,SIGMARINGEN	21411
756	49.85	-97.18315	5.6	WINNIPEG UA,WINNIPEG INT.AIRPOR	16919
757	50.3165	-104.68350000000001	5.6	BRATT'S LAKE UA,REGINA INTL	6506
