	latitude	longitude	radius	station	records
0	-80.017	-119.533	5.0	BYRD STN	7679
1	-79.25	-147.5	5.0	LITTLE ROCKFORD	309
2	-78.4	87.583	5.0	SOVIETSKAVA	273
3	-76.2667	-147.5	5.0	LITTLE ROCKFORD	389
4	-72.3	170.2167	5.0	ADARE HALLETT	4373
5	-70.4333	24.3167	5.0	BASE ROI BAUDOUIN	1097
6	-69.73	95.05	5.0	PIONERSKAVA	121
7	-66.27	100.73	5.0	BUNGER OASIS	548
8	-65.25	-64.2667	5.0	FARADAY	10141
9	-63.4667	-56.2833	5.0	PETREL NAS	1654
10	-60.75	-44.7167	5.0	ISLAS ORCADAS (MET)	8699
11	-59.45	-27.267	5.0	CORBETA URUGUAY DN	275
12	-54.8	-68.3167	5.0	USHUAIA	1943
13	-53.8	-67.75	5.0	RIO GRANDE AIRPORT	3267
14	-53.1	73.7167	5.0	HEARD IS.(THESPIT)	2295
15	-51.7	-57.8667	5.0	STANLEY	4603
16	-51.6333	-69.2167	5.0	RIO GALLEGOS B. A.	4526
17	-43.2333	-65.3	5.0	ALMIRANTE ZAR	1150
18	-42.8833	147.3333	5.0	HOBART	1774
19	-42.2	145.05	5.0	GEOGERTOWN	2980
20	-39.467	175.683	5.0	WAIOURU	2309
21	-35.367	-57.283	5.0	PUNTA INDIO B.A.	151
22	-34.58	-58.48	5.0	BUENOS AIRES	107
23	-33.6	115.4667	5.0	LUDLOW	539
24	-32.8833	-68.85	5.0	OBSERV MENDOZA	3075
25	-32.5667	148.95	5.0	WELLINGTON	948
26	-31.35	-54.117	5.0	BAGE (AEROPORTO)	1012
27	-30.5167	151.65	5.0	ARMIDALE	728
28	-30.0833	145.9667	5.0	BOURKE (S23'05'11'17)	130
29	-30.01	131.583	5.0	MARALINGA	7453
30	-28.567	16.533	5.0	KORTDOORN/ALEXANDER	11144
31	-27.65	152.7167	5.0	AMBERLEY	2455
32	-27.55	135.4833	5.0	OODNADATTA	37900
33	-27.4667	-58.9833	5.0	RESISTENCIA	1200
34	-25.733	28.183	5.0	PRETORIA-EENDRACHT	3937
35	-25.55	45.533	5.0	FAUX-CAP	549
36	-24.667	25.917	5.0	GABORONE	695
37	-23.867	35.383	5.0	INHAMBANE	4808
38	-22.8	47.833	5.0	FARAFANGANA	2385
39	-22.483	17.467	5.0	HOSEA KUTAKO INTL A	7483
40	-22.03	-63.68	5.0	YACUIBA	670
41	-21.75	43.367	5.0	MOROMBE	1328
42	-21.6333	115.1167	5.0	ONSLOW	25950
43	-21.333	55.483	5.0	ST. PIERRE/FONDS	5723
44	-20.7667	-138.55	5.0	TUREIA	271
45	-20.6667	140.5	5.0	CLONCURRY	33366
46	-20.233	169.767	5.0	ANEITYUM	125
47	-19.833	48.8	5.0	MAHANORO	1069
48	-19.8	34.9	5.0	BEIRA	8665
49	-19.783	-47.967	5.0	UBERABA	134
50	-19.6	18.117	5.0	GROOTFONTEIN	4094
51	-19.28	121.5	5.0	TALGARNO	297
52	-18.9	47.5333	5.0	TANANARIVE/SCM	4211
53	-17.917	31.133	5.0	HARARE (KUTSAGA)	926
54	-17.883	36.883	5.0	QUELIMANE	2266
55	-17.817	25.817	5.0	LIVINGSTONE	7670
56	-17.75	168.3	5.0	VILA (EFATE)	12954
57	-17.7333	139.5333	5.0	BURKETOWN	145
58	-17.6833	141.0667	5.0	NORMANTON AIRPORT	229
59	-17.38	-66.17	5.0	COCHABAMBA	1502
60	-17.3167	123.6333	5.0	DERBY	7081
61	-17.083	49.817	5.0	SAINTE-MARIE AERODR	681
62	-16.2667	133.3833	5.0	DALY WATERS	20570
63	-16.183	33.583	5.0	TETE	2074
64	-15.517	167.217	5.0	PEKOA AIRPORT	661
65	-15.2167	12.1667	5.0	MOCAMEDES	1595
66	-14.95	-147.659	5.0	RANGIROA	5720
67	-14.95	-40.883	5.0	VITORIA DA CONQUIST	123
68	-14.933	13.567	5.0	LUBANGO	236
69	-14.633	47.767	5.0	ANALALAVA	1607
70	-14.45	-67.53	5.0	RURRENABAQUE	125
71	-14.4167	28.4833	5.0	KABWE	12025
72	-14.3667	-170.7833	5.0	LEONE BAY AMERICAN S	359
73	-14.283	50.167	5.0	SAMBAVA	2763
74	-13.8	-171.783	5.0	APIA	10496
75	-13.76	33.7	5.0	LILONGWE	7210
76	-13.733	-76.217	5.0	PISCO	1501
77	-13.55	32.583	5.0	CHIPATA	140
78	-13.367	50.0	5.0	VOHEMAR	807
79	-13.317	48.317	5.0	FASCENE (NOSSI-BE)	786
80	-13.3	35.233	5.0	LICHINGA	1908
81	-13.0	28.65	5.0	NDOLA	2372
82	-12.983	40.533	5.0	PEMBA	3898
83	-12.8	15.75	5.0	HUAMBO	301
84	-12.5	177.05	5.0	ROTUMA	6835
85	-12.37	13.53	5.0	LOBITO	100
86	-12.15	-45.0	5.0	BARREIRAS	1194
87	-12.117	44.433	5.0	OUANI (ANJOUAN)	3271
88	-11.783	19.917	5.0	LUENA (LUSO)	1995
89	-11.75	24.4333	5.0	MWINLUNGA	2872
90	-11.7	43.233	5.0	MORONI AIRPORT	5231
91	-11.3	-41.867	5.0	IRECE	347
92	-10.917	-37.05	5.0	ARACAJU	417
93	-10.82	-65.37	5.0	GUAYARAMERIN	618
94	-10.7	-48.4	5.0	PORTO NACIONAL	1005
95	-10.45	105.7	5.0	CHRISTMAS ISL (PVT)	3447
96	-9.517	-35.783	5.0	MACEIO (AEROPORTO)	133
97	-9.35	46.533	5.0	ALDABRA	143
98	-9.333	-54.967	5.0	CACHIMBO AERO	2176
99	-9.1	-44.117	5.0	BOM JESUS	376
100	-8.933	33.467	5.0	MBEYA	767
101	-8.55	125.55	5.0	DILLI/DILLI AIRPORT	7176
102	-8.5	126.4	5.0	BAU CAU	555
103	-8.367	-74.567	5.0	PUCALLPA	328
104	-7.633	35.767	5.0	IRINGA	677
105	-7.5167	110.75	5.0	SURAKARTA/ADISUMARM	3567
106	-7.4	20.817	5.0	DUNDO	6240
107	-7.317	-39.3	5.0	BARBALHA	334
108	-7.017	-37.267	5.0	PATOS	137
109	-6.9	107.583	5.0	BANDUNG/HUSEIN	2478
110	-6.833	37.65	5.0	MOROGORO	142
111	-6.783	-79.817	5.0	CHICLAYO	1504
112	-6.733	147.0	5.0	LAE	29138
113	-6.267	-57.733	5.0	JACAREACANGA	287
114	-6.167	35.767	5.0	DODOMA	1096
115	-5.5	-45.267	5.0	BARRA DO CORDA	161
116	-5.2	-39.3	5.0	QUIXERAMOBIM	334
117	-5.083	32.833	5.0	TABORA AIRPORT	1062
118	-5.083	39.067	5.0	TANGA	776
119	-5.05	-42.817	5.0	TERESINA	313
120	-4.883	29.667	5.0	KIGOMA	112
121	-4.883	38.283	5.0	MOMBO	113
122	-4.567	-81.233	5.0	TALARA	1823
123	-4.45	105.183	5.0	MENGGALA/ASTRA KSET	181
124	-4.217	152.183	5.0	RABAUL	27818
125	-4.05	-154.9833	5.0	MALDEN ISLAND AF	274
126	-4.033	39.617	5.0	MOMBASA	3673
127	-3.783	-73.3	5.0	IQUITOS	705
128	-3.417	37.067	5.0	KILIMANJARO AIRPORT	696
129	-3.217	40.1	5.0	MALINDI	1769
130	-3.083	-41.783	5.0	PARNAIBA	665
131	-2.533	14.767	5.0	DJAMBALA	1376
132	-2.467	32.917	5.0	MWANZA	383
133	-2.2	-81.0	5.0	CHINCHIPE	601
134	-1.333	31.817	5.0	BUKOBA	1433
135	-0.617	30.65	5.0	MBARARA	114
136	0.183	30.1	5.0	KASESE	419
137	0.383	6.717	5.0	S. TOME	5381
138	0.683	34.167	5.0	TORORO	264
139	1.083	154.767	5.0	KAPINGAMARANGI ATOL	487
140	1.617	18.067	5.0	IMPFONDO	986
141	1.683	31.717	5.0	MASINDI	632
142	1.717	33.617	5.0	SOROTI	112
143	1.75	40.067	5.0	WAJIR	3181
144	1.85	-78.767	5.0	TUMACO	344
145	2.033	-56.117	5.0	SIPALIWINI	331
146	2.083	11.483	5.0	BITAM	483
147	3.367	-57.333	5.0	COEROENI	254
148	3.783	-56.15	5.0	TAFELBERG	228
149	3.85	-159.367	5.0	FANNING ISLAND	103
150	3.933	41.867	5.0	MANDERA	3516
151	4.35	-54.417	5.0	STOELMANSEILAND	153
152	4.867	31.6	5.0	JUBA	1813
153	4.883	-1.767	5.0	TAKORADI	135
154	5.3333	163.0167	5.0	KUSAIE/CAROLINES	1652
155	5.45	-55.2	5.0	ZANDERIJ	2383
156	5.467	100.383	5.0	BUTTERWORTH AB	24729
157	5.55	12.367	5.0	YOKO	1316
158	5.8833	-162.05	5.0	PALMYRA ISLAND	631
159	5.9	43.583	5.0	GODE	237
160	5.917	169.65	5.0	JALUIT ATOLL	130
161	5.95	-57.033	5.0	NICKERIE	382
162	6.25	-10.35	5.0	ROBERTS FIELD	1457
163	6.467	7.55	5.0	ENUGU	469
164	6.583	3.333	5.0	LAGOS/IKEJA	3244
165	6.9	122.067	5.0	ZAMBOANGA	4876
166	7.233	-70.8	5.0	GUASDUALITO	356
167	7.3	-61.45	5.0	TUMEREMO	451
168	7.383	143.917	5.0	WOLEAI ATOLL	106
169	7.7	28.017	5.0	WAU	717
170	8.28	73.05	5.0	MALIKU	574
171	8.4	20.65	5.0	NDELE	2173
172	8.617	-13.2	5.0	LUNGI	1194
173	8.8667	2.6	5.0	TCHAOUROU	6364
174	8.983	1.15	5.0	SOKODE	5401
175	9.15	92.81	5.0	CAR NICOBAR	1627
176	9.467	170.25	5.0	WOTJE ATOLL	299
177	9.5	-7.567	5.0	ODIENNE	140
178	9.55	31.65	5.0	MALKAL	4130
179	9.6	105.967	5.0	BA-XUYEN/SOC TRANG	170
180	9.617	6.533	5.0	MINNA	440
181	9.75	-63.183	5.0	MATURIN	1184
182	9.8	125.5	5.0	SURIGAO	347
183	9.817	-70.933	5.0	MENE GRANDE	780
184	9.983	98.617	5.0	RANONG	194
185	10.067	-69.317	5.0	BARQUISIMETO	741
186	10.117	-64.683	5.0	BARCELONA	1459
187	10.333	123.9	5.0	LAHUG	2175
188	10.3667	-12.0833	5.0	MAMOU	2746
189	10.3833	-9.3	5.0	KANKAN	11475
190	10.6	-66.983	5.0	CARACAS/MAIQUETIA A	912
191	10.6833	-61.6167	5.0	TRINIDAD BWI	10395
192	10.85	121.033	5.0	CUYO	270
193	10.917	-63.967	5.0	PORLAMAR	739
194	11.233	169.85	5.0	UTIRIK ATOLL M.ISL	577
195	11.3	167.48	5.0	RONGERIK	145
196	11.3167	-12.3	5.0	LABE	3485
197	11.35	162.35	5.0	ENEWETAK	16361
198	11.52	165.55	5.0	BIKINI	294
199	11.85	13.083	5.0	MAIDUGURI	593
200	11.87	-15.5	5.0	BISSAU	2569
201	12.633	-8.033	5.0	BAMAKO	18540
202	12.7	28.433	5.0	EN NAHUD	198
203	13.0667	-9.4833	5.0	KITA	4283
204	13.167	32.667	5.0	AROMA	298
205	13.3	-87.1833	5.0	CHOLUTECA	767
206	13.433	-6.283	5.0	SEGOU	22146
207	13.483	22.45	5.0	GENINA	1058
208	13.567	-89.833	5.0	ACAJUTLA	185
209	13.683	44.15	5.0	TAIZ (CIV/MIL)	449
210	13.7	-89.117	5.0	SAN SALVADOR/ILOPAN	689
211	13.75	-60.98	5.0	VIEUX FORT	815
212	13.85	20.85	5.0	ABECHE	4728
213	13.917	-90.817	5.0	SAN JOSE	1220
214	13.917	100.6	5.0	DON MUANG	780
215	14.033	35.4	5.0	GEDAREF	238
216	14.067	-83.367	5.0	PUERTO CABEZAS	4028
217	14.117	93.367	5.0	COCO ISLAND	985
218	14.4	33.483	5.0	WAD MEDANI	269
219	14.4333	-11.4333	5.0	KAYES	12798
220	14.5	-4.2	5.0	MOPTI-SEVARE	11065
221	14.5333	-90.5667	5.0	GUATEMALA CITY	5620
222	14.75	42.967	5.0	HODEIDAH (CIV/MIL)	542
223	14.8	-17.0667	5.0	THIES	3844
224	14.8	100.617	5.0	LOP BURI	837
225	15.117	105.783	5.0	PAKSE	590
226	15.15	76.95	5.0	BELLARY	989
227	15.317	120.383	5.0	CROW VALLEY GUNNERY	3166
228	15.4167	108.7	5.0	CHU LAI	822
229	15.517	44.183	5.0	SANA'A (CIV/MIL)	2290
230	15.58	32.55	5.0	AL-KHARTUM	3020
231	15.717	-88.6	5.0	PUERTO BARRIOS	639
232	16.433	101.15	5.0	PHETCHABUN	401
233	16.533	80.8	5.0	VIJAYAWADA/GANNAVA	8012
234	16.55	104.65	5.0	SAVANNAKHET	508
235	16.55	111.617	5.0	HOANG SA (PATTLE)	417
236	16.7333	-169.5167	5.0	JOHNSTON IS WSO AP	27741
237	16.7333	-9.6333	5.0	AIOUN ELATROUSS	4231
238	16.883	42.583	5.0	GIZAN	1629
239	16.9	96.183	5.0	MINGALADON	945
240	17.4	-83.9333	5.0	SWAN ISLAND	22712
241	17.417	104.783	5.0	NAKHON PHANOM	2528
242	17.68	83.35	5.0	WALTAIR	3498
243	17.7	-64.8	5.0	ST CROIX (BENEDICT FIELD)	346
244	17.7	33.967	5.0	ATBARA	361
245	17.95	102.567	5.0	VIENTIANE	2162
246	18.0	19.167	5.0	FAYA	2999
247	18.0167	-66.5	5.0	PONCE LOSEY FIELD	4773
248	18.55	31.85	5.0	KARIMA	2435
249	18.9	72.82	5.0	COLABA	973
250	18.9167	-155.6833	5.0	MORSE FIELD	492
251	19.05	-69.3833	5.0	SABANA DE LA MAR	4059
252	19.1	108.617	5.0	DONGFANG	6890
253	19.883	102.133	5.0	LUANG-PRABANG	472
254	20.133	92.883	5.0	SITTWE	9125
255	20.45	121.967	5.0	BASCO	867
256	20.48	85.87	5.0	CUTTACK	318
257	20.517	-13.067	5.0	ATAR	22233
258	20.57	74.53	5.0	MALEGAON	2563
259	20.667	58.9	5.0	MASIRAH	514
260	21.15	-157.1	5.0	MOLOKAI HOMESTEAD FIELD	1921
261	21.217	110.4	5.0	ZHANJIANG	5208
262	21.3	99.617	5.0	KENGTUNG	231
263	21.45	-71.15	5.0	TURKS ISLAND	10548
264	21.47	83.98	5.0	SAMBALPUR	4315
265	21.817	31.35	5.0	WADI HALFA	3487
266	22.0	120.75	5.0	467590	4646
267	22.0333	-159.7833	5.0	BARKING SANDS	5267
268	22.25	91.82	5.0	CHATTAGRAM	1629
269	22.367	106.75	5.0	LONGZHOU	4011
270	22.37	-73.03	5.0	MAYAGUAN	1160
271	22.45	70.083	5.0	JAMNAGAR	895
272	22.5	103.95	5.0	HEKOU	13535
273	22.683	-12.7	5.0	FORT GOURAUD	10744
274	22.783	115.367	5.0	SHANWEI	2322
275	23.1	-82.43	5.0	VILLA SAN CRISTOBAL DE LA HABA	882
276	23.28	69.67	5.0	BHUJ	1679
277	23.6	58.55	5.0	BAIT AL FALAJ	4268
278	23.62	90.05	5.0	DACCA	3646
279	23.73	-99.11	5.0	CIUDAD VICTORIA	1366
280	23.8167	5.15	5.0	IN AMGUEL	144
281	23.8833	100.0833	5.0	LINCANG	2076
282	24.067	105.067	5.0	GUANGNAN	5390
283	24.217	23.3	5.0	KUFRA	6321
284	24.267	9.467	5.0	DJANET	6261
285	24.3	118.083	5.0	CHIANGYANG	188
286	24.35	109.4	5.0	LIUZHOU	4445
287	24.83	92.85	5.0	SILCHAR	1477
288	24.8333	113.5	5.0	CHU CHIANG	1393
289	25.0167	102.8333	5.0	KAN-HAI-TZU	598
290	25.067	121.233	5.0	TAOYUAN AB	13298
291	25.13	62.32	5.0	GWADAR	4276
292	25.233	-11.617	5.0	BIR MOGHREIN	5175
293	25.25	55.37	5.0	SHARJAH	2477
294	25.2667	-76.3	5.0	ELEUTHERA ISLAND	6389
295	25.433	105.183	5.0	XINGREN	4750
296	25.433	106.767	5.0	LUODIAN	3236
297	25.5	29.02	5.0	AL-DAKHLA	2591
298	25.517	119.783	5.0	PINGTAN	3181
299	25.5667	91.8833	5.0	SHILLONG S06 03Z	280
300	25.667	32.7	5.0	LUXOR	7013
301	25.77	87.52	5.0	PURNEA	179
302	25.8	21.133	5.0	TAZERBO	3989
303	25.85	116.367	5.0	CHANGTING	5057
304	25.88	89.43	5.0	LALMANIR HAT	407
305	25.9	-81.7167	5.0	DELTA SEVEN	436
306	25.967	108.533	5.0	RONGJIANG	2499
307	26.2	36.483	5.0	AL-WEJH	5395
308	26.267	50.617	5.0	BAHRAIN/MUHARRAQ	18609
309	26.3667	-80.1	5.0	BOCA RATON (AAF)	1394
310	26.4	-98.35	5.0	MISSION (MOORE FIELD)	2133
311	26.45	74.73	5.0	AJMER	3098
312	26.5	8.417	5.0	ILLIZI	502
313	26.6167	-78.3667	5.0	GOLD ROCK CREEK	13583
314	26.9667	1.0833	5.0	AOULEF	3606
315	26.983	84.85	5.0	RAXAUL	1140
316	27.05	88.3	5.0	DARJEELING	116
317	27.117	114.967	5.0	JIAN	4747
318	27.2	31.12	5.0	ASYUT	4165
319	27.3	105.233	5.0	BIJIE	1335
320	27.333	120.2	5.0	FUDING	4348
321	27.4667	-81.3667	5.0	SEBRING HENDRICKS FIELD	1878
322	27.5333	-99.4833	5.0	LAREDO	5690
323	27.6667	98.3833	5.0	LA WANG/TZUKEI	857
324	27.7	68.92	5.0	SUKKUR	668
325	27.7	85.367	5.0	KATHMANDU AIRPORT	651
326	27.95	-80.5667	5.0	VALKARIA	798
327	27.95	108.25	5.0	SINAN	3144
328	28.05	9.633	5.0	IN-AMENAS	12360
329	28.37	28.93	5.0	AL-WAHAT AL-BAHRIYA	1848
330	28.45	98.883	5.0	DEQEN	6169
331	28.63	77.2	5.0	NEW DEHLI	2068
332	28.833	108.767	5.0	YOUYANG	169
333	29.0	135.0	5.0	OCEAN WEATHER SHIP T	5347
334	29.033	21.567	5.0	JALO	3469
335	29.033	101.5	5.0	JIULONG	1437
336	29.05	111.683	5.0	CHANGDE	4719
337	29.117	15.933	5.0	HON	3794
338	29.3	117.2	5.0	JINGDEZHEN	5385
339	29.383	113.083	5.0	YUEYANG	4823
340	29.55	34.95	5.0	EILAT	6192
341	29.75	24.533	5.0	GIARABUB	2551
342	30.0	-140.0	5.0	OCEAN WEATHER SHIP N	19180
343	30.033	122.117	5.0	DINGHAI	3697
344	30.05	-102.2167	5.0	DRYDEN AAF	854
345	30.05	101.967	5.0	KANGDING	3716
346	30.133	-2.167	5.0	BENI-ABBES	7838
347	30.167	35.783	5.0	MAAN	595
348	30.2	-97.6667	5.0	AUSTIN (BERGSTROM FIELD)	1076
349	30.35	-87.3167	5.0	PENSACOLA FOREST SHERMAN NAS	3463
350	30.3667	-104.0167	5.0	MARFA MUNI (AMOS)	5463
351	30.383	13.583	5.0	GARIAT EL-SHARGHIA	688
352	30.483	140.3	5.0	TORISHIMA	6556
353	30.517	47.783	5.0	BASRAH-HUSSEN	2290
354	30.5333	-91.15	5.0	BATON ROUGE (HARDING FIELD)	1485
355	30.567	-86.317	5.0	EGLIN AFB RANGE NO.	402
356	30.717	20.167	5.0	AGEDABIA	3757
357	30.8	106.083	5.0	NANCHONG	8082
358	30.933	-6.9	5.0	OUARZAZATE	8186
359	31.017	46.233	5.0	NASIRIYA	750
360	31.08	77.18	5.0	SHIMLA	728
361	31.233	34.783	5.0	BEER-SHEVA	2318
362	31.25	32.3	5.0	BUR SAID	3793
363	31.2667	-89.25	5.0	HATTIESBURG	1210
364	31.35	69.467	5.0	ZHOB	8789
365	31.367	130.833	5.0	KANOYA AB	464
366	31.4167	-100.4	5.0	MATHIS FLD/S.ANGELO	2501
367	31.4667	-109.6167	5.0	DOUGLAS (AAF)	1752
368	31.5167	-103.1333	5.0	PYOTE (AFB)	1395
369	31.62	25.93	5.0	SIDI BARRANI	1563
370	31.62	74.4	5.0	LAHORE	12639
371	31.867	10.983	5.0	NALUT	2037
372	31.867	117.233	5.0	HEFEI	9149
373	31.9	102.233	5.0	BARKAM	6148
374	31.933	34.833	5.0	BEER-YA AQOV TO 401790	2572
375	32.0167	-81.1333	5.0	SAVANNAH HUNTER AFB	1973
376	32.067	108.033	5.0	WANYUAN	3574
377	32.1	23.933	5.0	TOBRUK	7553
378	32.133	114.05	5.0	XINYANG	7884
379	32.1667	-110.8833	5.0	TUCSON (DAVIS-MONTHAN AFB)	236
380	32.2333	-101.5	5.0	BIG SPRING	13868
381	32.25	-107.7167	5.0	DEMING AAF	518
382	32.283	-9.233	5.0	SAFI	1179
383	32.3333	-108.7	5.0	LORDSBURG AAF	1409
384	32.35	-104.25	5.0	CARLSBAD AAF	2356
385	32.35	-88.65	5.0	MERIDIAN (KEY FIELD)	2282
386	32.383	111.667	5.0	GUANGHUA	3239
387	32.4167	-99.6833	5.0	ABILENE MUNI AP	19791
388	32.417	15.05	5.0	MISURATA	1073
389	32.5	-106.4167	5.0	FRYE SITE	155
390	32.5	-93.6667	5.0	SHREVEPORT BARKSDALE AFB	8274
391	32.5167	-92.05	5.0	MONROE (SELMAN FIELD)	2178
392	32.683	-4.733	5.0	MIDELT	2966
393	32.717	133.017	5.0	SHIMIZU	5015
394	32.7333	-117.1667	5.0	SAN DIEGO (LINDBERGH FIELD)	248
395	32.8667	-116.4167	5.0	MOUNT LAGUNA	605
396	32.883	12.083	5.0	ZUARA	2793
397	32.9	13.2833	5.0	WHEELUS	18584
398	32.9167	-80.6333	5.0	WALTERBORO AAF	499
399	32.917	129.917	5.0	NAGASAKI AIRPORT	506
400	33.033	40.283	5.0	RUTBAH	2392
401	33.167	-106.5	5.0	WHITE SANDS MISSILE	1539
402	33.233	126.25	5.0	MOESULPO AB	17945
403	33.37	43.57	5.0	AL HABBANIYAH	5634
404	33.45	-94.0	5.0	TEXARKANA	6925
405	33.4667	-82.0333	5.0	AUGUSTA DANIEL FIELD	2266
406	33.48	-90.98	5.0	GREENVILLE	2188
407	33.5	-90.0833	5.0	GREENWOOD AAF	1164
408	33.567	-86.75	5.0	BIRMINGHAM MUNI	14141
409	33.583	102.967	5.0	RUOERGAI	2991
410	33.6	-114.75	5.0	BLYTHE	2084
411	33.6333	-88.45	5.0	COLUMBUS AAF	401
412	33.65	-84.4167	5.0	ATLANTA	23845
413	33.6833	-78.9333	5.0	MYRTLE BEACH AAF	2003
414	33.7167	-96.6667	5.0	SHERMAN PERRIN FIELD	1179
415	33.783	114.517	5.0	XIHUA	6675
416	33.8	-106.6667	5.0	STALLION SITE	610
417	33.883	-5.533	5.0	MEKNES	2167
418	33.98	-98.5	5.0	WICHITA FALLS	113
419	34.0	134.633	5.0	KOMATSUSHIMA AB	445
420	34.0	164.0	5.0	OCEAN WEATHER SHIP V	12375
421	34.05	131.05	5.0	OZUKI AB	303
422	34.15	132.22	5.0	IWAKUNI	2734
423	34.217	-4.0	5.0	TAZA	2441
424	34.217	62.217	5.0	HERAT	1107
425	34.25	108.93	5.0	SIAN	196
426	34.3	-97.0167	5.0	ARDMORE AFB	1195
427	34.583	105.75	5.0	TIANSHUI	6899
428	34.6	138.217	5.0	OMAEZAKI	4148
429	34.65	-99.2667	5.0	ALTUS AFB (OKLA)	2675
430	34.6667	-87.3333	5.0	COURTLAND (AAF)	1491
431	34.683	32.817	5.0	EPISKOPI	4391
432	34.6833	3.25	5.0	DJELFA	9814
433	34.85	119.133	5.0	GANYU	7452
434	34.9	-120.45	5.0	SANTA MARIA/PUBLIC (CAL)	9786
435	34.917	98.217	5.0	MADOI	6085
436	34.933	136.583	5.0	YOKKAICHI	4758
437	35.0	-48.0	5.0	OCEAN WEATHER SHIP E	8767
438	35.0333	-85.2	5.0	CHATTANOOGA	8998
439	35.05	-89.9833	5.0	MEMPHIS	23896
440	35.117	36.75	5.0	HAMA	741
441	35.183	-3.85	5.0	AL HOCEIMA	4040
442	35.2	-80.95	5.0	CHARLOTTE MORRIS FIELD	602
443	35.217	93.083	5.0	WUDAOLIANG	5083
444	35.2667	-116.0833	5.0	BAKER	592
445	35.2667	-113.95	5.0	KINGMAN (AAF)	1831
446	35.267	-117.433	5.0	CUDDLEBACK GUNNERY	2651
447	35.3333	-94.3667	5.0	FT SMITH CAMP CHAFFEE	5244
448	35.35	1.467	5.0	TIARET	280
449	35.383	-97.6	5.0	OKLAHOMA CITY/W. RO	55703
450	35.533	35.767	5.0	LATTAKIA	458
451	35.733	-5.9	5.0	TANGER (AERODROME)	389
452	35.8	140.017	5.0	SHIMOFUSA AB	467
453	35.867	-78.783	5.0	RALEIGH/RALEIGH-DUR	9591
454	35.933	39.017	5.0	RAQQA	252
455	35.9667	-116.2667	5.0	SHOSHONE	313
456	35.983	129.417	5.0	POHANG AB	862
457	36.0333	-102.5333	5.0	DALHART	2180
458	36.05	114.4	5.0	ANYANG	7228
459	36.183	118.15	5.0	YIYUAN	6101
460	36.217	1.333	5.0	CHLEF	3213
461	36.3	2.233	5.0	MILIANA	14988
462	36.317	43.15	5.0	MOSUL	884
463	36.333	-97.667	5.0	ENID/VANCE AFB	1147
464	36.4	139.067	5.0	MAEBASHI	5175
465	36.7	119.1167	5.0	WEI HSIEN	254
466	36.75	-104.5	5.0	RATON	5905
467	36.77	3.05	5.0	ALGER	2691
468	36.867	30.733	5.0	ANTALYA	1476
469	36.883	6.9	5.0	SKIKDA	639
470	37.017	-7.967	5.0	FARO/AEROPORTO	1831
471	37.05	41.217	5.0	KAMISHLI	136
472	37.1	-113.6	5.0	ST. GEORGE	591
473	37.3333	-79.2	5.0	LYNCHBURG	4148
474	37.3667	-120.5667	5.0	CASTLE AFB	3294
475	37.367	-118.367	5.0	BISHOP AIRPORT	1144
476	37.433	-105.867	5.0	ALAMOSA MUNI(AWOS)	921
477	37.47	15.07	5.0	CATANIA	912
478	37.4833	116.3667	5.0	TE HSIEN/TECHOW	498
479	37.617	120.317	5.0	LONGKOU	8328
480	37.65	-97.433	5.0	WICHITA/MID-CONTINE	23414
481	37.78	12.45	5.0	MARSALA	112
482	37.783	-81.117	5.0	BECKLEY	114
483	37.783	-0.8	5.0	MURCIA/SAN JAVIER	1000
484	37.8	-113.9	5.0	MODENA	20748
485	37.85	91.65	5.0	MANGYA	1192
486	37.85	95.367	5.0	DA-QAIDAM	5439
487	37.917	139.05	5.0	NIIGATA	2033
488	38.0	-71.0	5.0	OCEAN WEATHER SHIP H	3274
489	38.05	-103.52	5.0	LA JUNTA	164
490	38.05	-87.533	5.0	EVANSVILLE REGIONAL	22434
491	38.0667	-117.0833	5.0	TONAPAH APRT (NEV)	3624
492	38.2	15.55	5.0	MESSINA	5442
493	38.373	-81.6	5.0	YEAGER	1619
494	38.417	-113.017	5.0	MILFORD MUNICIPAL	774
495	38.65	-88.9667	5.0	SALEM LECKRONE AP	15223
496	38.72	-9.15	5.0	LISBOA/GEOFISICO	669
497	38.733	115.483	5.0	BAODING	9153
498	38.7333	-93.5667	5.0	KNOBNOSTER SEDALIA AFB	1436
499	38.7667	-87.6167	5.0	LAWRENCEVILLE GEORGE FIELD	1385
500	38.8	-97.63	5.0	SALINA	3551
501	38.817	-92.217	5.0	COLUMBIA REGIONAL	19320
502	38.817	35.433	5.0	KAYSERI/ERKILET	1942
503	38.8833	-79.85	5.0	ELKINS	10236
504	38.95	-121.07	5.0	AUBURN	133
505	38.95	-95.6667	5.0	TOPEKA (FORBES AFB)	1930
506	39.1	107.983	5.0	OTOG QI	9443
507	39.2	45.417	5.0	NAXCIVAN	914
508	39.283	109.75	5.0	CHASAKOCHI	3515
509	39.367	-101.7	5.0	GOODLAND/RENNER FIE	8448
510	39.383	111.15	5.0	HEQU	8713
511	39.6667	-78.6667	5.0	CUMBERLAND	197
512	39.6667	118.1167	5.0	TANG SHAN	251
513	39.7167	-104.9	5.0	DENVER (LOWRY FIELD)	878
514	39.783	105.75	5.0	JARTAI	9470
515	39.8333	-89.6667	5.0	SPRINGFIELD	11873
516	39.867	4.233	5.0	MENORCA/MAHON	165
517	39.9	-84.2	5.0	DAYTON MCCOOK FIELD	1122
518	39.9	116.47	5.0	PEIPING	701
519	39.983	46.75	5.0	KHANKANDY	657
520	40.1	113.333	5.0	DATONG	8658
521	40.12	-103.17	5.0	AKRON	214
522	40.2	-8.417	5.0	COIMBRA	458
523	40.217	69.733	5.0	KHUDJAND	382
524	40.267	97.033	5.0	YUMENZHEN	2942
525	40.3	-88.15	5.0	RANTOUL	16640
526	40.733	-114.033	5.0	WENDOVER/AF. AUX. F	1089
527	40.783	43.833	5.0	GUMRI	147
528	40.85	35.583	5.0	MERZIFON	1796
529	40.8833	-86.4833	5.0	ROYAL CENTER	8793
530	40.933	78.45	5.0	AKQI	5651
531	40.95	-5.5	5.0	SALAMANCA/MATACAN	173
532	40.967	117.917	5.0	CHENGDE	6676
533	40.97	107.17	5.0	XAMBA	1094
534	41.0	-85.2	5.0	FORT WAYNE/BAER FLD	9534
535	41.1167	122.95	5.0	AN SHAN	362
536	41.15	-104.817	5.0	CHEYENNE/WARREN AFB	25238
537	41.22	-103.1	5.0	SYDNEY	677
538	41.233	-8.683	5.0	PORTO/PEDRAS RUBRAS	1615
539	41.25	-76.917	5.0	WILLIAMSPORT/LYCOMI	463
540	41.3667	-71.4833	5.0	POINT JUDITH	1724
541	41.45	-90.5167	5.0	MOLINE	21497
542	41.45	31.8	5.0	ZONGULDAK	304
543	41.45	106.383	5.0	HAILS	4738
544	41.5	-74.1	5.0	NEWBURGH/STEWART AFB	3104
545	41.533	-93.65	5.0	DES MOINES INTL	11917
546	41.55	46.667	5.0	ZAKATALA	424
547	41.6	-109.0667	5.0	ROCK SPRINGS	20297
548	41.6	-83.8	5.0	TOLEDO EXPRESS	14112
549	41.7	-86.3167	5.0	SOUTH BEND ST JOSEPH	612
550	41.717	-4.85	5.0	VALLADOLID/VILLANUB	206
551	41.75	103.9667	5.0	PANG-TING-TO-TO-KAI	1057
552	41.7833	95.1333	5.0	XING-XING-XIA	122
553	41.8	12.233	5.0	ROMA FIUMICINO	25186
554	42.0833	-91.6167	5.0	CEDAR RAPIDS ECHO SI	1310
555	42.2	-1.45	5.0	BARDENAS REALES	4866
556	42.4	-96.383	5.0	SIOUX CITY MUNI	9727
557	42.4	112.9	5.0	JURH	11935
558	42.45	-2.333	5.0	LOGRONO/AGONCILLO	349
559	42.583	-5.65	5.0	LEON/VIRGEN DEL CAM	200
560	42.5833	-100.0	5.0	AINSWORTH AAF	1523
561	42.7	-68.3	5.0	ENVIRONM BUOY 44005	574
562	42.7333	-84.4833	5.0	EAST LANSING	2781
563	42.9167	-112.5333	5.0	POCATELLO	11754
564	42.95	-87.9	5.0	MILWAUKEE WI AIRPORT	11003
565	43.0	1.1	5.0	SAINT GIRONS	158
566	43.0667	-76.2667	5.0	SYRACUSE	12089
567	43.133	-89.333	5.0	MADISON/DANE COUNTY	12715
568	43.167	-86.25	5.0	MUSKEGON	10171
569	43.2	107.167	5.0	HANBOGD	2539
570	43.23	-75.4	5.0	ROME	8975
571	43.417	6.75	5.0	SAINT-RAPHAEL	230
572	43.517	16.433	5.0	SPLIT/MARJAN	4568
573	43.6	118.067	5.0	LINXI	3300
574	43.633	1.367	5.0	TOULOUSE BLAGNAC	1937
575	43.75	24.883	5.0	TR. MAGURELE	218
576	43.88	-69.93	5.0	BRUNSWICK	965
577	43.917	-0.5	5.0	MONT-DE-MARSAN	166
578	43.9333	-91.2833	5.0	LA CROSSE	9613
579	43.983	119.4	5.0	LINDONG	4651
580	44.0	-41.0	5.0	OCEAN WEATHER SHIP D	9766
581	44.05	43.03	5.0	PJATIGORSK	230
582	44.117	-123.217	5.0	EUGENE/MAHLON SWEET	5856
583	44.2667	-71.3	5.0	MOUNT WASHINGTON	506
584	44.317	23.867	5.0	CRAIOVA	548
585	44.4667	-73.15	5.0	BURLINGTON	29631
586	44.55	50.25	5.0	FORT SHEVCHENKO	1177
587	44.567	129.6	5.0	MUDANJIANG	4789
588	44.583	4.733	5.0	MONTELIMAR	189
589	44.583	117.6	5.0	XI UJIMQIN QI	8443
590	44.62	33.53	5.0	SEWASTOPOL	723
591	44.767	-106.967	5.0	SHERIDAN CO. ARPT	16448
592	44.7833	20.5333	5.0	BEOGRAD/SELENO BRD	8769
593	44.9	110.117	5.0	SAINSHAND	17817
594	44.9333	-93.0667	5.0	ST PAUL	17907
595	45.0	-16.0	5.0	OCEAN WEATHER SHIP K	2558
596	45.5	28.2	5.0	GALATI	7351
597	45.5333	-122.6833	5.0	PORTLAND INTL	27685
598	45.717	4.95	5.0	LYON-BRON	10582
599	45.767	21.25	5.0	TIMISOARA	862
600	45.767	106.283	5.0	MANDALGOBI	3030
601	45.783	24.083	5.0	SIBIU	813
602	45.8	-108.533	5.0	BILLINGS/LOGAN INT.	18423
603	45.867	1.183	5.0	LIMOGES	190
604	45.867	22.9	5.0	DEVA	887
605	45.9667	-112.5	5.0	BUTTE	12098
606	45.9833	-98.5667	5.0	ELLENDALE	8695
607	46.0	18.233	5.0	PECS/POGANY	127
608	46.18	45.35	5.0	YASHKUL	3336
609	46.22	122.05	5.0	ULANHOT	2278
610	46.374	-117.015	5.0	LEWISTON NEZ PERCE	432
611	46.5667	-87.4	5.0	MARQUETTE	8748
612	46.767	-56.167	5.0	SAINT-PIERRE	690
613	46.817	130.333	5.0	CHIAMUSSU	2815
614	46.833	-92.183	5.0	DULUTH INTL AIRPORT	8808
615	46.85	1.7167	5.0	CHATEAUROUX	5082
616	46.85	151.8667	5.0	SIMUSIR	4608
617	46.9	-96.8	5.0	FARGO/HECTOR FIELD	15380
618	46.917	-114.083	5.0	MISSOULA/JOHNSON-BE	15882
619	47.0	-15.0	5.0	WEATHERSHIP K CIRRUS	477
620	47.033	21.9	5.0	ORADEA	822
621	47.15	-1.6	5.0	NANTES	256
622	47.1833	-119.3167	5.0	MOSES LAKE (LARSON AFB)	344
623	47.267	5.083	5.0	DIJON	234
624	47.267	16.633	5.0	SZOMBATHELY	183
625	47.3	-54.0	5.0	ARGENTIA	11299
626	47.45	101.467	5.0	TSETSERLEG	2069
627	47.633	26.25	5.0	SUCEAVA	513
628	47.6667	-117.3333	5.0	SPOKANE (FELTS FIELD)	7917
629	47.667	23.5	5.0	BAIA MARE	1152
630	47.75	96.85	5.0	ULIASTAI	1923
631	47.8	3.55	5.0	AUXERRE	185
632	47.95	-97.4	5.0	GRAND FORKS AFB	517
633	48.017	91.567	5.0	HOVD	3097
634	48.07	5.03	5.0	CHAUMONT	4616
635	48.1333	-123.4167	5.0	PORT ANGELES	3357
636	48.354	11.786	5.0	MUNICH/RIEM	20686
637	48.3833	-124.7333	5.0	TATOOSH ISLAND WB	21960
638	48.65	144.75	5.0	M. TERPENIYA (FL)	7763
639	48.7	-8.9167	5.0	ENVIRONM BUOY 62027	215
640	48.8	103.55	5.0	BULGAN	2639
641	48.85	2.33	5.0	PARIS	270
642	48.917	106.067	5.0	BARUUNHARAA	2895
643	48.95	-97.25	5.0	PEMBINA	2575
644	49.067	20.25	5.0	POPRAD/TATRY	15541
645	49.3	4.033	5.0	REIMS	179
646	49.383	11.167	5.0	FEUCHT(USA-AF)	1528
647	49.6	34.55	5.0	POLTAVA	634
648	49.75	10.2	5.0	KITZINGEN AAF	631
649	50.0	-145.0	5.0	OCEAN WEATHER SHIP P	12221
650	50.1	14.2833	5.0	PRAHA/RUZYNE	8770
651	50.133	1.833	5.0	ABBEVILLE	116
652	50.133	65.233	5.0	AMANGELDY	15887
653	50.28	-64.17	5.0	MINGAN	632
654	50.28	21.43	5.0	MIELEC	738
655	50.383	-102.683	5.0	BROADVIEW	8722
656	51.02	11.03	5.0	ERFURT	465
657	51.1	-100.05	5.0	DAUPHIN AIRPORT	2648
658	51.12	17.03	5.0	WROCLAW	146
659	51.133	-106.583	5.0	ELBOW CS	165
660	51.1333	71.3667	5.0	CELINOGRAD	167
661	51.1833	40.7	5.0	KAMENNAYA STEP NO2	6225
662	51.3833	179.25	5.0	AMCHITKA ISLAND	1908
663	51.717	126.65	5.0	HUMA	6620
664	51.733	6.267	5.0	KALKAR	3052
665	51.85	10.7667	5.0	WERNIGERODE	9806
666	51.9833	177.5667	5.0	KISKA ISLAND	308
667	52.05	29.25	5.0	MOZYR (AMOS)	6912
668	52.18	20.97	5.0	WARSZAWA	1720
669	52.267	7.433	5.0	NORDHORN	5346
670	52.267	104.317	5.0	IRKUTSK	39087
671	52.433	-114.917	5.0	ROCKY MTN HOUSE	1475
672	52.5	-20.0	5.0	OCEAN WEATHER SHIP J	2559
673	52.75	-35.5	5.0	OCEAN WEATHER SHIP C	13900
674	52.8	173.16	5.0	ATTU ISLAND	3463
675	53.05	158.33	5.0	NIKOLAEVKA	127
676	53.2	-70.9	5.0	NITCHEQUON	15444
677	53.317	-113.583	5.0	EDMONTON INTL ARPT	4780
678	53.38	-167.9	5.0	UMNAK ISLAND	2799
679	53.5333	7.8833	5.0	JEVER	872
680	53.58	6.68	5.0	BORKUM	184
681	53.6167	109.6333	5.0	BARGUZIN	6508
682	53.62	9.98	5.0	HAMBURG	1104
683	53.7333	87.1833	5.0	ABAGUR	181
684	53.833	-89.867	5.0	TROUT LAKE	15743
685	53.9	-166.53	5.0	DUTCH HARBOR	2953
686	54.2	16.1833	5.0	KOSZALIN	1537
687	54.62	-113.33	5.0	MEANOOK	101
688	54.65	-6.2167	5.0	BELFAST/ALDERGROVE ARPT	4234
689	55.35	-131.65	5.0	KETCHIKAN	5932
690	55.6333	12.6667	5.0	KOBENHAVN/KASTRUP	8553
691	56.5	-51.0	5.0	OCEAN WEATHER SHIP B	11583
692	56.8	60.6	5.0	SWERDLOWSK	171
693	57.58	39.58	5.0	JAROSLAVL	529
694	58.37	-134.58	5.0	JUNEAU	15260
695	59.0	-19.0	5.0	OCEAN WEATHER SHIP I	2647
696	59.78	21.37	5.0	UTO	674
697	59.97	11.03	5.0	KJELLER	1688
698	60.2	-166.1	5.0	NUNIVAK AAF	100
699	60.38	5.33	5.0	BERGEN	179
700	60.4833	-145.5	5.0	CORDOVA	2276
701	60.57	28.63	5.0	SUUR-MERIJOKI	418
702	60.88	26.97	5.0	UTTI	630
703	61.08	-69.55	5.0	CAPE HOPES ADVANCE STATION	661
704	61.25	-149.8	5.0	ANCHORAGE ELMENDORF FIELD	223
705	61.717	30.717	5.0	SORTAVALA	36442
706	62.0	-33.0	5.0	OCEAN WEATHER SHIP A	7562
707	62.1	42.9	5.0	SENKURSK	255
708	62.1167	-163.75	5.0	MOUNTAIN VILLAGE	147
709	62.85	149.76	5.0	SHTURMOVOY	2661
710	62.97	-141.96	5.0	NORTHWAY	12371
711	63.12	23.08	5.0	KAUHAVA	611
712	63.183	14.5	5.0	OSTERSUND/FROSON	16859
713	63.32	30.5	5.0	LIEKSA	148
714	63.3333	-149.15	5.0	SUMMIT	2843
715	63.43	-51.18	5.0	MARRAK POINT	353
716	63.5	-90.7	5.0	CHESTERFIELD INLET	472
717	63.85	-171.6	5.0	GAMBELL	8490
718	63.9	-160.7833	5.0	UNALAKLEET	1191
719	64.13	-21.9	5.0	REYKJAVIK	270
720	64.22	27.73	5.0	KAJAANI	181
721	64.7167	-156.9	5.0	GALENA	571
722	65.6167	-168.05	5.0	WALES	863
723	65.93	-36.68	5.0	IKATEQ	111
724	66.0	2.0	5.0	OCEAN WEATHER SHIP M	2031
725	66.567	-145.267	5.0	FORT YUKON	133
726	67.0	-50.8	5.0	KANGERLUSSUAK	3155
727	67.47	86.57	5.0	IGARKA	13709
728	67.8167	-115.0833	5.0	COPPERMINE	14703
729	68.23	-135.0	5.0	AKLAVIK	7053
730	68.47	17.5	5.0	NARVIK	128
731	68.65	43.3	5.0	KANIN NOS	4393
732	69.3667	-152.1333	5.0	UMIAT	611
733	69.4	86.17	5.0	DUDINKA	5076
734	69.7	19.02	5.0	TROMSO	3783
735	70.1333	-143.6333	5.0	BARTER ISLAND WSO AP	25677
736	70.42	-21.97	5.0	KAP TOBIN	18381
737	70.45	-68.55	5.0	CLYDE RIVER	13851
738	71.17	-24.4	5.0	OSTSTATION	106
739	72.0	-125.27	5.0	SACHS HARBOUR	22298
740	73.0	-85.3	5.0	ARCTIC BAY (NWT)	7539
741	76.1833	62.5667	5.0	RUSSKAJA GAVAN	246
742	77.23	-62.33	5.0	THULE	119
743	77.72	104.28	5.0	MYS CHELIUSKINA	657
744	78.0667	13.6333	5.0	ISFJORD RADIO	1297
745	78.8	-103.5	5.0	ISACHSEN	21510
746	80.05	18.3	5.0	KINNVIKA STATION	259
747	80.45	52.8	5.0	BUKHTA TIKHAYA/GUKER IS.	4385
748	81.6	-16.67	5.0	NORD	10981
749	-78.37698113207547	-163.10320754716983	5.9	LITTLE AMERICA,LITTLE AMERICA I,LITTLE AMERICA	2784
750	-77.85	-39.95835	5.6	GENERAL BELGRANO,ELLSWORTH IGY	3920
751	-36.9335	174.79000000000002	5.6	AUCKLAND AIRPORT,AUCKLAND	26042
752	-14.989999999999998	40.67	5.6	LUMBO,MOSSURIL	5616
753	-4.375	15.3415	5.6	KINSHASA/NDJILI,KINSHASA/BINZA	1037
754	-0.2	37.0	5.6	NYERI,NANUYKI	3861
755	10.541999999999998	-71.69149999999999	5.6	LA CANADA,MARACAIBO-LA CHINIT	1487
756	10.807311320754717	106.94964716981131	5.9	BIEN HOA (VVBH),BARIA (PHUOC LE),AN LOC	1812
757	12.948500000000001	74.88149999999999	5.6	MANGALORE/BAJPE,MANGALORE/MANGALURU	5531
758	13.983350000000002	108.33335	5.6	AN KHE (VVAK),PLEIKU AB	922
759	15.616499999999998	73.72349999999999	5.6	GOA/DABOLIM AIRPORT,VENGURLA	2023
760	16.68459811320755	107.26820566037736	5.9	DONG HA,HUE/PHU BAI,QUANG TRI	2118
761	18.375	-67.1333	5.6	MAYAGUEZ,AGUADILLA RAMEY AFB	6815
762	22.55075471698113	88.32773584905661	5.9	BARAKPUR,DIAMOND HARBOUR,ALIPORE	5335
763	24.816499999999998	73.78999999999999	5.6	UDAIPUR,KANKROLI/RAJSAMAND	2786
764	26.058299999999996	-97.60835	5.6	BROWNSVILLE (FORT BROWN),HARLINGEN AAF	2478
765	26.533499999999997	127.7665	5.6	KADENA AB,IEJIMA AUXILIARY AB	25751
766	26.608299999999996	-81.78335	5.6	FORT MYERS (PAIGE FIELD),FORT MYERS (BUCKINGHAM AAF)	1286
767	26.6935	92.80999999999999	5.6	TEZPUR,TEZPUR/BINDUKURI	5178
768	27.524196226415096	-82.49558867924529	5.9	TAMPA MACDILL FIELD,VENICE (AAF),SARASOTA AAF	2510
769	28.80835	-97.01669999999999	5.6	VICTORIA (ALOE AAF),VICTORIA RGNL AP	19942
770	28.641509433962266	-81.54464528301887	5.9	LEESBURG (AAF),ORLANDO (PINECASTLE AAF),ORLANDO (AAB)	3240
771	29.158299999999997	-89.38335	5.6	BURRWOOD,BOOTHVILLE WSCMO CIT	27347
772	29.201250943396232	-100.66759433962265	5.9	DEL RIO TEXAS,EAGLE PASS (AAF),BRACKETTVILLE (FORT CLARK)	18583
773	29.875	-85.46665	5.6	CAPE SAN BLAS SITE D 3,PANAMA CITY (TYNDALL FIELD)	3581
774	29.693867924528302	-95.16950566037735	5.9	HOUSTON/INTERCONTIN,GALVESTON (FORT CROCKETT),HOUSTON ELLINGTON AFB	23113
775	30.00665	-90.14165	5.6	NEW ORLEANS,NEW ORLEANS (AAB)	24687
776	30.0179716981132	31.44429245283019	5.9	CAIRO,AL-MINYA,ALMAZA	11488
777	30.38335	-89.25	5.6	NASA MISS. TEST,BILOXI (KEESLER AFB)	3082
778	30.64835	-96.51500000000001	5.6	BRYAN,COLLEGE STATION (BRYAN AFB)	2651
779	30.658299999999997	-88.15	5.6	MOBILE (BROOKLEY AFB),MOBILE	11613
780	30.93315	-93.19985	5.6	DE RIDDER (AFB),FORT POLK (ARMY)	2376
781	31.05	-83.45	5.6	VALDOSTA MOODY AFB,MOULTRIE SPENCE FIELD	3706
782	31.1385	29.866499999999995	5.6	DEKHEILA/AL DAKHELA,ALEXANDRIA/NOUZHA	2862
783	31.100941509433966	-85.16823018867925	5.9	DOTHAN (NAPIER FIELD),MARIANNA (AAF),BAINBRIDGE AAF	3917
784	31.32418867924528	-92.454	5.9	ALEXANDRIA (ESLER FIELD),CLAIBORNE RNG (AFS),ALEXANDRIA	5329
785	31.590400000000002	-96.97910566037736	5.9	WACO RGNL,GROESBECK,WACO (JAMES CONNALLY AFB)	19540
786	31.808300000000003	-106.40835000000001	5.6	EL PASO (FORT BLISS),EL PASO (BIGGS AFB)	2777
787	31.68117924528302	-84.16374905660378	5.9	LEESBURG,ALBANY,ALBANY TURNER FIELD	1965
788	32.26649999999999	35.9165	5.6	AMMAN AIRPORT,IRBED	2006
789	32.341499999999996	-84.9165	5.6	FORT BENNING,FORT BENNING LAWSON AAF	8029
790	32.34165	-90.5583	5.6	JACKSON (AAB),VICKSBURG	4967
791	32.66665	-83.625	5.6	WARNER ROBINS ROBINS AFB,MACON COCHRAN FIELD	3363
792	32.79165	-96.90835	5.6	DALLAS HENSLEY FIELD,DALLAS	18900
793	32.7915	22.232999999999997	5.6	DERNA,SHAHAT	6120
794	33.35	-104.53315	5.6	ROSWELL/INDUSTRIAL,ROSWELL	11787
795	33.61665000000001	-102.025	5.6	REESE AFB,LUBBOCK/MUNI (TEX)	3650
796	33.7333	-116.35835000000002	5.6	THERMAL (AAF),PALM SPRINGS (AAF)	1759
797	34.075	-77.95835	5.6	OAK ISLAND,WILMINGTON (NEW HANOVER AP)	2682
798	33.931603773584904	-80.65039245283019	5.9	SHAW AFB/SUMTER,POINSETT RANGE,COLUMBIA AAB	7611
799	34.175	-6.68335	5.6	RABAT,KENITRA PORT LYAUTEY	12678
800	34.34165	-103.55834999999999	5.6	MELROSE GUNNERY RAN,CLOVIS AAF	2278
801	34.270730188679245	-117.30846603773585	5.9	VICTORVILLE (GEORGE AFB),RIVERSIDE (MARCH AFB),SAN BERNARDINO (NORTON AFB)	11023
802	34.72738301886793	-82.1745283018868	5.9	SPARTANBURG,DUE WEST,GREENVILLE DONALDSON AFB	26800
803	35.1315	139.7515	5.6	TATEYAMA AB,YOKOSUKA	1947
804	35.06107547169812	-79.0947320754717	5.9	POPE AFB,LAURINBURG (MAXTON AAB),FORT BRAGG/SIMMONS	10739
805	35.89185	-83.94985	5.6	KNOXVILLE MUNICIPAL,KNOXVILLE (ISLAND AIRPORT)	22111
806	35.933499999999995	-89.675	5.6	DYERSBURG AAF,BLYTHEVILLE AFB	2196
807	35.81509433962264	-86.43646226415095	5.9	SMYRNA SEWART AFB,TULLAHOMA WILLIAM NORTHERN AAF,MURFREESBORO	6918
808	36.45	5.1585	5.6	SETIF,BEJAIA-AEROPORT	17970
809	36.05030566037736	-95.72028301886793	5.9	TULSA INTL ARPT(AW),MUSKOGEE (HATBOX FIELD/AAF),BROKEN ARROW	19587
810	36.508500000000005	-119.8335	5.6	LEMOORE,FRESNO AIRTERM	25709
811	36.6665	-115.96685	5.6	INDIAN SPRINGS GUNN,JACKASS FLATS	872
812	36.75	-121.50835	5.6	SALINAS (AAB),HOLLISTER	1219
813	37.05405471698113	-76.43271320754718	5.9	NEWPORT NEWS (FORT EUSTIS),NORFOLK/MUNI (VA),HAMPTON LANGLEY FIELD	36537
814	37.4667	-122.125	5.6	SAN JOSE/EMSU,SAN FRANCISCO	1623
815	37.51665	-77.37485	5.6	RICHMOND/BYRD FIELD,RICHMOND CITY	17848
816	37.47428301886792	126.90662264150944	5.9	GIMPO INTL AIRPORT,SV RI SAN,SEOUL AB	23474
817	38.12422075471699	-85.76361698113207	5.9	LOUISVILLE (BOWMAN FIELD),FORT KNOX/GODMAN,LOUISVILLE	16031
818	38.25815	-104.56665000000001	5.6	PUEBLO,PUEBLO MEMORIAL(AW)	12762
819	38.208515094339624	-122.62830188679244	5.9	SANTA ROSA (AAF),SAN FRANCISCO CRISSY FIELD,SAN RAFAEL (HAMILTON AFB)	5409
820	38.23909056603773	-121.3213679245283	5.9	STOCKTON (FIELD),SACRAMENTO/EXECUTIV,SACRAMENTO (MATHER AFB)	15740
821	38.66634339622642	-90.18632075471699	5.9	ST. LOUIS/LAMBERT,BELLEVILLE SCOTT FIELD,ST LOUIS	36722
822	38.883300000000006	-85.6667	5.6	MADISON JEFFERSON PRVGR,SEYMOUR FREEMAN FIELD	2539
823	38.885000000000005	-98.96834999999999	5.6	RUSSELL,VICTORIA (WALKER AAF)	1573
824	39.075	-96.76685	5.6	MARSHALL FIELD FORT RILEY,FT RILEY/MARSHALL A	4841
825	39.075	-84.54185	5.6	CINCINNATI/GREATER,CINCINNATI (LUNKEN AIRPORT)	19027
826	39.24335	-94.75165	5.6	KANSAS CITY,FT. LEAVENWORTH	32196
827	39.41226226415094	-75.89497735849056	5.9	EDGEWOOD,DOVER (AAF),WILMINGTON (NEW CASTLE AAB)	2732
828	39.618716981132074	-86.15416037735848	5.9	INDIANAPOLIS STOUT FIELD,COLUMBUS,INDIANAPOLIS/I.-MUN	22205
829	39.90835	-82.90830000000001	5.6	COLUMBUS LOCKBOURNE AFB,COLUMBUS	20915
830	40.13315	-79.875	5.6	UNIONTOWN BURGESS FIELD,PITTSBURGH/EMSU	1016
831	39.90815	-75.16665	5.6	PHILADELPHIA INTL,CAMDEN	12034
832	40.29087358490566	-76.41134528301886	5.9	READING AAF,MIDDLETOWN OLMSTED AFB,HARRISBURG	15524
833	40.666999999999994	46.783500000000004	5.6	EVLAKH AIRPORT,GANDJA	982
834	41.058350000000004	-72.325	5.6	WESTHAMPTON SUFFOLK COUNTY AAF,FISHERS ISLAND FORT H G WRIGHT	993
835	40.94275849056604	-78.02580188679245	5.9	KYLERTOWN,PHILIPSBURG,BELLEFONTE	17876
836	41.22515	-81.67515	5.6	AKRON,CLEVELAND	26607
837	41.15	-111.9917	5.6	OGDEN (HILL AFB),OGDEN	7026
838	41.325	-96.10835	5.6	FORT OMAHA,DREXEL	4279
839	41.7162641509434	-87.78931698113207	5.9	CHICAGO UNIVERSITY,JOLIET,CHICAGO/MIDWAY	33598
840	41.98335	-103.20829999999998	5.6	SCOTTSBLUFF AAF,ALLIANCE AAF	1598
841	41.72514150943396	-70.16981320754716	5.9	NORTH TRURO,NANTUCKET MEM AP,FALMOUTH OTIS AFB	24582
842	42.2	42.833000000000006	5.6	SAKARA,KUTAISI	571
843	42.0062716981132	-72.60374905660377	5.9	CHICOPEE FALLS (WESTOVER AFB),HARTFORD,WINDSOR LOCKS/BRADLEY FIELD	14999
844	42.616499999999995	-92.44149999999999	5.6	WATERLOO,WAVERLY	1548
845	42.91685	-106.40014999999998	5.6	CASPER WYO,CASPER/NATRONA COUN	11626
846	43.575	-1.3	5.6	BIARRITZ,DAX	1383
847	43.58315	-119.0	5.6	BURNS MUNI (AMOS),BURNS	9056
848	45.17682641509435	-83.16989056603775	5.9	ENVIRONM BUOY 45003,ALPENA,ALPENA/PHELPS COLLI	9906
849	45.6	25.558	5.6	PREDEAL,BRASOV-GHIMBAV	1501
850	45.97485	-118.98335	5.6	PENDLETON MUNICIPAL,PASCO	23100
851	46.800149999999995	-120.52484999999999	5.6	YAKIMA AIRTERM,ELLENSBURG	12346
852	48.285000000000004	7.731649999999999	5.6	FREIBURG,STRASBOURG	2880
853	48.1665	-103.60814999999998	5.6	WILLISTON,WILLISTON/SLOULIN F	6802
854	48.55835	-109.71685000000002	5.6	HAVRE (AMOS),HAVRE	20908
855	49.81792452830188	6.8711320754716985	5.9	BITBURG,BAUMHOLDER (USA-AF),TRIER	5322
856	50.09647169811321	8.711471698113208	5.9	HANAU,LANGEN,WIESBADEN	10990
857	51.05	7.36665	5.6	KOLN/BONN,LUDENSCHEID	2763
858	54.65165	9.375	5.6	EGGEBECK,TARP	3001
859	57.95	11.9665	5.6	GOTEBURG/TORSLANDA,TORPABRON	20845
860	59.80650000000001	30.383500000000005	5.6	SLUTSK,LENINGRAD/CHOSSEYNOR	440
861	60.25834999999999	24.943350000000002	5.6	HELSINKI,HELSINKI/SEUTALA	6010
862	68.225	-166.275	5.6	CAPE THOMPSON,POINT HOPE	525
863	21.458250000000003	-158.0041	6.2	BARBERS POINT NAS,HONOLULU HICKAM FIELD,WAHIAWA,KAHUKU AAB	7822
864	29.474975	-98.44999999999999	6.2	SAN ANTONIO (KELLY FIELD),SAN ANTONIO FORT SAM HOUSTON,SAN ANTONIO INTL AP,SAN ANTONIO RANDOLPH AFB	31337
865	32.38541522559475	-86.36165704675965	6.5	MONTGOMERY DANNELLY FLD,SELMA CRAIG AFB,TUSKEGEE (AAF),MONTGOMERY (MAXWELL FIELD),MONTGOMERY (GUNTER FIELD)	33336
866	33.30415	-111.87085	6.2	COOLIDGE (AAF),CHANDLER (WILLIAMS FIELD),PHOENIX,PHOENIX (LUKE FIELD)	27621
867	35.091830287120594	-118.99432687448729	6.5	SANDBURG (AUT),LEBEC,BAKERSFIELD (MINTER FIELD),TAFT (GARDNER FIELD),BAKERSFIELD	28215
868	38.707499999999996	-76.982425	6.2	DAHLGREN,CAMP SPRINGS (ANDREWS AFB),WASHINGTON (BOLLING FIELD),WASHINGTON/NATIONAL	48299
869	40.254175000000004	-122.204175	6.2	CHICO MUNI,RED BLUFF MUNICIPAL,REDDING (AAF),REDDING	25609
870	42.22925	-76.366575	6.2	BINGHAMTON,ELMIRA,BINGHAMTON/BROOME C,ITHACA	14450
871	42.387499999999996	-83.14582499999999	6.2	YPSILANTI,DETROIT METRO.,DETROIT,MOUNT CLEMENS SELFRIDGE AFB	32890
872	42.53342500000001	-71.2124	6.2	CAMBRIDGE MIT,BOSTON/LOGAN INTL,BEDFORD HANSCOM AP,MANCHESTER (GRENIER FIELD)	24319
873	47.431620762711866	-122.42250805084745	6.8	SEATTLE (BOEING FIELD),EVERETT (PAINE FIELD),OLYMPIA MUN I AP,GRAY AAF,TACOMA (MCCHORD AFB),SEATTLE-TACOMA INTL	42783
874	33.90455	-118.2437125	7.4	CAMP PENDLETON,CA SANTA ANA/ORANGE COUNTY AAF,LOMITA (AAF),LONG BEACH,LOS ANGELES INTL,GLENDALE,OXNARD (FLIGHT STRIP),BURBANK	45427
875	40.54518285705981	-73.9735024322893	7.699999999999999	LAKEHURST,SPRING LAKE BELMAR,NEW YORK JFK AP,NEWARK,HEMPSTEAD MITCHELL AFB,LA GUARDIA,NEW YORK UNIVERSITY,FT. MONMOUTH,STATEN ISLAND MILLER FIELD	61347
