	latitude	longitude	radius	station	records
0	-79.25	-147.5	5.0	LITTLE ROCKFORD	309
1	-77.9667	-38.8	5.0	GENERAL BELGRANO	1782
2	-76.2667	-147.5	5.0	LITTLE ROCKFORD	389
3	-69.5	159.4	5.0	LENINGRADSKAJA	2575
4	-67.667	45.85	5.0	MOLODEZNAJA	13014
5	-63.4667	-56.2833	5.0	PETREL NAS	1654
6	-62.183	-58.883	5.0	BELLINGSHAUSEN AWS	6342
7	-59.45	-27.267	5.0	CORBETA URUGUAY DN	275
8	-53.8	-67.75	5.0	RIO GRANDE AIRPORT	3267
9	-51.6333	-69.2167	5.0	RIO GALLEGOS B. A.	4526
10	-43.78	172.02	5.0	RAKAIA	12147
11	-43.2333	-65.3	5.0	ALMIRANTE ZAR	1150
12	-42.417	173.7	5.0	KAIKOURA	5055
13	-41.3	174.63	5.0	OUTLOOK HILL	11385
14	-39.467	175.683	5.0	WAIOURU	2309
15	-38.7333	-62.1667	5.0	COMANDANTE ESPORA	13733
16	-37.017	174.8	5.0	AUCKLAND AIRPORT	23125
17	-36.3	174.7	5.0	MT TAMAHUNGA	14698
18	-35.367	-57.283	5.0	PUNTA INDIO B.A.	151
19	-35.1	173.267	5.0	KAITAIA	14537
20	-34.017	22.383	5.0	GEORGE AIRPORT	4491
21	-33.033	27.833	5.0	EAST LONDON	3098
22	-32.8833	-68.85	5.0	OBSERV MENDOZA	3075
23	-31.35	-54.117	5.0	BAGE (AEROPORTO)	1012
24	-28.8	24.767	5.0	KIMBERLEY	9829
25	-28.25	28.3333	5.0	BETHLEHEM AIRPORT	11390
26	-26.05	22.45	5.0	TSABONG	836
27	-25.783	25.533	5.0	MAFIKENG WO	1154
28	-25.55	45.533	5.0	FAUX-CAP	549
29	-24.667	25.917	5.0	GABORONE	695
30	-23.8667	29.45	5.0	PIETERSBURG (SAAF)	13740
31	-23.383	43.733	5.0	TOLIARA	5308
32	-23.35	-149.4833	5.0	TUBUAI ISLAND	19527
33	-22.8	47.833	5.0	FARAFANGANA	2385
34	-22.55	45.4	5.0	RANOHIRA	1639
35	-22.483	17.467	5.0	HOSEA KUTAKO INTL A	7483
36	-22.333	40.333	5.0	ILE EUROPA	7597
37	-22.217	30.0	5.0	BEITBRIDGE	3367
38	-22.0167	-60.6167	5.0	MARISCAL ESTIGARRIBIA	708
39	-21.817	-138.8	5.0	MURUROA	6907
40	-21.75	43.367	5.0	MOROMBE	1328
41	-21.45	47.1	5.0	FIANARANTSOA	1453
42	-21.417	25.6	5.0	LETLHAKANE	693
43	-21.333	55.483	5.0	ST. PIERRE/FONDS	5723
44	-21.233	-175.15	5.0	FUAAMOTU	5436
45	-21.217	27.5	5.0	FRANCISTOWN	613
46	-21.2	48.367	5.0	MANANJARY	4840
47	-21.017	31.583	5.0	BUFFALO RANGE	6492
48	-20.767	167.233	5.0	OUANAHAM	7206
49	-20.7667	-138.55	5.0	TUREIA	271
50	-20.567	164.283	5.0	KOUMAC	11482
51	-20.283	44.317	5.0	MORONDAVA	3268
52	-20.233	169.767	5.0	ANEITYUM	125
53	-20.15	28.617	5.0	BULAWAYO	14661
54	-20.067	30.867	5.0	MASVINGO	8225
55	-19.9061	-144.9494	5.0	HEREHERETUE	7607
56	-19.833	48.8	5.0	MAHANORO	1069
57	-19.783	-47.967	5.0	UBERABA	134
58	-19.683	63.417	5.0	RODRIGUES	10891
59	-19.6	18.117	5.0	GROOTFONTEIN	4094
60	-19.45	29.85	5.0	GWERU	5186
61	-19.28	121.5	5.0	TALGARNO	297
62	-18.633	26.85	5.0	HWANGE NATIONAL PAR	2189
63	-18.533	32.15	5.0	RUSAPE	2604
64	-18.317	29.883	5.0	KADOMA	1432
65	-18.3167	-59.7667	5.0	ROBORE	144
66	-18.217	28.933	5.0	GOKWE	1693
67	-18.1	25.85	5.0	VICTORIA FALLS	6409
68	-18.067	-140.95	5.0	HAO	18186
69	-17.917	31.133	5.0	HARARE (KUTSAGA)	926
70	-17.7333	139.5333	5.0	BURKETOWN	145
71	-17.417	32.217	5.0	MUTOKO	4155
72	-17.3167	123.6333	5.0	DERBY	7081
73	-17.083	49.817	5.0	SAINTE-MARIE AERODR	681
74	-17.05	42.717	5.0	ILE JUAN DE NOVA	5730
75	-16.833	29.617	5.0	KAROI	4958
76	-16.517	28.883	5.0	KARIBA	2203
77	-16.45	-151.75	5.0	BORA-BORA	11160
78	-16.45	59.617	5.0	ST. BRANDON	5725
79	-16.333	-71.567	5.0	AREQUIPA	3138
80	-15.683	34.967	5.0	CHILEKA	10079
81	-15.6	-56.1	5.0	CUIABA	443
82	-15.517	167.217	5.0	PEKOA AIRPORT	661
83	-15.25	23.15	5.0	MONGU	5748
84	-15.1	39.283	5.0	NAMPULA	4237
85	-15.0	50.333	5.0	ANTALAHA	4654
86	-14.95	-147.659	5.0	RANGIROA	5720
87	-14.95	-40.883	5.0	VITORIA DA CONQUIST	123
88	-14.933	13.567	5.0	LUBANGO	236
89	-14.633	47.767	5.0	ANALALAVA	1607
90	-14.4833	-145.0333	5.0	TAKAROA ATOLL	17249
91	-14.3667	-170.7833	5.0	LEONE BAY AMERICAN S	359
92	-14.283	50.167	5.0	SAMBAVA	2763
93	-13.8	-171.783	5.0	APIA	10496
94	-13.75	34.583	5.0	SALIMA	2342
95	-13.733	-76.217	5.0	PISCO	1501
96	-13.367	50.0	5.0	VOHEMAR	807
97	-13.317	48.317	5.0	FASCENE (NOSSI-BE)	786
98	-13.0	28.65	5.0	NDOLA	2372
99	-12.8	45.2833	5.0	DZAOUDZI/PAMANZI	15117
100	-12.5	177.05	5.0	ROTUMA	6835
101	-12.35	49.3	5.0	ANTSIRANANA	8157
102	-12.15	-77.0	5.0	LAS PALMAS	389
103	-12.15	-45.0	5.0	BARREIRAS	1194
104	-12.117	44.433	5.0	OUANI (ANJOUAN)	3271
105	-11.7	43.233	5.0	MORONI AIRPORT	5231
106	-11.583	47.283	5.0	ILES GLORIEUSES	7379
107	-11.3	-41.867	5.0	IRECE	347
108	-11.0333	-68.7833	5.0	COBIJA	222
109	-10.917	-37.05	5.0	ARACAJU	417
110	-10.7	-48.4	5.0	PORTO NACIONAL	1005
111	-10.7	152.833	5.0	MISIMA ISLAND	2055
112	-10.7	165.8	5.0	SANTA CRUZ ISLAND	151
113	-10.433	56.75	5.0	AGALEGA	2514
114	-10.217	31.133	5.0	KASAMA	3135
115	-9.95	33.883	5.0	KARONGA	2595
116	-9.517	-35.783	5.0	MACEIO (AEROPORTO)	133
117	-9.35	46.533	5.0	ALDABRA	143
118	-9.333	-54.967	5.0	CACHIMBO AERO	2176
119	-9.2	124.367	5.0	OE-CUSSIE	498
120	-9.1	-44.117	5.0	BOM JESUS	376
121	-9.0	-158.05	5.0	PENRHYN	8316
122	-8.933	33.467	5.0	MBEYA	767
123	-8.55	126.567	5.0	KOMORO	6384
124	-8.367	-74.567	5.0	PUCALLPA	328
125	-7.967	112.7	5.0	MALANG/ABDUL (AFB)	586
126	-7.633	35.767	5.0	IRINGA	677
127	-7.617	111.517	5.0	MADIUN/ISWAHYUD AFB	3443
128	-7.333	108.25	5.0	CIBEUREM/TASIK(AFB)	625
129	-7.317	-39.3	5.0	BARBALHA	334
130	-7.3	72.4	5.0	DIEGO GARCIA	16326
131	-7.017	-37.267	5.0	PATOS	137
132	-6.833	37.65	5.0	MOROGORO	142
133	-6.783	-79.817	5.0	CHICLAYO	1504
134	-6.267	-57.733	5.0	JACAREACANGA	287
135	-6.167	35.767	5.0	DODOMA	1096
136	-5.5	-45.267	5.0	BARRA DO CORDA	161
137	-5.2	-80.6	5.0	PIURA	919
138	-5.2	-39.3	5.0	QUIXERAMOBIM	334
139	-5.083	32.833	5.0	TABORA AIRPORT	1062
140	-5.083	39.067	5.0	TANGA	776
141	-5.05	-42.817	5.0	TERESINA	313
142	-4.883	29.667	5.0	KIGOMA	112
143	-4.883	38.283	5.0	MOMBO	113
144	-4.567	-81.233	5.0	TALARA	1823
145	-4.45	105.183	5.0	MENGGALA/ASTRA KSET	181
146	-4.1	122.433	5.0	KENDARI/WOLTER MONG	1064
147	-4.05	-154.9833	5.0	MALDEN ISLAND AF	274
148	-4.033	39.617	5.0	MOMBASA	3673
149	-3.417	37.067	5.0	KILIMANJARO AIRPORT	696
150	-3.4	38.567	5.0	VOI	4508
151	-3.217	40.1	5.0	MALINDI	1769
152	-3.083	-41.783	5.0	PARNAIBA	665
153	-2.533	14.767	5.0	DJAMBALA	1376
154	-2.467	32.917	5.0	MWANZA	383
155	-2.283	37.833	5.0	MAKINDU	5723
156	-1.333	31.817	5.0	BUKOBA	1433
157	-1.133	35.833	5.0	NAROK	4802
158	-0.617	30.65	5.0	MBARARA	114
159	-0.467	39.633	5.0	GARISSA	7179
160	-0.267	36.1	5.0	NAKURU	7184
161	0.183	30.1	5.0	KASESE	419
162	0.683	34.167	5.0	TORORO	264
163	1.617	18.067	5.0	IMPFONDO	986
164	1.683	31.717	5.0	MASINDI	632
165	1.717	33.617	5.0	SOROTI	112
166	1.85	-78.767	5.0	TUMACO	344
167	2.0	-157.4	5.0	CHRISTMAS ISLAND	29424
168	2.033	-56.117	5.0	SIPALIWINI	331
169	2.083	11.483	5.0	BITAM	483
170	2.333	37.983	5.0	MARSABIT	1160
171	3.117	35.617	5.0	LODWAR	8644
172	3.367	-57.333	5.0	COEROENI	254
173	3.533	39.05	5.0	MOYALE	3218
174	3.633	-54.033	5.0	MARIPASOULA	1329
175	3.783	-56.15	5.0	TAFELBERG	228
176	3.85	-159.367	5.0	FANNING ISLAND	103
177	3.883	-51.8	5.0	SAINT GEORGES	2681
178	3.933	41.867	5.0	MANDERA	3516
179	4.25	15.8	5.0	BERBERATI	2543
180	4.317	21.183	5.0	MOBAYE	150
181	4.35	-54.417	5.0	STOELMANSEILAND	153
182	4.55	-70.917	5.0	LAS GAVIOTAS	3770
183	4.733	22.833	5.0	BANGASSOU	2199
184	4.883	-1.767	5.0	TAKORADI	135
185	5.45	-55.2	5.0	ZANDERIJ	2383
186	5.5	-54.033	5.0	SAINT-LAURENT	3207
187	5.55	12.367	5.0	YOKO	1316
188	5.6	-0.1667	5.0	ACCRA/KOTOKA INTL	3276
189	5.9	43.583	5.0	GODE	237
190	5.917	169.65	5.0	JALUIT ATOLL	130
191	5.95	-57.033	5.0	NICKERIE	382
192	5.967	15.633	5.0	BOUAR	2424
193	6.25	-10.35	5.0	ROBERTS FIELD	1457
194	6.467	7.55	5.0	ENUGU	469
195	6.483	17.433	5.0	BOSSANGOA	3181
196	7.233	-70.8	5.0	GUASDUALITO	356
197	7.3	-61.45	5.0	TUMEREMO	451
198	7.383	143.917	5.0	WOLEAI ATOLL	106
199	7.7	28.017	5.0	WAU	717
200	8.15	-63.55	5.0	CIUDAD BOLIVAR	641
201	8.3333	80.4167	5.0	ANURADHAPURA	612
202	8.4	20.65	5.0	NDELE	2173
203	8.617	-13.2	5.0	LUNGI	1194
204	9.417	-5.617	5.0	KORHOGO	11845
205	9.467	170.25	5.0	WOTJE ATOLL	299
206	9.5	-7.567	5.0	ODIENNE	140
207	9.5	-0.85	5.0	TAMALE	1562
208	9.6	105.967	5.0	BA-XUYEN/SOC TRANG	170
209	9.617	6.533	5.0	MINNA	440
210	9.75	-63.183	5.0	MATURIN	1184
211	9.8	125.5	5.0	SURIGAO	347
212	9.817	-70.933	5.0	MENE GRANDE	780
213	9.983	98.617	5.0	RANONG	194
214	10.067	-69.317	5.0	BARQUISIMETO	741
215	10.117	-64.683	5.0	BARCELONA	1459
216	10.6	-66.983	5.0	CARACAS/MAIQUETIA A	912
217	10.717	115.833	5.0	NENSHA ISL	436
218	10.85	121.033	5.0	CUYO	270
219	10.917	-63.967	5.0	PORLAMAR	739
220	11.55	43.15	5.0	DJIBOUTI	2487
221	11.783	34.383	5.0	DAMAZINE	1808
222	11.85	13.083	5.0	MAIDUGURI	593
223	12.7	28.433	5.0	EN NAHUD	198
224	12.917	74.883	5.0	MANGALORE/BAJPE	2209
225	13.167	32.667	5.0	AROMA	298
226	13.3	-87.1833	5.0	CHOLUTECA	767
227	13.467	7.083	5.0	MARADI	18936
228	13.567	-89.833	5.0	ACAJUTLA	185
229	13.683	44.15	5.0	TAIZ (CIV/MIL)	449
230	13.7	-89.117	5.0	SAN SALVADOR/ILOPAN	689
231	13.85	20.85	5.0	ABECHE	4728
232	13.917	-90.817	5.0	SAN JOSE	1220
233	13.917	100.6	5.0	DON MUANG	780
234	14.033	35.4	5.0	GEDAREF	238
235	14.05	-87.25	5.0	TEGUCIGALPA	5493
236	14.067	-83.367	5.0	PUERTO CABEZAS	4028
237	14.117	93.367	5.0	COCO ISLAND	985
238	14.4	33.483	5.0	WAD MEDANI	269
239	14.482	-11.44	5.0	KAYES/DAG-DAG	16115
240	14.5333	-90.5667	5.0	GUATEMALA CITY	5620
241	14.6	-61.0	5.0	LAMENTIN AERO	9234
242	14.6833	77.6167	5.0	ANANTAPUR	10993
243	14.75	42.967	5.0	HODEIDAH (CIV/MIL)	542
244	14.8	100.617	5.0	LOP BURI	837
245	14.9	-23.517	5.0	PRAIA	123
246	15.117	105.783	5.0	PAKSE	590
247	15.117	145.733	5.0	SAIPAN/ISLEY (CGS)	7992
248	15.167	-7.283	5.0	NARA	9645
249	15.283	38.917	5.0	ASMARA	2299
250	15.4167	108.7	5.0	CHU LAI	822
251	15.717	-88.6	5.0	PUERTO BARRIOS	639
252	16.1667	-95.1667	5.0	SALINA CRUZ	556
253	16.433	101.15	5.0	PHETCHABUN	401
254	16.533	80.8	5.0	VIJAYAWADA/GANNAVA	8012
255	16.55	104.65	5.0	SAVANNAKHET	508
256	16.55	111.617	5.0	HOANG SA (PATTLE)	417
257	16.633	-11.4	5.0	KIFFA	4608
258	16.767	94.767	5.0	PATHEIN	2065
259	16.883	42.583	5.0	GIZAN	1629
260	16.9	96.183	5.0	MINGALADON	945
261	17.417	104.783	5.0	NAKHON PHANOM	2528
262	17.9	-62.85	5.0	ST. BARTHELEMY	4048
263	17.95	102.567	5.0	VIENTIANE	2162
264	18.0	19.167	5.0	FAYA	2999
265	18.3	42.8	5.0	KHAMIS MUSHAIT	11138
266	18.433	1.35	5.0	KIDAL	5839
267	18.633	-91.833	5.0	CUIDAD DEL CARMEN	185
268	18.717	-110.95	5.0	ISLA SOCORRO	9477
269	19.1	108.617	5.0	DONGFANG	6890
270	19.167	30.483	5.0	DONGOLA	1444
271	19.883	102.133	5.0	LUANG-PRABANG	472
272	20.45	121.967	5.0	BASCO	867
273	20.667	58.9	5.0	MASIRAH	514
274	20.883	95.9	5.0	MEIKTILA	5141
275	20.899	-156.43	5.0	KAHULUI ARPT/MAUI	19540
276	21.217	110.4	5.0	ZHANJIANG	5208
277	21.3	99.617	5.0	KENGTUNG	231
278	21.433	-157.767	5.0	KANEOHE BAY (MCAF)	1432
279	22.283	-97.85	5.0	TAMPICO	165
280	22.367	106.75	5.0	LONGZHOU	4011
281	22.45	70.083	5.0	JAMNAGAR	895
282	22.75	-12.483	5.0	ZOUERATE	2072
283	22.767	81.9	5.0	PENDRA ROAD	5308
284	22.783	115.367	5.0	SHANWEI	2322
285	23.8167	5.15	5.0	IN AMGUEL	144
286	23.8833	100.0833	5.0	LINCANG	2076
287	24.067	105.067	5.0	GUANGNAN	5390
288	24.183	120.65	5.0	TAICHUNG (TW-AFB)	4776
289	24.217	23.3	5.0	KUFRA	6321
290	24.267	9.467	5.0	DJANET	6261
291	24.35	109.4	5.0	LIUZHOU	4445
292	24.367	114.483	5.0	LIANPING	20784
293	24.583	73.7	5.0	UDAIPUR	1174
294	24.7	46.733	5.0	RIYADH OBS.	11578
295	25.0167	102.8333	5.0	KAN-HAI-TZU	598
296	25.2667	63.4833	5.0	PASNI	119
297	25.3667	97.4	5.0	MYITKYINA	3942
298	25.433	105.183	5.0	XINGREN	4750
299	25.433	106.767	5.0	LUODIAN	3236
300	25.5	28.967	5.0	DAKHLA	4922
301	25.517	119.783	5.0	PINGTAN	3181
302	25.533	-103.45	5.0	TORREON AIRPORT	1530
303	25.617	-109.05	5.0	TOPOLOBAMPO	251
304	25.8	21.133	5.0	TAZERBO	3989
305	25.85	116.367	5.0	CHANGTING	5057
306	25.9	-81.7167	5.0	DELTA SEVEN	436
307	25.967	108.533	5.0	RONGJIANG	2499
308	26.15	119.95	5.0	MAZU (=588490)	4062
309	26.2	36.483	5.0	AL-WEJH	5395
310	26.267	50.167	5.0	DHAHRAN	17304
311	26.5	8.417	5.0	ILLIZI	502
312	26.717	92.8	5.0	TEZPUR/BINDUKURI	424
313	26.867	100.233	5.0	LIJING	20204
314	26.983	84.85	5.0	RAXAUL	1140
315	27.117	114.967	5.0	JIAN	4747
316	27.3	105.233	5.0	BIJIE	1335
317	27.333	120.2	5.0	FUDING	4348
318	27.65	-81.333	5.0	AVON PARK GUNNERY R	11151
319	27.7	85.367	5.0	KATHMANDU AIRPORT	651
320	27.75	89.167	5.0	PAGRI	5820
321	27.883	-0.283	5.0	ADRAR	22304
322	27.95	-80.5667	5.0	VALKARIA	798
323	27.95	108.25	5.0	SINAN	3144
324	28.05	9.633	5.0	IN-AMENAS	12360
325	28.083	30.733	5.0	MINYA	2596
326	28.333	28.867	5.0	BAHARIA	5180
327	28.417	92.467	5.0	LHUNZE	9321
328	28.45	98.883	5.0	DEQEN	6169
329	28.467	-16.25	5.0	STA. CRUZ DE TENERI	22725
330	28.633	87.083	5.0	TINGRI	4882
331	28.833	108.767	5.0	YOUYANG	169
332	28.883	-118.3	5.0	ISLA GUADALUPE	13025
333	29.033	21.567	5.0	JALO	3469
334	29.033	101.5	5.0	JIULONG	1437
335	29.0333	66.5833	5.0	KALAT	172
336	29.05	111.683	5.0	CHANGDE	4719
337	29.117	15.933	5.0	HON	3794
338	29.217	88.917	5.0	XIGAZE	11663
339	29.25	0.283	5.0	TIMIMOUN	9666
340	29.3	117.2	5.0	JINGDEZHEN	5385
341	29.383	113.083	5.0	YUEYANG	4823
342	29.55	34.95	5.0	EILAT	6192
343	29.5667	94.4667	5.0	NYINGCHI	6509
344	29.6833	-85.35	5.0	CAPE SAN BLAS SITE D 3	2507
345	29.75	24.533	5.0	GIARABUB	2551
346	29.8833	69.7167	5.0	BARKHAN	1029
347	29.967	-95.35	5.0	HOUSTON/INTERCONTIN	1796
348	29.967	99.067	5.0	BATANG	19656
349	30.033	122.117	5.0	DINGHAI	3697
350	30.05	101.967	5.0	KANGDING	3716
351	30.133	-2.167	5.0	BENI-ABBES	7838
352	30.133	9.5	5.0	GHADAMES	5808
353	30.167	35.783	5.0	MAAN	595
354	30.3667	-89.5833	5.0	NASA MISS. TEST	1068
355	30.383	13.583	5.0	GARIAT EL-SHARGHIA	688
356	30.567	2.867	5.0	EL-GOLEA	31528
357	30.717	20.167	5.0	AGEDABIA	3757
358	30.8	106.083	5.0	NANCHONG	8082
359	30.933	-6.9	5.0	OUARZAZATE	8186
360	30.95	88.633	5.0	XAINZA	12076
361	31.017	46.233	5.0	NASIRIYA	750
362	31.1	-97.717	5.0	FT HOOD AAF/KILLEEN	2923
363	31.2	16.583	5.0	SIRTE	2738
364	31.217	107.5	5.0	DA XIAN	23565
365	31.233	34.783	5.0	BEER-SHEVA	2318
366	31.283	32.233	5.0	PORT SAID/EL GAMIL	1814
367	31.367	90.017	5.0	BAINGOIN	11427
368	31.367	130.833	5.0	KANOYA AB	464
369	31.417	95.6	5.0	DENGQEN	6863
370	31.617	-8.033	5.0	MARRAKECH	9944
371	31.683	9.3	5.0	EL BORMA	1728
372	31.867	-81.633	5.0	FORT STEWART RESERV	3618
373	31.867	10.983	5.0	NALUT	2037
374	31.867	93.767	5.0	SOG XIAN	7101
375	31.867	117.233	5.0	HEFEI	9149
376	31.9	102.233	5.0	BARKAM	6148
377	31.933	-4.4	5.0	ERRACHIDIA	6598
378	31.9333	5.4	5.0	OUARGLA	2887
379	32.05	72.667	5.0	SARGODHA	19138
380	32.067	108.033	5.0	WANYUAN	3574
381	32.133	114.05	5.0	XINYANG	7884
382	32.2167	-98.1833	5.0	STEPHENVILLE	15234
383	32.283	-9.233	5.0	SAFI	1179
384	32.317	10.4	5.0	REMADA	9738
385	32.333	-84.833	5.0	FORT BENNING	3790
386	32.35	-94.65	5.0	LONGVIEW WSMO	14445
387	32.367	-6.4	5.0	BENI-MELLAL	2448
388	32.383	3.817	5.0	GHARDAIA	31999
389	32.383	111.667	5.0	GUANGHUA	3239
390	32.417	15.05	5.0	MISURATA	1073
391	32.43	109.02	5.0	ANKANG	23991
392	32.5	-106.4167	5.0	FRYE SITE	155
393	32.5	80.067	5.0	SHIQUANHE	10631
394	32.683	-4.733	5.0	MIDELT	2966
395	32.6833	13.1667	5.0	TRIPOLI INTL ARPT	18212
396	32.717	133.017	5.0	SHIMIZU	5015
397	32.8	21.883	5.0	SHAHAT	1530
398	32.817	-115.683	5.0	EL CENTRO NAF	1361
399	32.883	12.083	5.0	ZUARA	2793
400	32.9	-87.25	5.0	CENTREVILLE WSMO	14447
401	32.933	-112.7	5.0	GILA BEND (AAF)	19204
402	32.967	114.05	5.0	ZHUMADIAN	6626
403	33.033	40.283	5.0	RUTBAH	2392
404	33.417	36.517	5.0	DAMASCUS INT. AIRPO	10082
405	33.5	6.783	5.0	EL-OUED	28456
406	33.583	102.967	5.0	RUOERGAI	2991
407	33.6167	73.1	5.0	ISLAMABAD AIRPORT	7050
408	33.683	1.0	5.0	EL-BAYADH	10962
409	33.783	114.517	5.0	XIHUA	6675
410	33.8	99.8	5.0	DARLAG	12064
411	33.85	-80.483	5.0	POINSETT RANGE	3637
412	33.8667	70.0833	5.0	PARACHINAR	2376
413	33.867	10.767	5.0	DJERBA MELLITA	27692
414	33.883	-5.533	5.0	MEKNES	2167
415	33.95	92.617	5.0	TUOTUOHE	11291
416	34.05	131.05	5.0	OZUKI AB	303
417	34.217	-4.0	5.0	TAZA	2441
418	34.217	62.217	5.0	HERAT	1107
419	34.3	-103.8	5.0	MELROSE GUNNERY RAN	151
420	34.417	8.817	5.0	GAFSA	20537
421	34.583	105.75	5.0	TIANSHUI	6899
422	34.6	138.217	5.0	OMAEZAKI	4148
423	34.65	-120.567	5.0	SOUTH VANDENBERG AF	6218
424	34.6833	3.25	5.0	DJELFA	9814
425	34.717	10.683	5.0	SFAX EL-MAOU	30654
426	34.783	-1.95	5.0	OUJDA	7639
427	34.8	5.733	5.0	BISKRA	19871
428	34.85	119.133	5.0	GANYU	7452
429	34.917	98.217	5.0	MADOI	6085
430	34.933	136.583	5.0	YOKKAICHI	4758
431	34.983	139.833	5.0	TATEYAMA AB	533
432	35.117	36.75	5.0	HAMA	741
433	35.133	-78.933	5.0	FORT BRAGG/SIMMONS	159
434	35.169	128.934	5.0	GIMHAE INTL AIRPORT	5577
435	35.183	-3.85	5.0	AL HOCEIMA	4040
436	35.217	93.083	5.0	WUDAOLIANG	5083
437	35.35	1.467	5.0	TIARET	280
438	35.533	35.767	5.0	LATTAKIA	458
439	35.633	-0.6	5.0	ORAN-SENIA	38241
440	35.667	-75.9	5.0	DARE COUNTY GUNNERY	5845
441	35.733	-5.9	5.0	TANGER (AERODROME)	389
442	35.8	140.017	5.0	SHIMOFUSA AB	467
443	35.9167	74.3333	5.0	GILGIT	521
444	35.933	39.017	5.0	RAQQA	252
445	36.05	114.4	5.0	ANYANG	7228
446	36.183	118.15	5.0	YIYUAN	6101
447	36.217	1.333	5.0	CHLEF	3213
448	36.283	6.617	5.0	CONSTANTINE	21262
449	36.3	2.233	5.0	MILIANA	14988
450	36.317	43.15	5.0	MOSUL	884
451	36.4	139.067	5.0	MAEBASHI	5175
452	36.533	-115.667	5.0	INDIAN SPRINGS GUNN	335
453	36.617	128.35	5.0	YECHEON AB	5663
454	36.7	119.1167	5.0	WEI HSIEN	254
455	36.767	126.467	5.0	SEOSAN	566
456	36.833	7.817	5.0	ANNABA	30088
457	36.85	11.083	5.0	KELIBIA	18563
458	36.867	30.733	5.0	ANTALYA	1476
459	36.883	6.9	5.0	SKIKDA	639
460	36.8833	-93.9	5.0	MONETT	18071
461	37.017	-7.967	5.0	FARO/AEROPORTO	1831
462	37.05	41.217	5.0	KAMISHLI	136
463	37.0667	-88.7667	5.0	PADUCAH BARKLEY FLD	4390
464	37.1	128.8667	5.0	SANGDONG	294
465	37.233	9.817	5.0	BIZERTE	7207
466	37.233	67.267	5.0	TERMEZ	20099
467	37.3167	-121.8667	5.0	SAN JOSE/EMSU	188
468	37.317	97.217	5.0	DELINGHA	10750
469	37.4	122.683	5.0	CHENGSHANTOU	15581
470	37.433	-105.867	5.0	ALAMOSA MUNI(AWOS)	921
471	37.433	127.95	5.0	WONJU AB	6345
472	37.617	120.317	5.0	LONGKOU	8328
473	37.75	128.95	5.0	GANGNEUNG AB	6015
474	37.783	-81.117	5.0	BECKLEY	114
475	37.783	-0.8	5.0	MURCIA/SAN JAVIER	1000
476	37.85	95.367	5.0	DA-QAIDAM	5439
477	37.917	139.05	5.0	NIIGATA	2033
478	37.93	83.65	5.0	ANDIR	14362
479	37.966	124.63	5.0	BAENGNYEONGDO	8261
480	38.0	-71.0	5.0	OCEAN WEATHER SHIP H	3274
481	38.25	90.85	5.0	MANGNAI	15030
482	38.373	-81.6	5.0	YEAGER	1619
483	38.417	-113.017	5.0	MILFORD MUNICIPAL	774
484	38.433	77.267	5.0	SHACHE	15714
485	38.733	115.483	5.0	BAODING	9153
486	38.817	35.433	5.0	KAYSERI/ERKILET	1942
487	39.1	107.983	5.0	OTOG QI	9443
488	39.2	45.417	5.0	NAXCIVAN	914
489	39.383	111.15	5.0	HEQU	8713
490	39.4333	118.9	5.0	LETING	20578
491	39.45	-74.6667	5.0	ATLANTIC CITY U-A	10118
492	39.55	2.617	5.0	PALMA DE MALLORCA	9948
493	39.6667	118.1167	5.0	TANG SHAN	251
494	39.783	105.75	5.0	JARTAI	9470
495	39.8	78.567	5.0	BACHU	9060
496	39.867	4.233	5.0	MENORCA/MAHON	165
497	39.983	46.75	5.0	KHANKANDY	657
498	40.083	124.333	5.0	DANDONG	24594
499	40.1	113.333	5.0	DATONG	8658
500	40.2	-8.417	5.0	COIMBRA	458
501	40.217	69.733	5.0	KHUDJAND	382
502	40.267	97.033	5.0	YUMENZHEN	2942
503	40.433	-80.0	5.0	PITTSBURGH/EMSU	544
504	40.55	70.95	5.0	KOKAND	7416
505	40.633	87.7	5.0	TIKANLIK	16175
506	40.75	104.5	5.0	BAYAN MOD	20474
507	40.783	43.833	5.0	GUMRI	147
508	40.85	35.583	5.0	MERZIFON	1796
509	40.933	78.45	5.0	AKQI	5651
510	40.95	-5.5	5.0	SALAMANCA/MATACAN	173
511	40.967	117.917	5.0	CHENGDE	6676
512	41.1167	122.95	5.0	AN SHAN	362
513	41.117	121.067	5.0	JINZHOU	26088
514	41.233	-8.683	5.0	PORTO/PEDRAS RUBRAS	1615
515	41.25	-76.917	5.0	WILLIAMSPORT/LYCOMI	463
516	41.433	76.0	5.0	NARYN	13926
517	41.45	31.8	5.0	ZONGULDAK	304
518	41.45	106.383	5.0	HAILS	4738
519	41.55	46.667	5.0	ZAKATALA	424
520	41.633	41.6	5.0	BATUMI	7554
521	41.65	-70.5167	5.0	FALMOUTH OTIS AFB	383
522	41.65	25.367	5.0	KURDJALI	9983
523	41.717	-4.85	5.0	VALLADOLID/VILLANUB	206
524	41.75	86.133	5.0	KORLA	21640
525	41.75	103.9667	5.0	PANG-TING-TO-TO-KAI	1057
526	41.95	21.633	5.0	SKOPJE- AIRPORT	2454
527	42.2	-1.45	5.0	BARDENAS REALES	4866
528	42.217	-75.983	5.0	BINGHAMTON/BROOME C	109
529	42.45	-2.333	5.0	LOGRONO/AGONCILLO	349
530	42.583	-5.65	5.0	LEON/VIRGEN DEL CAM	200
531	42.7	-68.3	5.0	ENVIRONM BUOY 44005	574
532	42.917	-106.467	5.0	CASPER/NATRONA COUN	1420
533	42.933	89.2	5.0	TURPAN	10824
534	43.0	1.1	5.0	SAINT GIRONS	158
535	43.2	107.167	5.0	HANBOGD	2539
536	43.483	91.633	5.0	SHISANJIANFANG	15467
537	43.583	-118.95	5.0	BURNS MUNI (AMOS)	1705
538	43.6	118.067	5.0	LINXI	3300
539	43.633	1.367	5.0	TOULOUSE BLAGNAC	1937
540	43.75	24.883	5.0	TR. MAGURELE	218
541	43.917	-0.5	5.0	MONT-DE-MARSAN	166
542	43.983	119.4	5.0	LINDONG	4651
543	44.017	89.567	5.0	QITAI	9992
544	44.117	-77.533	5.0	TRENTON ARPT	142
545	44.217	28.633	5.0	CONSTANTA	27610
546	44.317	23.867	5.0	CRAIOVA	548
547	44.567	129.6	5.0	MUDANJIANG	4789
548	44.583	4.733	5.0	MONTELIMAR	189
549	44.583	117.6	5.0	XI UJIMQIN QI	8443
550	44.617	82.9	5.0	JINGHE	10505
551	44.617	114.15	5.0	NARAN BULAG	14093
552	44.633	22.633	5.0	DROBETA TURNU SEVER	953
553	45.0	-16.0	5.0	OCEAN WEATHER SHIP K	2558
554	45.15	26.817	5.0	BUZAU	652
555	45.15	29.667	5.0	SULINA	178
556	45.417	-91.767	5.0	RICE LAKE RGNL CARLS	581
557	45.5	28.2	5.0	GALATI	7351
558	45.6	84.85	5.0	KARAMAY	20097
559	45.667	-0.317	5.0	COGNAC	356
560	45.767	106.283	5.0	MANDALGOBI	3030
561	45.867	1.183	5.0	LIMOGES	190
562	45.867	22.9	5.0	DEVA	887
563	45.95	-77.317	5.0	PETAWAWA	1273
564	46.0	18.233	5.0	PECS/POGANY	127
565	46.2	150.5	5.0	URUP	29544
566	46.374	-117.015	5.0	LEWISTON NEZ PERCE	432
567	46.5	121.36	5.0	TE-PO-SU-K/-MIAO	11684
568	46.533	24.533	5.0	TG. MURES	1169
569	46.583	26.983	5.0	BACAU	1500
570	46.733	83.0	5.0	TACHENG	22028
571	46.767	-56.167	5.0	SAINT-PIERRE	690
572	46.9	-71.483	5.0	VALCARTIER AIRPORT	2371
573	46.9667	-122.9	5.0	OLYMPIA MUN I AP	1217
574	47.033	21.9	5.0	ORADEA	822
575	47.067	2.367	5.0	BOURGES	3475
576	47.15	-1.6	5.0	NANTES	256
577	47.167	27.633	5.0	IASI	1100
578	47.267	5.083	5.0	DIJON	234
579	47.267	16.633	5.0	SZOMBATHELY	183
580	47.383	123.917	5.0	QIQIHAR	17927
581	47.45	101.467	5.0	TSETSERLEG	2069
582	47.567	-59.15	5.0	PORT-AUX-BASQUES	2303
583	47.633	26.25	5.0	SUCEAVA	513
584	47.75	96.85	5.0	ULIASTAI	1923
585	47.8	3.55	5.0	AUXERRE	185
586	47.95	-97.4	5.0	GRAND FORKS AFB	517
587	48.017	91.567	5.0	HOVD	3097
588	48.183	-103.633	5.0	WILLISTON/SLOULIN F	460
589	48.55	-109.767	5.0	HAVRE (AMOS)	690
590	48.667	116.817	5.0	XIN BARAG YOUQI	12550
591	48.7	-8.9167	5.0	ENVIRONM BUOY 62027	215
592	48.8	103.55	5.0	BULGAN	2639
593	48.917	106.067	5.0	BARUUNHARAA	2895
594	49.08	16.62	5.0	BRNO REBESOVICE	4516
595	49.2	-123.167	5.0	VANCOUVER INT. AIRP	14056
596	49.3	4.033	5.0	REIMS	179
597	49.633	-112.8	5.0	LETHBRIDGE AWOS	9936
598	49.65	7.3	5.0	BAUMHOLDER (USA-AF)	1342
599	49.7167	-124.9	5.0	COMOX A	104
600	49.75	10.2	5.0	KITZINGEN AAF	631
601	49.783	-99.633	5.0	SHILO	6238
602	49.9	-97.233	5.0	WINNIPEG INT.AIRPOR	16336
603	49.9031	-98.2842	5.0	PORTAGE SOUTHPORT	554
604	50.0	88.667	5.0	KOS-AGAC	10486
605	50.033	5.4	5.0	ST-HUBERT	26357
606	50.133	1.833	5.0	ABBEVILLE	116
607	50.133	65.233	5.0	AMANGELDY	15887
608	50.233	-119.283	5.0	VERNON AUTO	15732
609	50.383	-102.683	5.0	BROADVIEW	8722
610	50.433	-104.667	5.0	REGINA INTL	6105
611	50.8667	7.1333	5.0	KOLN/BONN	1759
612	51.083	2.65	5.0	KOKSIJDE	311
613	51.1	-100.05	5.0	DAUPHIN AIRPORT	2648
614	51.117	-114.017	5.0	CALGARY INTL	15534
615	51.13	9.28	5.0	FRITZLAR/KASSELER	21333
616	51.133	-106.583	5.0	ELBOW CS	165
617	51.4	-3.35	5.0	CARDIFF-WALES ARPT	890
618	51.517	-109.183	5.0	KINDERSLEY ARPT	914
619	51.55	12.0667	5.0	OPPIN	3700
620	51.717	126.65	5.0	HUMA	6620
621	51.733	6.267	5.0	KALKAR	3052
622	51.75	-1.583	5.0	BRIZE NORTON	1008
623	52.167	-106.717	5.0	SASKATOON DIEFENBAKE	2309
624	52.167	4.433	5.0	VALKENBURG	583
625	52.267	7.433	5.0	NORDHORN	5346
626	52.4167	-4.0	5.0	CAPEL DEWI	6559
627	52.433	-114.917	5.0	ROCKY MTN HOUSE	1475
628	52.5	-20.0	5.0	OCEAN WEATHER SHIP J	2559
629	52.767	-108.25	5.0	NORTH BATTLEFORD	2182
630	52.8	-2.667	5.0	SHAWBURY	561
631	53.167	-0.517	5.0	WADDINGTON	992
632	53.217	-105.667	5.0	PRINCE ALBERT ARPT	9605
633	53.25	4.917	5.0	VLIELAND	6803
634	53.85	-94.65	5.0	ISLAND LAKE ARPT	4067
635	54.2	16.1833	5.0	KOSZALIN	1537
636	54.3	-1.533	5.0	LEEMING	777
637	54.383	10.15	5.0	KEIL/HOLTENAU	15248
638	54.48	-6.1	5.0	LONG KESH	48477
639	54.75	-110.05	5.0	PRIMROSE LAKE	845
640	55.283	-114.783	5.0	SLAVE LAKE AIRPORT	13183
641	55.317	-3.2	5.0	ESKDALEMUIR	233
642	55.417	-1.6	5.0	BOULMER	13127
643	55.767	12.533	5.0	JAEGERSBORG	40587
644	56.65	-111.217	5.0	FORT MCMURRAY ARPT	11470
645	57.1	9.867	5.0	FLYVESTATION AALBOR	4824
646	57.2	-2.217	5.0	ABERDEEN/DYCE AIRPO	421
647	57.65	-3.567	5.0	KINLOSS	767
648	58.183	12.15	5.0	TORPABRON	288
649	59.0	-19.0	5.0	OCEAN WEATHER SHIP I	2647
650	61.2667	-149.65	5.0	FT. RICHARDSON/BRYANT AHP	972
651	66.0	2.0	5.0	OCEAN WEATHER SHIP M	2031
652	66.567	-145.267	5.0	FORT YUKON	133
653	68.1	-165.7667	5.0	CAPE THOMPSON	100
654	69.9333	167.9667	5.0	AJON ISLAND	9137
655	71.317	-156.617	5.0	SANDIA LAB. D	523
656	-13.771499999999998	33.73350000000001	5.6	LILONGWE INTL AIRPO,LILONGWE	15098
657	-11.6665	33.81699999999999	5.6	MZIMBA,MZUZU	8106
658	-7.649850000000001	110.5915	5.6	ADISUCIPTO/JOGYAKAR,SURAKARTA/ADISUMARM	6614
659	-6.725	107.625	5.6	BANDUNG/HUSEIN,KALIJATI	3518
660	-4.375	15.3415	5.6	KINSHASA/NDJILI,KINSHASA/BINZA	1037
661	-3.7581499999999997	-73.275	5.6	IQUITOS,MORONA	1396
662	-0.23349999999999999	35.008500000000005	5.6	KERICHO,KISUMU	10864
663	0.7499999999999999	35.15	5.6	ELDORET,KITALE	11263
664	3.1085000000000003	101.6	5.6	PETALING JAYA,KUALA LUMPUR SUBANG	34224
665	10.73335	106.9917	5.6	BARIA (PHUOC LE),BIEN HOA (VVBH)	1227
666	10.541999999999998	-71.69149999999999	5.6	LA CANADA,MARACAIBO-LA CHINIT	1487
667	13.983350000000002	108.33335	5.6	AN KHE (VVAK),PLEIKU AB	922
668	15.0585	120.325	5.6	SUBIC BAY WEATHER,CROW VALLEY GUNNERY	4499
669	15.45	44.1915	5.6	SANAA,SANA'A (CIV/MIL)	2841
670	16.68459811320755	107.26820566037736	5.9	DONG HA,HUE/PHU BAI,QUANG TRI	2118
671	23.208499999999997	120.3	5.6	TAINAN (TW-AFB),CHIAYI (TW-AFB)	12503
672	24.3665	118.258	5.6	CHIANGYANG,CHINMEM/SHATOU(AFB)	10508
673	26.458499999999997	127.73299999999999	5.6	NAHA,IEJIMA AUXILIARY AB	47138
674	30.357999999999997	-9.492	5.6	AGADIR AL MASSIRA,AGADIR INEZGANNE	17056
675	30.5	-86.5	5.6	HURLBURT FIELD (AF),EGLIN AFB RANGE NO.	777
676	31.108000000000004	-92.833	5.6	FORT POLK (ARMY),CLAIBORNE RNG (AFS)	4525
677	32.26649999999999	35.9165	5.6	AMMAN AIRPORT,IRBED	2006
678	33.033500000000004	130.1085	5.6	NAGASAKI AIRPORT,SAGA AIRPORT	1005
679	34.066500000000005	134.6165	5.6	KOMATSUSHIMA AB,TOKUSHIMA AB	5729
680	34.632999999999996	32.9	5.6	AKROTIRI,EPISKOPI	21901
681	35.29103773584906	-116.9662641509434	5.9	BICYCLE LAKE (AAF),CUDDLEBACK GUNNERY,SUPERIOR VALLEY GUN	8450
682	35.48350000000001	8.4	5.6	TEBESSA,THALA	16947
683	35.7085	10.425	5.6	KAIROUAN,MONASTIR-SKANES	45397
684	35.9415	129.0335	5.6	DAEGU AB,POHANG AB	6547
685	36.45	5.1585	5.6	SETIF,BEJAIA-AEROPORT	17970
686	36.716499999999996	8.775	5.6	JENDOUBA,TABARKA	24747
687	36.6665	127.4665	5.6	CHEONGJU,CHEONGJU INTL AIRPO	6428
688	37.39149999999999	127.01700000000001	5.6	SV RI SAN,SEOUL AB	7063
689	38.715792452830186	-104.72005660377359	5.9	AIR FORCE ACADEMY,PUEBLO MEMORIAL(AW),FORT CARSON/BUTTS	11440
690	40.666999999999994	46.783500000000004	5.6	EVLAKH AIRPORT,GANDJA	982
691	42.2	42.833000000000006	5.6	SAKARA,KUTAISI	571
692	43.533500000000004	6.975	5.6	SAINT-RAPHAEL,NICE	667
693	43.575	-1.3	5.6	BIARRITZ,DAX	1383
694	45.1835	-83.18350000000001	5.6	ALPENA/PHELPS COLLI,ENVIRONM BUOY 45003	685
695	45.641999999999996	-73.583	5.6	MONTREAL/TRUDEAU INT,LASSOMPTION CDA	17931
696	45.6	25.558	5.6	PREDEAL,BRASOV-GHIMBAV	1501
697	45.967	21.2835	5.6	TIMISOARA,ARAD	8037
698	45.80800000000001	24.508	5.6	SIBIU,FAGARAS	967
699	47.69199999999999	23.191499999999998	5.6	BAIA MARE,SATU MARE	2659
700	48.0415	9.075	5.6	NEUHAUSEN OB ECK,SIGMARINGEN	21411
701	49.5415	11.5585	5.6	FEUCHT(USA-AF),GRAFENWOEHR	4679
702	50.092	8.8085	5.6	LANGEN,HANAU	1153
703	51.83585000000001	0.89695	5.6	SHOEBURYNESS,WATTISHAM	11190
704	53.492000000000004	-113.525	5.6	EDMONTON INTL ARPT,EDMONTON NAMAO ARPT	10372
705	-0.20425	37.275000000000006	6.2	EMBU,NYERI,NANUYKI,MERU	7361
