	latitude	longitude	radius	station	records
0	-80.017	-119.533	5.0	BYRD STN	7679
1	-79.25	-147.5	5.0	LITTLE ROCKFORD	309
2	-78.45	106.867	5.0	VOSTOK	7319
3	-78.4	87.583	5.0	SOVIETSKAVA	273
4	-76.2667	-147.5	5.0	LITTLE ROCKFORD	389
5	-72.3	170.2167	5.0	ADARE HALLETT	4373
6	-70.4333	24.3167	5.0	BASE ROI BAUDOUIN	1097
7	-70.317	-2.367	5.0	SANAE	9815
8	-69.73	95.05	5.0	PIONERSKAVA	121
9	-69.5	159.4	5.0	LENINGRADSKAJA	2575
10	-67.667	45.85	5.0	MOLODEZNAJA	13014
11	-66.27	100.73	5.0	BUNGER OASIS	548
12	-65.25	-64.2667	5.0	FARADAY	10141
13	-63.4667	-56.2833	5.0	PETREL NAS	1654
14	-62.183	-58.883	5.0	BELLINGSHAUSEN AWS	6342
15	-60.75	-44.7167	5.0	ISLAS ORCADAS (MET)	8699
16	-59.45	-27.267	5.0	CORBETA URUGUAY DN	275
17	-54.8	-68.3167	5.0	USHUAIA	1943
18	-53.8	-67.75	5.0	RIO GRANDE AIRPORT	3267
19	-53.1	73.7167	5.0	HEARD IS.(THESPIT)	2295
20	-52.55	169.15	5.0	CAMPBELL ISLAND	18775
21	-51.7	-57.8667	5.0	STANLEY	4603
22	-51.6333	-69.2167	5.0	RIO GALLEGOS B. A.	4526
23	-43.2333	-65.3	5.0	ALMIRANTE ZAR	1150
24	-42.8833	147.3333	5.0	HOBART	1774
25	-42.417	173.7	5.0	KAIKOURA	5055
26	-42.2	145.05	5.0	GEOGERTOWN	2980
27	-41.3	174.63	5.0	OUTLOOK HILL	11385
28	-39.467	175.683	5.0	WAIOURU	2309
29	-38.7333	-62.1667	5.0	COMANDANTE ESPORA	13733
30	-38.1	147.1333	5.0	EAST SALE (AUS-AFB)	45308
31	-37.867	144.75	5.0	LAVERTON AERODROME	58326
32	-35.367	-57.283	5.0	PUNTA INDIO B.A.	151
33	-35.3	149.183	5.0	CANBERRA AIRPORT	54494
34	-35.1	173.267	5.0	KAITAIA	14537
35	-34.58	-58.48	5.0	BUENOS AIRES	107
36	-34.017	22.383	5.0	GEORGE AIRPORT	4491
37	-33.6	115.4667	5.0	LUDLOW	539
38	-33.033	27.833	5.0	EAST LONDON	3098
39	-32.8833	-68.85	5.0	OBSERV MENDOZA	3075
40	-32.78	-71.51	5.0	QUINTERO (MIL)	28938
41	-32.5667	148.95	5.0	WELLINGTON	948
42	-31.35	-54.117	5.0	BAGE (AEROPORTO)	1012
43	-30.833	128.1	5.0	FORREST AIRPORT	54264
44	-30.5167	151.65	5.0	ARMIDALE	728
45	-30.0833	145.9667	5.0	BOURKE (S23'05'11'17)	130
46	-30.01	131.583	5.0	MARALINGA	7453
47	-29.9667	30.95	5.0	DURBAN/LOUIS BOTHA	29090
48	-28.8	24.767	5.0	KIMBERLEY	9829
49	-28.567	16.533	5.0	KORTDOORN/ALEXANDER	11144
50	-28.25	28.3333	5.0	BETHLEHEM AIRPORT	11390
51	-27.65	152.7167	5.0	AMBERLEY	2455
52	-27.55	135.4833	5.0	OODNADATTA	37900
53	-27.4667	-58.9833	5.0	RESISTENCIA	1200
54	-26.05	22.45	5.0	TSABONG	836
55	-25.783	25.533	5.0	MAFIKENG WO	1154
56	-25.733	28.183	5.0	PRETORIA-EENDRACHT	3937
57	-25.55	45.533	5.0	FAUX-CAP	549
58	-24.667	25.917	5.0	GABORONE	695
59	-23.867	35.383	5.0	INHAMBANE	4808
60	-23.8667	29.45	5.0	PIETERSBURG (SAAF)	13740
61	-23.85	151.25	5.0	GLADSTONE	46725
62	-23.617	-46.65	5.0	SAO PAULO	16840
63	-23.383	43.733	5.0	TOLIARA	5308
64	-23.35	-149.4833	5.0	TUBUAI ISLAND	19527
65	-22.8	47.833	5.0	FARAFANGANA	2385
66	-22.55	45.4	5.0	RANOHIRA	1639
67	-22.483	17.467	5.0	HOSEA KUTAKO INTL A	7483
68	-22.333	40.333	5.0	ILE EUROPA	7597
69	-22.217	30.0	5.0	BEITBRIDGE	3367
70	-22.03	-63.68	5.0	YACUIBA	670
71	-22.0167	-60.6167	5.0	MARISCAL ESTIGARRIBIA	708
72	-21.817	-138.8	5.0	MURUROA	6907
73	-21.75	43.367	5.0	MOROMBE	1328
74	-21.6333	115.1167	5.0	ONSLOW	25950
75	-21.45	47.1	5.0	FIANARANTSOA	1453
76	-21.417	25.6	5.0	LETLHAKANE	693
77	-21.333	55.483	5.0	ST. PIERRE/FONDS	5723
78	-21.233	-175.15	5.0	FUAAMOTU	5436
79	-21.217	27.5	5.0	FRANCISTOWN	613
80	-21.2	48.367	5.0	MANANJARY	4840
81	-21.017	31.583	5.0	BUFFALO RANGE	6492
82	-20.767	167.233	5.0	OUANAHAM	7206
83	-20.7667	-138.55	5.0	TUREIA	271
84	-20.6667	140.5	5.0	CLONCURRY	33366
85	-20.567	164.283	5.0	KOUMAC	11482
86	-20.283	44.317	5.0	MORONDAVA	3268
87	-20.233	169.767	5.0	ANEITYUM	125
88	-20.15	28.617	5.0	BULAWAYO	14661
89	-20.067	30.867	5.0	MASVINGO	8225
90	-19.9061	-144.9494	5.0	HEREHERETUE	7607
91	-19.833	48.8	5.0	MAHANORO	1069
92	-19.783	-47.967	5.0	UBERABA	134
93	-19.683	63.417	5.0	RODRIGUES	10891
94	-19.6	18.117	5.0	GROOTFONTEIN	4094
95	-19.45	29.85	5.0	GWERU	5186
96	-19.28	121.5	5.0	TALGARNO	297
97	-18.9	47.5333	5.0	TANANARIVE/SCM	4211
98	-18.633	26.85	5.0	HWANGE NATIONAL PAR	2189
99	-18.533	32.15	5.0	RUSAPE	2604
100	-18.317	29.883	5.0	KADOMA	1432
101	-18.3167	-59.7667	5.0	ROBORE	144
102	-18.217	28.933	5.0	GOKWE	1693
103	-18.067	-140.95	5.0	HAO	18186
104	-17.917	31.133	5.0	HARARE (KUTSAGA)	926
105	-17.883	36.883	5.0	QUELIMANE	2266
106	-17.8	-63.1833	5.0	SANTA CRUZ/EL TROMPILLO	1454
107	-17.75	168.3	5.0	VILA (EFATE)	12954
108	-17.7333	139.5333	5.0	BURKETOWN	145
109	-17.6833	141.0667	5.0	NORMANTON AIRPORT	229
110	-17.417	32.217	5.0	MUTOKO	4155
111	-17.38	-66.17	5.0	COCHABAMBA	1502
112	-17.3167	123.6333	5.0	DERBY	7081
113	-17.083	49.817	5.0	SAINTE-MARIE AERODR	681
114	-17.05	42.717	5.0	ILE JUAN DE NOVA	5730
115	-16.833	29.617	5.0	KAROI	4958
116	-16.517	-68.183	5.0	LA PAZ/ALTO	4156
117	-16.517	28.883	5.0	KARIBA	2203
118	-16.45	-151.75	5.0	BORA-BORA	11160
119	-16.45	59.617	5.0	ST. BRANDON	5725
120	-16.333	-71.567	5.0	AREQUIPA	3138
121	-16.2667	133.3833	5.0	DALY WATERS	20570
122	-16.183	33.583	5.0	TETE	2074
123	-15.683	34.967	5.0	CHILEKA	10079
124	-15.6	-56.1	5.0	CUIABA	443
125	-15.517	167.217	5.0	PEKOA AIRPORT	661
126	-15.417	28.317	5.0	LUSAKA CITY AIRPORT	9588
127	-15.25	23.15	5.0	MONGU	5748
128	-15.2167	12.1667	5.0	MOCAMEDES	1595
129	-15.1	39.283	5.0	NAMPULA	4237
130	-15.03	40.67	5.0	LUMBO	2531
131	-15.0	50.333	5.0	ANTALAHA	4654
132	-14.95	-147.659	5.0	RANGIROA	5720
133	-14.95	-40.883	5.0	VITORIA DA CONQUIST	123
134	-14.933	13.567	5.0	LUBANGO	236
135	-14.8167	-64.9167	5.0	TRINIDAD	937
136	-14.633	47.767	5.0	ANALALAVA	1607
137	-14.4833	-145.0333	5.0	TAKAROA ATOLL	17249
138	-14.45	-67.53	5.0	RURRENABAQUE	125
139	-14.4167	28.4833	5.0	KABWE	12025
140	-14.3667	-170.7833	5.0	LEONE BAY AMERICAN S	359
141	-14.283	50.167	5.0	SAMBAVA	2763
142	-13.8	-171.783	5.0	APIA	10496
143	-13.75	34.583	5.0	SALIMA	2342
144	-13.733	-76.217	5.0	PISCO	1501
145	-13.55	32.583	5.0	CHIPATA	140
146	-13.367	50.0	5.0	VOHEMAR	807
147	-13.317	48.317	5.0	FASCENE (NOSSI-BE)	786
148	-13.3	35.233	5.0	LICHINGA	1908
149	-13.0	28.65	5.0	NDOLA	2372
150	-12.983	40.533	5.0	PEMBA	3898
151	-12.8	15.75	5.0	HUAMBO	301
152	-12.8	45.2833	5.0	DZAOUDZI/PAMANZI	15117
153	-12.5	177.05	5.0	ROTUMA	6835
154	-12.37	13.53	5.0	LOBITO	100
155	-12.35	49.3	5.0	ANTSIRANANA	8157
156	-12.15	-77.0	5.0	LAS PALMAS	389
157	-12.15	-45.0	5.0	BARREIRAS	1194
158	-12.117	44.433	5.0	OUANI (ANJOUAN)	3271
159	-11.783	19.917	5.0	LUENA (LUSO)	1995
160	-11.75	24.4333	5.0	MWINLUNGA	2872
161	-11.7	43.233	5.0	MORONI AIRPORT	5231
162	-11.583	47.283	5.0	ILES GLORIEUSES	7379
163	-11.3	-41.867	5.0	IRECE	347
164	-11.0333	-68.7833	5.0	COBIJA	222
165	-10.917	-37.05	5.0	ARACAJU	417
166	-10.82	-65.37	5.0	GUAYARAMERIN	618
167	-10.7	-48.4	5.0	PORTO NACIONAL	1005
168	-10.7	152.833	5.0	MISIMA ISLAND	2055
169	-10.7	165.8	5.0	SANTA CRUZ ISLAND	151
170	-10.583	142.217	5.0	THURSDAY IL/HORN IL	21187
171	-10.45	105.7	5.0	CHRISTMAS ISL (PVT)	3447
172	-10.433	56.75	5.0	AGALEGA	2514
173	-10.217	31.133	5.0	KASAMA	3135
174	-9.95	33.883	5.0	KARONGA	2595
175	-9.517	-35.783	5.0	MACEIO (AEROPORTO)	133
176	-9.35	46.533	5.0	ALDABRA	143
177	-9.333	-54.967	5.0	CACHIMBO AERO	2176
178	-9.2	124.367	5.0	OE-CUSSIE	498
179	-9.1	-44.117	5.0	BOM JESUS	376
180	-9.0	-158.05	5.0	PENRHYN	8316
181	-8.933	33.467	5.0	MBEYA	767
182	-8.85	13.233	5.0	LUANDA	8531
183	-8.55	125.55	5.0	DILLI/DILLI AIRPORT	7176
184	-8.367	-74.567	5.0	PUCALLPA	328
185	-7.967	112.7	5.0	MALANG/ABDUL (AFB)	586
186	-7.9667	-14.4	5.0	WIDE AWAKE FIELD	18170
187	-7.633	35.767	5.0	IRINGA	677
188	-7.617	111.517	5.0	MADIUN/ISWAHYUD AFB	3443
189	-7.4	20.817	5.0	DUNDO	6240
190	-7.333	108.25	5.0	CIBEUREM/TASIK(AFB)	625
191	-7.317	-39.3	5.0	BARBALHA	334
192	-7.3	72.4	5.0	DIEGO GARCIA	16326
193	-7.017	-37.267	5.0	PATOS	137
194	-6.833	37.65	5.0	MOROGORO	142
195	-6.783	-79.817	5.0	CHICLAYO	1504
196	-6.733	147.0	5.0	LAE	29138
197	-6.267	-57.733	5.0	JACAREACANGA	287
198	-6.167	35.767	5.0	DODOMA	1096
199	-5.5	-45.267	5.0	BARRA DO CORDA	161
200	-5.217	145.783	5.0	MADANG	18232
201	-5.2	-80.6	5.0	PIURA	919
202	-5.2	-39.3	5.0	QUIXERAMOBIM	334
203	-5.083	32.833	5.0	TABORA AIRPORT	1062
204	-5.083	39.067	5.0	TANGA	776
205	-5.05	-42.817	5.0	TERESINA	313
206	-4.883	29.667	5.0	KIGOMA	112
207	-4.883	38.283	5.0	MOMBO	113
208	-4.567	-81.233	5.0	TALARA	1823
209	-4.45	105.183	5.0	MENGGALA/ASTRA KSET	181
210	-4.217	12.667	5.0	DOLISIE	7834
211	-4.217	152.183	5.0	RABAUL	27818
212	-4.1	122.433	5.0	KENDARI/WOLTER MONG	1064
213	-4.05	-154.9833	5.0	MALDEN ISLAND AF	274
214	-4.033	39.617	5.0	MOMBASA	3673
215	-3.417	37.067	5.0	KILIMANJARO AIRPORT	696
216	-3.4	38.567	5.0	VOI	4508
217	-3.217	40.1	5.0	MALINDI	1769
218	-3.083	-41.783	5.0	PARNAIBA	665
219	-2.767	-171.717	5.0	KANTON ISLAND	16684
220	-2.533	14.767	5.0	DJAMBALA	1376
221	-2.467	32.917	5.0	MWANZA	383
222	-2.283	37.833	5.0	MAKINDU	5723
223	-2.2	-81.0	5.0	CHINCHIPE	601
224	-1.333	31.817	5.0	BUKOBA	1433
225	-1.133	35.833	5.0	NAROK	4802
226	-0.7	8.75	5.0	PORT-GENTIL	10586
227	-0.617	30.65	5.0	MBARARA	114
228	-0.467	39.633	5.0	GARISSA	7179
229	-0.267	36.1	5.0	NAKURU	7184
230	0.183	30.1	5.0	KASESE	419
231	0.383	6.717	5.0	S. TOME	5381
232	0.683	34.167	5.0	TORORO	264
233	1.083	154.767	5.0	KAPINGAMARANGI ATOL	487
234	1.617	18.067	5.0	IMPFONDO	986
235	1.683	31.717	5.0	MASINDI	632
236	1.717	33.617	5.0	SOROTI	112
237	1.75	40.067	5.0	WAJIR	3181
238	1.85	-78.767	5.0	TUMACO	344
239	2.0	-157.4	5.0	CHRISTMAS ISLAND	29424
240	2.033	-56.117	5.0	SIPALIWINI	331
241	2.083	11.483	5.0	BITAM	483
242	2.333	37.983	5.0	MARSABIT	1160
243	3.117	35.617	5.0	LODWAR	8644
244	3.367	-57.333	5.0	COEROENI	254
245	3.533	39.05	5.0	MOYALE	3218
246	3.633	-54.033	5.0	MARIPASOULA	1329
247	3.783	-56.15	5.0	TAFELBERG	228
248	3.833	11.517	5.0	YAOUNDE	7131
249	3.85	-159.367	5.0	FANNING ISLAND	103
250	3.883	-51.8	5.0	SAINT GEORGES	2681
251	3.933	41.867	5.0	MANDERA	3516
252	4.25	15.8	5.0	BERBERATI	2543
253	4.317	21.183	5.0	MOBAYE	150
254	4.35	-54.417	5.0	STOELMANSEILAND	153
255	4.417	-7.367	5.0	TABOU	12633
256	4.467	14.367	5.0	BATOURI	4064
257	4.55	-70.917	5.0	LAS GAVIOTAS	3770
258	4.733	22.833	5.0	BANGASSOU	2199
259	4.883	-1.767	5.0	TAKORADI	135
260	5.3333	163.0167	5.0	KUSAIE/CAROLINES	1652
261	5.45	-55.2	5.0	ZANDERIJ	2383
262	5.467	100.383	5.0	BUTTERWORTH AB	24729
263	5.5	-54.033	5.0	SAINT-LAURENT	3207
264	5.55	12.367	5.0	YOKO	1316
265	5.6	-0.1667	5.0	ACCRA/KOTOKA INTL	3276
266	5.65	10.75	5.0	KOUNDJA	5780
267	5.8833	-162.05	5.0	PALMYRA ISLAND	631
268	5.9	43.583	5.0	GODE	237
269	5.917	169.65	5.0	JALUIT ATOLL	130
270	5.95	-57.033	5.0	NICKERIE	382
271	5.967	15.633	5.0	BOUAR	2424
272	6.25	-10.35	5.0	ROBERTS FIELD	1457
273	6.467	7.55	5.0	ENUGU	469
274	6.483	17.433	5.0	BOSSANGOA	3181
275	6.583	3.333	5.0	LAGOS/IKEJA	3244
276	6.9	122.067	5.0	ZAMBOANGA	4876
277	7.233	-70.8	5.0	GUASDUALITO	356
278	7.3	-61.45	5.0	TUMEREMO	451
279	7.383	143.917	5.0	WOLEAI ATOLL	106
280	7.7	28.017	5.0	WAU	717
281	7.733	-5.067	5.0	BOUAKE	14811
282	8.15	-63.55	5.0	CIUDAD BOLIVAR	641
283	8.28	73.05	5.0	MALIKU	574
284	8.3333	80.4167	5.0	ANURADHAPURA	612
285	8.4	20.65	5.0	NDELE	2173
286	8.617	-13.2	5.0	LUNGI	1194
287	8.8667	2.6	5.0	TCHAOUROU	6364
288	8.983	1.15	5.0	SOKODE	5401
289	9.15	92.81	5.0	CAR NICOBAR	1627
290	9.417	-5.617	5.0	KORHOGO	11845
291	9.467	170.25	5.0	WOTJE ATOLL	299
292	9.5	-7.567	5.0	ODIENNE	140
293	9.5	-0.85	5.0	TAMALE	1562
294	9.5667	-13.6167	5.0	CONAKRY	13759
295	9.6	105.967	5.0	BA-XUYEN/SOC TRANG	170
296	9.617	6.533	5.0	MINNA	440
297	9.75	-63.183	5.0	MATURIN	1184
298	9.8	125.5	5.0	SURIGAO	347
299	9.817	-70.933	5.0	MENE GRANDE	780
300	9.983	98.617	5.0	RANONG	194
301	10.067	-69.317	5.0	BARQUISIMETO	741
302	10.117	-64.683	5.0	BARCELONA	1459
303	10.333	123.9	5.0	LAHUG	2175
304	10.3667	-12.0833	5.0	MAMOU	2746
305	10.3833	-9.3	5.0	KANKAN	11475
306	10.6	-66.983	5.0	CARACAS/MAIQUETIA A	912
307	10.6833	-61.6167	5.0	TRINIDAD BWI	10395
308	10.717	115.833	5.0	NENSHA ISL	436
309	10.85	121.033	5.0	CUYO	270
310	10.917	-63.967	5.0	PORLAMAR	739
311	11.233	169.85	5.0	UTIRIK ATOLL M.ISL	577
312	11.3	167.48	5.0	RONGERIK	145
313	11.3167	-12.3	5.0	LABE	3485
314	11.35	162.35	5.0	ENEWETAK	16361
315	11.52	165.55	5.0	BIKINI	294
316	11.55	43.15	5.0	DJIBOUTI	2487
317	11.783	34.383	5.0	DAMAZINE	1808
318	11.85	13.083	5.0	MAIDUGURI	593
319	11.87	-15.5	5.0	BISSAU	2569
320	12.15	-86.167	5.0	MANAGUA A.C.SANDINO	2831
321	12.433	98.6	5.0	MERGUI	3067
322	12.55	-16.267	5.0	ZIGUINCHOR	40419
323	12.633	-8.033	5.0	BAMAKO	18540
324	12.7	28.433	5.0	EN NAHUD	198
325	12.917	74.883	5.0	MANGALORE/BAJPE	2209
326	13.0667	-9.4833	5.0	KITA	4283
327	13.167	32.667	5.0	AROMA	298
328	13.3	-87.1833	5.0	CHOLUTECA	767
329	13.433	-6.283	5.0	SEGOU	22146
330	13.467	7.083	5.0	MARADI	18936
331	13.567	-89.833	5.0	ACAJUTLA	185
332	13.683	44.15	5.0	TAIZ (CIV/MIL)	449
333	13.7	-89.117	5.0	SAN SALVADOR/ILOPAN	689
334	13.75	-60.98	5.0	VIEUX FORT	815
335	13.85	20.85	5.0	ABECHE	4728
336	13.917	-90.817	5.0	SAN JOSE	1220
337	14.033	35.4	5.0	GEDAREF	238
338	14.05	-87.25	5.0	TEGUCIGALPA	5493
339	14.067	-83.367	5.0	PUERTO CABEZAS	4028
340	14.117	93.367	5.0	COCO ISLAND	985
341	14.4	33.483	5.0	WAD MEDANI	269
342	14.5	-4.2	5.0	MOPTI-SEVARE	11065
343	14.5333	-90.5667	5.0	GUATEMALA CITY	5620
344	14.6	-61.0	5.0	LAMENTIN AERO	9234
345	14.6833	77.6167	5.0	ANANTAPUR	10993
346	14.75	42.967	5.0	HODEIDAH (CIV/MIL)	542
347	14.8	-17.0667	5.0	THIES	3844
348	14.8	100.617	5.0	LOP BURI	837
349	14.9	-23.517	5.0	PRAIA	123
350	15.117	105.783	5.0	PAKSE	590
351	15.117	145.733	5.0	SAIPAN/ISLEY (CGS)	7992
352	15.167	-7.283	5.0	NARA	9645
353	15.283	38.917	5.0	ASMARA	2299
354	15.4167	108.7	5.0	CHU LAI	822
355	15.717	-88.6	5.0	PUERTO BARRIOS	639
356	16.1667	-95.1667	5.0	SALINA CRUZ	556
357	16.267	-0.05	5.0	GAO	33723
358	16.433	101.15	5.0	PHETCHABUN	401
359	16.533	80.8	5.0	VIJAYAWADA/GANNAVA	8012
360	16.55	104.65	5.0	SAVANNAKHET	508
361	16.55	111.617	5.0	HOANG SA (PATTLE)	417
362	16.6	-7.267	5.0	NEMA	14295
363	16.633	-11.4	5.0	KIFFA	4608
364	16.7333	-169.5167	5.0	JOHNSTON IS WSO AP	27741
365	16.7333	-9.6333	5.0	AIOUN ELATROUSS	4231
366	16.767	94.767	5.0	PATHEIN	2065
367	16.883	42.583	5.0	GIZAN	1629
368	16.9	96.183	5.0	MINGALADON	945
369	17.117	-61.783	5.0	COOLIDGE FIELD (UA)	13896
370	17.4	-83.9333	5.0	SWAN ISLAND	22712
371	17.417	104.783	5.0	NAKHON PHANOM	2528
372	17.7	-64.8	5.0	ST CROIX (BENEDICT FIELD)	346
373	17.7	33.967	5.0	ATBARA	361
374	17.9	-62.85	5.0	ST. BARTHELEMY	4048
375	17.95	102.567	5.0	VIENTIANE	2162
376	18.0	19.167	5.0	FAYA	2999
377	18.0167	-66.5	5.0	PONCE LOSEY FIELD	4773
378	18.3	42.8	5.0	KHAMIS MUSHAIT	11138
379	18.433	1.35	5.0	KIDAL	5839
380	18.633	-91.833	5.0	CUIDAD DEL CARMEN	185
381	18.683	12.917	5.0	BILMA	21154
382	18.717	-110.95	5.0	ISLA SOCORRO	9477
383	18.9167	-155.6833	5.0	MORSE FIELD	492
384	19.05	-69.3833	5.0	SABANA DE LA MAR	4059
385	19.1	108.617	5.0	DONGFANG	6890
386	19.167	30.483	5.0	DONGOLA	1444
387	19.2833	166.65	5.0	WAKE IS	38611
388	19.533	33.317	5.0	ABU HAMED	1995
389	19.583	37.217	5.0	PORT SUDAN	2214
390	19.883	102.133	5.0	LUANG-PRABANG	472
391	19.9	-75.217	5.0	GUANTANAMO BAY NAS	23093
392	20.2	0.9833	5.0	TESSALIT	13490
393	20.45	121.967	5.0	BASCO	867
394	20.48	85.87	5.0	CUTTACK	318
395	20.517	-13.067	5.0	ATAR	22233
396	20.667	58.9	5.0	MASIRAH	514
397	20.883	95.9	5.0	MEIKTILA	5141
398	20.899	-156.43	5.0	KAHULUI ARPT/MAUI	19540
399	20.9	70.367	5.0	VERAVAL	17106
400	21.15	-157.1	5.0	MOLOKAI HOMESTEAD FIELD	1921
401	21.217	110.4	5.0	ZHANJIANG	5208
402	21.3	99.617	5.0	KENGTUNG	231
403	21.4	-77.85	5.0	CAMAGUEY	5786
404	21.45	-71.15	5.0	TURKS ISLAND	10548
405	22.0333	-159.7833	5.0	BARKING SANDS	5267
406	22.283	-97.85	5.0	TAMPICO	165
407	22.367	106.75	5.0	LONGZHOU	4011
408	22.37	-73.03	5.0	MAYAGUAN	1160
409	22.45	70.083	5.0	JAMNAGAR	895
410	22.5	103.95	5.0	HEKOU	13535
411	22.767	81.9	5.0	PENDRA ROAD	5308
412	22.77	88.37	5.0	BARAKPUR	388
413	22.783	115.367	5.0	SHANWEI	2322
414	23.167	-82.35	5.0	CASA BLANCA	8864
415	23.217	113.483	5.0	GUANGZHOU	28004
416	23.73	-99.11	5.0	CIUDAD VICTORIA	1366
417	23.8167	5.15	5.0	IN AMGUEL	144
418	23.8833	100.0833	5.0	LINCANG	2076
419	24.067	105.067	5.0	GUANGNAN	5390
420	24.183	120.65	5.0	TAICHUNG (TW-AFB)	4776
421	24.217	23.3	5.0	KUFRA	6321
422	24.267	9.467	5.0	DJANET	6261
423	24.35	109.4	5.0	LIUZHOU	4445
424	24.367	114.483	5.0	LIANPING	20784
425	24.583	73.7	5.0	UDAIPUR	1174
426	24.7	46.733	5.0	RIYADH OBS.	11578
427	24.783	141.333	5.0	IWOTO	16295
428	24.8333	113.5	5.0	CHU CHIANG	1393
429	25.0167	102.8333	5.0	KAN-HAI-TZU	598
430	25.067	121.233	5.0	TAOYUAN AB	13298
431	25.233	-11.617	5.0	BIR MOGHREIN	5175
432	25.2667	-76.3	5.0	ELEUTHERA ISLAND	6389
433	25.2667	63.4833	5.0	PASNI	119
434	25.3667	97.4	5.0	MYITKYINA	3942
435	25.433	105.183	5.0	XINGREN	4750
436	25.433	106.767	5.0	LUODIAN	3236
437	25.45	30.533	5.0	KHARGA	5223
438	25.517	119.783	5.0	PINGTAN	3181
439	25.533	-103.45	5.0	TORREON AIRPORT	1530
440	25.5667	91.8833	5.0	SHILLONG S06 03Z	280
441	25.617	-109.05	5.0	TOPOLOBAMPO	251
442	25.667	32.7	5.0	LUXOR	7013
443	25.8	21.133	5.0	TAZERBO	3989
444	25.85	116.367	5.0	CHANGTING	5057
445	25.88	89.43	5.0	LALMANIR HAT	407
446	25.9	-81.7167	5.0	DELTA SEVEN	436
447	25.967	108.533	5.0	RONGJIANG	2499
448	26.15	119.95	5.0	MAZU (=588490)	4062
449	26.2	36.483	5.0	AL-WEJH	5395
450	26.2333	-97.6667	5.0	HARLINGEN AAF	2317
451	26.267	50.167	5.0	DHAHRAN	17304
452	26.4	-98.35	5.0	MISSION (MOORE FIELD)	2133
453	26.5	8.417	5.0	ILLIZI	502
454	26.6167	-78.3667	5.0	GOLD ROCK CREEK	13583
455	26.717	92.8	5.0	TEZPUR/BINDUKURI	424
456	26.867	100.233	5.0	LIJING	20204
457	26.9667	1.0833	5.0	AOULEF	3606
458	26.983	84.85	5.0	RAXAUL	1140
459	27.117	114.967	5.0	JIAN	4747
460	27.15	33.717	5.0	HURGUADA	2188
461	27.3	105.233	5.0	BIJIE	1335
462	27.333	120.2	5.0	FUDING	4348
463	27.5333	-99.4833	5.0	LAREDO	5690
464	27.6667	98.3833	5.0	LA WANG/TZUKEI	857
465	27.7	85.367	5.0	KATHMANDU AIRPORT	651
466	27.75	89.167	5.0	PAGRI	5820
467	27.883	-0.283	5.0	ADRAR	22304
468	27.95	-80.5667	5.0	VALKARIA	798
469	27.95	108.25	5.0	SINAN	3144
470	28.05	9.633	5.0	IN-AMENAS	12360
471	28.083	30.733	5.0	MINYA	2596
472	28.2	-177.3833	5.0	MIDWAY IS NAS	33263
473	28.417	92.467	5.0	LHUNZE	9321
474	28.45	98.883	5.0	DEQEN	6169
475	28.45	121.883	5.0	DACHEN DAO	18781
476	28.467	-16.25	5.0	STA. CRUZ DE TENERI	22725
477	28.633	87.083	5.0	TINGRI	4882
478	28.817	104.533	5.0	YIBIN	27926
479	28.833	108.767	5.0	YOUYANG	169
480	28.8667	-100.5167	5.0	EAGLE PASS (AAF)	311
481	28.883	-118.3	5.0	ISLA GUADALUPE	13025
482	29.0	135.0	5.0	OCEAN WEATHER SHIP T	5347
483	29.033	21.567	5.0	JALO	3469
484	29.033	101.5	5.0	JIULONG	1437
485	29.0333	66.5833	5.0	KALAT	172
486	29.05	111.683	5.0	CHANGDE	4719
487	29.117	15.933	5.0	HON	3794
488	29.183	25.517	5.0	SIWA	7069
489	29.217	88.917	5.0	XIGAZE	11663
490	29.25	0.283	5.0	TIMIMOUN	9666
491	29.3	117.2	5.0	JINGDEZHEN	5385
492	29.383	113.083	5.0	YUEYANG	4823
493	29.5333	-98.2833	5.0	SAN ANTONIO RANDOLPH AFB	861
494	29.55	34.95	5.0	EILAT	6192
495	29.5667	94.4667	5.0	NYINGCHI	6509
496	29.75	24.533	5.0	GIARABUB	2551
497	29.8833	69.7167	5.0	BARKHAN	1029
498	29.967	-95.35	5.0	HOUSTON/INTERCONTIN	1796
499	29.967	99.067	5.0	BATANG	19656
500	30.0	-140.0	5.0	OCEAN WEATHER SHIP N	19180
501	30.033	122.117	5.0	DINGHAI	3697
502	30.05	101.967	5.0	KANGDING	3716
503	30.133	-2.167	5.0	BENI-ABBES	7838
504	30.133	9.5	5.0	GHADAMES	5808
505	30.167	35.783	5.0	MAAN	595
506	30.2	-97.6667	5.0	AUSTIN (BERGSTROM FIELD)	1076
507	30.383	13.583	5.0	GARIAT EL-SHARGHIA	688
508	30.4	-88.9167	5.0	BILOXI (KEESLER AFB)	2014
509	30.483	140.3	5.0	TORISHIMA	6556
510	30.517	47.783	5.0	BASRAH-HUSSEN	2290
511	30.5333	-91.15	5.0	BATON ROUGE (HARDING FIELD)	1485
512	30.567	2.867	5.0	EL-GOLEA	31528
513	30.6333	-88.0667	5.0	MOBILE (BROOKLEY AFB)	661
514	30.667	104.017	5.0	CHENGDU	34761
515	30.717	20.167	5.0	AGEDABIA	3757
516	30.8	106.083	5.0	NANCHONG	8082
517	30.933	-6.9	5.0	OUARZAZATE	8186
518	30.95	88.633	5.0	XAINZA	12076
519	31.017	46.233	5.0	NASIRIYA	750
520	31.1	-97.717	5.0	FT HOOD AAF/KILLEEN	2923
521	31.167	29.933	5.0	ALEXANDRIA/NOUZHA	2335
522	31.2	16.583	5.0	SIRTE	2738
523	31.217	107.5	5.0	DA XIAN	23565
524	31.233	34.783	5.0	BEER-SHEVA	2318
525	31.25	-82.4	5.0	WAYCROSS WARE CO AP	20191
526	31.2667	-89.25	5.0	HATTIESBURG	1210
527	31.283	32.233	5.0	PORT SAID/EL GAMIL	1814
528	31.367	90.017	5.0	BAINGOIN	11427
529	31.367	130.833	5.0	KANOYA AB	464
530	31.4167	-100.4	5.0	MATHIS FLD/S.ANGELO	2501
531	31.417	95.6	5.0	DENGQEN	6863
532	31.5167	-103.1333	5.0	PYOTE (AFB)	1395
533	31.617	-8.033	5.0	MARRAKECH	9944
534	31.62	25.93	5.0	SIDI BARRANI	1563
535	31.683	9.3	5.0	EL BORMA	1728
536	31.867	10.983	5.0	NALUT	2037
537	31.867	93.767	5.0	SOG XIAN	7101
538	31.867	117.233	5.0	HEFEI	9149
539	31.9	102.233	5.0	BARKAM	6148
540	31.933	-4.4	5.0	ERRACHIDIA	6598
541	31.933	34.833	5.0	BEER-YA AQOV TO 401790	2572
542	31.9333	5.4	5.0	OUARGLA	2887
543	32.05	72.667	5.0	SARGODHA	19138
544	32.067	108.033	5.0	WANYUAN	3574
545	32.1	23.933	5.0	TOBRUK	7553
546	32.133	114.05	5.0	XINYANG	7884
547	32.1667	-110.8833	5.0	TUCSON (DAVIS-MONTHAN AFB)	236
548	32.2167	-98.1833	5.0	STEPHENVILLE	15234
549	32.25	-107.7167	5.0	DEMING AAF	518
550	32.283	-9.233	5.0	SAFI	1179
551	32.317	10.4	5.0	REMADA	9738
552	32.333	-84.833	5.0	FORT BENNING	3790
553	32.3333	-90.2333	5.0	JACKSON (AAB)	400
554	32.35	-104.25	5.0	CARLSBAD AAF	2356
555	32.35	-94.65	5.0	LONGVIEW WSMO	14445
556	32.35	-88.65	5.0	MERIDIAN (KEY FIELD)	2282
557	32.367	-6.4	5.0	BENI-MELLAL	2448
558	32.383	3.817	5.0	GHARDAIA	31999
559	32.383	111.667	5.0	GUANGHUA	3239
560	32.417	15.05	5.0	MISURATA	1073
561	32.43	109.02	5.0	ANKANG	23991
562	32.5	-85.7667	5.0	TUSKEGEE (AAF)	1157
563	32.5	80.067	5.0	SHIQUANHE	10631
564	32.5167	-92.05	5.0	MONROE (SELMAN FIELD)	2178
565	32.683	-4.733	5.0	MIDELT	2966
566	32.717	133.017	5.0	SHIMIZU	5015
567	32.7333	-117.1667	5.0	SAN DIEGO (LINDBERGH FIELD)	248
568	32.883	12.083	5.0	ZUARA	2793
569	32.9	-87.25	5.0	CENTREVILLE WSMO	14447
570	32.9167	-80.6333	5.0	WALTERBORO AAF	499
571	32.967	114.05	5.0	ZHUMADIAN	6626
572	33.033	40.283	5.0	RUTBAH	2392
573	33.233	126.25	5.0	MOESULPO AB	17945
574	33.37	43.57	5.0	AL HABBANIYAH	5634
575	33.383	104.917	5.0	WUDU	27511
576	33.417	36.517	5.0	DAMASCUS INT. AIRPO	10082
577	33.45	-94.0	5.0	TEXARKANA	6925
578	33.4667	-82.0333	5.0	AUGUSTA DANIEL FIELD	2266
579	33.48	-90.98	5.0	GREENVILLE	2188
580	33.5	-90.0833	5.0	GREENWOOD AAF	1164
581	33.5	6.783	5.0	EL-OUED	28456
582	33.583	102.967	5.0	RUOERGAI	2991
583	33.6	-114.75	5.0	BLYTHE	2084
584	33.6167	73.1	5.0	ISLAMABAD AIRPORT	7050
585	33.6333	-88.45	5.0	COLUMBUS AAF	401
586	33.683	1.0	5.0	EL-BAYADH	10962
587	33.6833	-78.9333	5.0	MYRTLE BEACH AAF	2003
588	33.7167	-96.6667	5.0	SHERMAN PERRIN FIELD	1179
589	33.783	114.517	5.0	XIHUA	6675
590	33.8	-106.6667	5.0	STALLION SITE	610
591	33.8	99.8	5.0	DARLAG	12064
592	33.817	35.483	5.0	RAFIC HARIRI INTL	12102
593	33.8667	70.0833	5.0	PARACHINAR	2376
594	33.867	10.767	5.0	DJERBA MELLITA	27692
595	33.883	-5.533	5.0	MEKNES	2167
596	33.95	-83.3167	5.0	ATHENS BEN EPPS AP	28581
597	33.95	92.617	5.0	TUOTUOHE	11291
598	33.98	-98.5	5.0	WICHITA FALLS	113
599	34.0	164.0	5.0	OCEAN WEATHER SHIP V	12375
600	34.05	131.05	5.0	OZUKI AB	303
601	34.15	132.22	5.0	IWAKUNI	2734
602	34.2	-119.0667	5.0	OXNARD (FLIGHT STRIP)	174
603	34.217	-4.0	5.0	TAZA	2441
604	34.217	62.217	5.0	HERAT	1107
605	34.3	-97.0167	5.0	ARDMORE AFB	1195
606	34.3	108.933	5.0	XIAN	36675
607	34.417	8.817	5.0	GAFSA	20537
608	34.583	105.75	5.0	TIANSHUI	6899
609	34.6	138.217	5.0	OMAEZAKI	4148
610	34.65	-99.2667	5.0	ALTUS AFB (OKLA)	2675
611	34.6667	-87.3333	5.0	COURTLAND (AAF)	1491
612	34.683	135.517	5.0	OSAKA	7833
613	34.6833	3.25	5.0	DJELFA	9814
614	34.717	10.683	5.0	SFAX EL-MAOU	30654
615	34.7667	-82.3833	5.0	GREENVILLE DONALDSON AFB	1649
616	34.783	-1.95	5.0	OUJDA	7639
617	34.8	5.733	5.0	BISKRA	19871
618	34.85	119.133	5.0	GANYU	7452
619	34.917	98.217	5.0	MADOI	6085
620	34.933	136.583	5.0	YOKKAICHI	4758
621	35.0	-48.0	5.0	OCEAN WEATHER SHIP E	8767
622	35.0333	-85.2	5.0	CHATTANOOGA	8998
623	35.083	128.083	5.0	SACHEON AB	8441
624	35.117	36.75	5.0	HAMA	741
625	35.169	128.934	5.0	GIMHAE INTL AIRPORT	5577
626	35.183	-3.85	5.0	AL HOCEIMA	4040
627	35.2	-80.95	5.0	CHARLOTTE MORRIS FIELD	602
628	35.217	93.083	5.0	WUDAOLIANG	5083
629	35.2667	-113.95	5.0	KINGMAN (AAF)	1831
630	35.3333	-94.3667	5.0	FT SMITH CAMP CHAFFEE	5244
631	35.35	1.467	5.0	TIARET	280
632	35.3833	-86.2333	5.0	TULLAHOMA WILLIAM NORTHERN AAF	537
633	35.4333	133.35	5.0	YONAGO	60127
634	35.533	35.767	5.0	LATTAKIA	458
635	35.633	-0.6	5.0	ORAN-SENIA	38241
636	35.733	-5.9	5.0	TANGER (AERODROME)	389
637	35.8	140.017	5.0	SHIMOFUSA AB	467
638	35.85	14.483	5.0	LUQA	21963
639	35.867	-78.783	5.0	RALEIGH/RALEIGH-DUR	9591
640	35.9	62.9667	5.0	TAGTABAZAR	13721
641	35.9167	74.3333	5.0	GILGIT	521
642	35.933	39.017	5.0	RAQQA	252
643	35.9667	-116.2667	5.0	SHOSHONE	313
644	36.0	-86.5333	5.0	SMYRNA SEWART AFB	1139
645	36.0333	-102.5333	5.0	DALHART	2180
646	36.05	103.883	5.0	LANZHOU	30960
647	36.05	114.4	5.0	ANYANG	7228
648	36.183	118.15	5.0	YIYUAN	6101
649	36.217	1.333	5.0	CHLEF	3213
650	36.25	-119.95	5.0	LEMOORE	1341
651	36.283	6.617	5.0	CONSTANTINE	21262
652	36.2969	-99.775	5.0	GAGE	586
653	36.3	2.233	5.0	MILIANA	14988
654	36.317	43.15	5.0	MOSUL	884
655	36.333	-97.667	5.0	ENID/VANCE AFB	1147
656	36.333	37.217	5.0	ALEPPO INT. AEROPOR	18332
657	36.4	139.067	5.0	MAEBASHI	5175
658	36.617	128.35	5.0	YECHEON AB	5663
659	36.6667	-121.6167	5.0	SALINAS (AAB)	782
660	36.667	-87.5	5.0	FORT CAMPBELL (AAF)	2026
661	36.683	116.983	5.0	JINAN	33391
662	36.7	119.1167	5.0	WEI HSIEN	254
663	36.75	-104.5	5.0	RATON	5905
664	36.767	126.467	5.0	SEOSAN	566
665	36.833	7.817	5.0	ANNABA	30088
666	36.85	11.083	5.0	KELIBIA	18563
667	36.867	30.733	5.0	ANTALYA	1476
668	36.883	6.9	5.0	SKIKDA	639
669	36.8833	-93.9	5.0	MONETT	18071
670	36.8833	-76.2	5.0	NORFOLK/MUNI (VA)	27148
671	37.017	-7.967	5.0	FARO/AEROPORTO	1831
672	37.05	41.217	5.0	KAMISHLI	136
673	37.0667	-88.7667	5.0	PADUCAH BARKLEY FLD	4390
674	37.1	-113.6	5.0	ST. GEORGE	591
675	37.1	128.8667	5.0	SANGDONG	294
676	37.233	9.817	5.0	BIZERTE	7207
677	37.233	67.267	5.0	TERMEZ	20099
678	37.3167	-121.8667	5.0	SAN JOSE/EMSU	188
679	37.317	97.217	5.0	DELINGHA	10750
680	37.3333	-79.2	5.0	LYNCHBURG	4148
681	37.3667	-120.5667	5.0	CASTLE AFB	3294
682	37.367	-118.367	5.0	BISHOP AIRPORT	1144
683	37.4	122.683	5.0	CHENGSHANTOU	15581
684	37.433	-105.867	5.0	ALAMOSA MUNI(AWOS)	921
685	37.433	127.95	5.0	WONJU AB	6345
686	37.467	53.967	5.0	ESENGYLY	36098
687	37.47	15.07	5.0	CATANIA	912
688	37.4833	116.3667	5.0	TE HSIEN/TECHOW	498
689	37.5	-77.333	5.0	RICHMOND/BYRD FIELD	4674
690	37.5	71.5	5.0	KHOROG	28898
691	37.617	120.317	5.0	LONGKOU	8328
692	37.75	128.95	5.0	GANGNEUNG AB	6015
693	37.78	12.45	5.0	MARSALA	112
694	37.783	-81.117	5.0	BECKLEY	114
695	37.783	-0.8	5.0	MURCIA/SAN JAVIER	1000
696	37.85	91.65	5.0	MANGYA	1192
697	37.85	95.367	5.0	DA-QAIDAM	5439
698	37.9	-121.2333	5.0	STOCKTON (FIELD)	1204
699	37.917	139.05	5.0	NIIGATA	2033
700	37.93	83.65	5.0	ANDIR	14362
701	37.966	124.63	5.0	BAENGNYEONGDO	8261
702	37.987	58.361	5.0	ASHGABAT KESHI	38470
703	38.0	-71.0	5.0	OCEAN WEATHER SHIP H	3274
704	38.05	-103.52	5.0	LA JUNTA	164
705	38.0667	-117.0833	5.0	TONAPAH APRT (NEV)	3624
706	38.2	15.55	5.0	MESSINA	5442
707	38.25	90.85	5.0	MANGNAI	15030
708	38.267	140.9	5.0	SENDAI	57672
709	38.3667	-82.55	5.0	HUNTINGTON TRI STATE AP	35391
710	38.373	-81.6	5.0	YEAGER	1619
711	38.417	-113.017	5.0	MILFORD MUNICIPAL	774
712	38.433	77.267	5.0	SHACHE	15714
713	38.5167	-122.8	5.0	SANTA ROSA (AAF)	213
714	38.55	68.783	5.0	DUSHANBE	35803
715	38.65	-88.9667	5.0	SALEM LECKRONE AP	15223
716	38.733	48.833	5.0	LANKARAN	33653
717	38.733	115.483	5.0	BAODING	9153
718	38.7333	-93.5667	5.0	KNOBNOSTER SEDALIA AFB	1436
719	38.7667	-87.6167	5.0	LAWRENCEVILLE GEORGE FIELD	1385
720	38.8	-97.63	5.0	SALINA	3551
721	38.817	-92.217	5.0	COLUMBIA REGIONAL	19320
722	38.817	35.433	5.0	KAYSERI/ERKILET	1942
723	38.833	93.383	5.0	LENGHU	15645
724	38.95	-95.6667	5.0	TOPEKA (FORBES AFB)	1930
725	39.05	-84.667	5.0	CINCINNATI/GREATER	1311
726	39.083	63.6	5.0	CHARDZHEV	36014
727	39.1	-96.767	5.0	FT RILEY/MARSHALL A	1222
728	39.1	107.983	5.0	OTOG QI	9443
729	39.2	45.417	5.0	NAXCIVAN	914
730	39.283	109.75	5.0	CHASAKOCHI	3515
731	39.367	-101.7	5.0	GOODLAND/RENNER FIE	8448
732	39.383	111.15	5.0	HEQU	8713
733	39.4333	118.9	5.0	LETING	20578
734	39.55	2.617	5.0	PALMA DE MALLORCA	9948
735	39.6667	118.1167	5.0	TANG SHAN	251
736	39.7167	-104.9	5.0	DENVER (LOWRY FIELD)	878
737	39.783	105.75	5.0	JARTAI	9470
738	39.8	78.567	5.0	BACHU	9060
739	39.8167	-82.9333	5.0	COLUMBUS LOCKBOURNE AFB	1438
740	39.867	4.233	5.0	MENORCA/MAHON	165
741	39.983	46.75	5.0	KHANKANDY	657
742	40.083	124.333	5.0	DANDONG	24594
743	40.1	113.333	5.0	DATONG	8658
744	40.12	-103.17	5.0	AKRON	214
745	40.2	-8.417	5.0	COIMBRA	458
746	40.217	69.733	5.0	KHUDJAND	382
747	40.267	97.033	5.0	YUMENZHEN	2942
748	40.3833	-75.9667	5.0	READING AAF	1035
749	40.433	-80.0	5.0	PITTSBURGH/EMSU	544
750	40.55	70.95	5.0	KOKAND	7416
751	40.633	87.7	5.0	TIKANLIK	16175
752	40.6667	-89.6833	5.0	PEORIA GTR PEORIA AP	29195
753	40.733	-114.033	5.0	WENDOVER/AF. AUX. F	1089
754	40.75	104.5	5.0	BAYAN MOD	20474
755	40.783	43.833	5.0	GUMRI	147
756	40.85	35.583	5.0	MERZIFON	1796
757	40.8833	-78.0833	5.0	PHILIPSBURG	5127
758	40.917	72.95	5.0	DZHALAL-ABAD	30741
759	40.933	78.45	5.0	AKQI	5651
760	40.95	-5.5	5.0	SALAMANCA/MATACAN	173
761	40.967	117.917	5.0	CHENGDE	6676
762	40.97	107.17	5.0	XAMBA	1094
763	41.0	-85.2	5.0	FORT WAYNE/BAER FLD	9534
764	41.1167	122.95	5.0	AN SHAN	362
765	41.117	121.067	5.0	JINZHOU	26088
766	41.22	-103.1	5.0	SYDNEY	677
767	41.233	-8.683	5.0	PORTO/PEDRAS RUBRAS	1615
768	41.25	-76.917	5.0	WILLIAMSPORT/LYCOMI	463
769	41.26	80.3	5.0	WEN-SU	9162
770	41.3667	-71.4833	5.0	POINT JUDITH	1724
771	41.433	76.0	5.0	NARYN	13926
772	41.45	31.8	5.0	ZONGULDAK	304
773	41.45	106.383	5.0	HAILS	4738
774	41.5	-88.1667	5.0	JOLIET	7402
775	41.5	-74.1	5.0	NEWBURGH/STEWART AFB	3104
776	41.55	46.667	5.0	ZAKATALA	424
777	41.633	41.6	5.0	BATUMI	7554
778	41.65	25.367	5.0	KURDJALI	9983
779	41.6833	44.95	5.0	TBILISI/NOVOALEXEYE	30083
780	41.7	-86.3167	5.0	SOUTH BEND ST JOSEPH	612
781	41.717	-4.85	5.0	VALLADOLID/VILLANUB	206
782	41.733	64.617	5.0	TAMDY	24209
783	41.75	86.133	5.0	KORLA	21640
784	41.75	103.9667	5.0	PANG-TING-TO-TO-KAI	1057
785	41.7833	95.1333	5.0	XING-XING-XIA	122
786	41.8	12.233	5.0	ROMA FIUMICINO	25186
787	41.833	59.983	5.0	DASHKHOVUZ	40766
788	41.95	21.633	5.0	SKOPJE- AIRPORT	2454
789	42.0833	-91.6167	5.0	CEDAR RAPIDS ECHO SI	1310
790	42.2	-1.45	5.0	BARDENAS REALES	4866
791	42.4	-96.383	5.0	SIOUX CITY MUNI	9727
792	42.4	112.9	5.0	JURH	11935
793	42.45	-2.333	5.0	LOGRONO/AGONCILLO	349
794	42.583	-5.65	5.0	LEON/VIRGEN DEL CAM	200
795	42.5833	-100.0	5.0	AINSWORTH AAF	1523
796	42.7	-68.3	5.0	ENVIRONM BUOY 44005	574
797	42.8167	-108.7333	5.0	LANDER HUNT FLD AP	34519
798	42.833	74.583	5.0	BISHKEK	24813
799	42.933	89.2	5.0	TURPAN	10824
800	42.9667	-83.75	5.0	FLINT BISHOP AP	29048
801	43.0	1.1	5.0	SAINT GIRONS	158
802	43.017	41.033	5.0	SUKHUMI (AGMS)	37578
803	43.167	-86.25	5.0	MUSKEGON	10171
804	43.2	107.167	5.0	HANBOGD	2539
805	43.23	-75.4	5.0	ROME	8975
806	43.3333	145.5833	5.0	NEMURO	57934
807	43.483	91.633	5.0	SHISANJIANFANG	15467
808	43.517	16.433	5.0	SPLIT/MARJAN	4568
809	43.6	118.067	5.0	LINXI	3300
810	43.633	1.367	5.0	TOULOUSE BLAGNAC	1937
811	43.75	24.883	5.0	TR. MAGURELE	218
812	43.88	-69.93	5.0	BRUNSWICK	965
813	43.917	-0.5	5.0	MONT-DE-MARSAN	166
814	43.9333	-91.2833	5.0	LA CROSSE	9613
815	43.983	119.4	5.0	LINDONG	4651
816	44.0	-41.0	5.0	OCEAN WEATHER SHIP D	9766
817	44.017	89.567	5.0	QITAI	9992
818	44.017	145.867	5.0	JUZHNO-KURILSK	37102
819	44.05	43.03	5.0	PJATIGORSK	230
820	44.117	-123.217	5.0	EUGENE/MAHLON SWEET	5856
821	44.117	-77.533	5.0	TRENTON ARPT	142
822	44.167	80.067	5.0	ZHARKENT	23543
823	44.217	28.633	5.0	CONSTANTA	27610
824	44.2667	-71.3	5.0	MOUNT WASHINGTON	506
825	44.317	23.867	5.0	CRAIOVA	548
826	44.55	50.25	5.0	FORT SHEVCHENKO	1177
827	44.567	129.6	5.0	MUDANJIANG	4789
828	44.583	4.733	5.0	MONTELIMAR	189
829	44.583	117.6	5.0	XI UJIMQIN QI	8443
830	44.617	82.9	5.0	JINGHE	10505
831	44.617	114.15	5.0	NARAN BULAG	14093
832	44.633	22.633	5.0	DROBETA TURNU SEVER	953
833	44.6833	34.1333	5.0	SIMFEROPOL	43580
834	44.7833	20.5333	5.0	BEOGRAD/SELENO BRD	8769
835	44.9	110.117	5.0	SAINSHAND	17817
836	45.0	-16.0	5.0	OCEAN WEATHER SHIP K	2558
837	45.0	136.6	5.0	TERNEJ	35417
838	45.15	26.817	5.0	BUZAU	652
839	45.15	29.667	5.0	SULINA	178
840	45.367	90.533	5.0	BAYTIK SHAN	19772
841	45.417	-91.767	5.0	RICE LAKE RGNL CARLS	581
842	45.5	28.2	5.0	GALATI	7351
843	45.55	-94.0667	5.0	ST CLOUD MUNI AP	35321
844	45.6	84.85	5.0	KARAMAY	20097
845	45.667	-0.317	5.0	COGNAC	356
846	45.717	4.95	5.0	LYON-BRON	10582
847	45.767	106.283	5.0	MANDALGOBI	3030
848	45.867	1.183	5.0	LIMOGES	190
849	45.867	22.9	5.0	DEVA	887
850	45.95	-77.317	5.0	PETAWAWA	1273
851	46.0	18.233	5.0	PECS/POGANY	127
852	46.18	45.35	5.0	YASHKUL	3336
853	46.2	150.5	5.0	URUP	29544
854	46.374	-117.015	5.0	LEWISTON NEZ PERCE	432
855	46.533	24.533	5.0	TG. MURES	1169
856	46.5667	-87.4	5.0	MARQUETTE	8748
857	46.583	26.983	5.0	BACAU	1500
858	46.733	83.0	5.0	TACHENG	22028
859	46.767	-56.167	5.0	SAINT-PIERRE	690
860	46.783	61.65	5.0	ARALSKOE MORE	40172
861	46.8	75.083	5.0	BALHASH	36009
862	46.817	130.333	5.0	CHIAMUSSU	2815
863	46.833	-92.183	5.0	DULUTH INTL AIRPORT	8808
864	46.85	151.8667	5.0	SIMUSIR	4608
865	46.9	-71.483	5.0	VALCARTIER AIRPORT	2371
866	47.0	-15.0	5.0	WEATHERSHIP K CIRRUS	477
867	47.017	28.867	5.0	KISINEV	37217
868	47.033	21.9	5.0	ORADEA	822
869	47.0333	-120.5167	5.0	ELLENSBURG	10146
870	47.15	-1.6	5.0	NANTES	256
871	47.167	27.633	5.0	IASI	1100
872	47.1833	-119.3167	5.0	MOSES LAKE (LARSON AFB)	344
873	47.267	5.083	5.0	DIJON	234
874	47.267	16.633	5.0	SZOMBATHELY	183
875	47.3	-54.0	5.0	ARGENTIA	11299
876	47.383	123.917	5.0	QIQIHAR	17927
877	47.45	101.467	5.0	TSETSERLEG	2069
878	47.567	-59.15	5.0	PORT-AUX-BASQUES	2303
879	47.633	26.25	5.0	SUCEAVA	513
880	47.6667	-117.3333	5.0	SPOKANE (FELTS FIELD)	7917
881	47.6667	-52.75	5.0	SAINT JOHN'S ARPT	30095
882	47.733	130.967	5.0	EKATERINO-NIKOLSKOE	30472
883	47.75	96.85	5.0	ULIASTAI	1923
884	47.8	3.55	5.0	AUXERRE	185
885	47.95	-97.4	5.0	GRAND FORKS AFB	517
886	48.017	91.567	5.0	HOVD	3097
887	48.02	7.83	5.0	FREIBURG	1516
888	48.07	5.03	5.0	CHAUMONT	4616
889	48.1333	-123.4167	5.0	PORT ANGELES	3357
890	48.354	11.786	5.0	MUNICH/RIEM	20686
891	48.3833	-124.7333	5.0	TATOOSH ISLAND WB	21960
892	48.55	-109.767	5.0	HAVRE (AMOS)	690
893	48.633	22.267	5.0	UZHHOROD	40708
894	48.65	144.75	5.0	M. TERPENIYA (FL)	7763
895	48.667	116.817	5.0	XIN BARAG YOUQI	12550
896	48.6833	6.2167	5.0	NANCY/ESSEY	32474
897	48.7	-8.9167	5.0	ENVIRONM BUOY 62027	215
898	48.8	103.55	5.0	BULGAN	2639
899	48.917	106.067	5.0	BARUUNHARAA	2895
900	49.067	20.25	5.0	POPRAD/TATRY	15541
901	49.08	16.62	5.0	BRNO REBESOVICE	4516
902	49.2	-123.167	5.0	VANCOUVER INT. AIRP	14056
903	49.3	4.033	5.0	REIMS	179
904	49.6	34.55	5.0	POLTAVA	634
905	49.633	-112.8	5.0	LETHBRIDGE AWOS	9936
906	49.7167	-124.9	5.0	COMOX A	104
907	49.75	10.2	5.0	KITZINGEN AAF	631
908	49.783	-99.633	5.0	SHILO	6238
909	49.9	-97.233	5.0	WINNIPEG INT.AIRPOR	16336
910	49.9031	-98.2842	5.0	PORTAGE SOUTHPORT	554
911	50.0	-145.0	5.0	OCEAN WEATHER SHIP P	12221
912	50.0	88.667	5.0	KOS-AGAC	10486
913	50.017	155.4	5.0	M. VASILYEV	34757
914	50.033	5.4	5.0	ST-HUBERT	26357
915	50.1	14.2833	5.0	PRAHA/RUZYNE	8770
916	50.133	1.833	5.0	ABBEVILLE	116
917	50.133	65.233	5.0	AMANGELDY	15887
918	50.233	-119.283	5.0	VERNON AUTO	15732
919	50.28	-64.17	5.0	MINGAN	632
920	50.28	21.43	5.0	MIELEC	738
921	50.383	-102.683	5.0	BROADVIEW	8722
922	50.417	80.3	5.0	SEMIPALATINSK	42269
923	50.433	-104.667	5.0	REGINA INTL	6105
924	50.6	137.0333	5.0	KOMSOMOLSK-ON-AMUR	33016
925	51.083	-0.217	5.0	CRAWLEY	37592
926	51.083	2.65	5.0	KOKSIJDE	311
927	51.1	-100.05	5.0	DAUPHIN AIRPORT	2648
928	51.11	13.67	5.0	WAHNSDORF	40165
929	51.117	-114.017	5.0	CALGARY INTL	15534
930	51.13	9.28	5.0	FRITZLAR/KASSELER	21333
931	51.133	-106.583	5.0	ELBOW CS	165
932	51.1333	71.3667	5.0	CELINOGRAD	167
933	51.1833	40.7	5.0	KAMENNAYA STEP NO2	6225
934	51.25	51.4	5.0	URALSK	34602
935	51.3833	179.25	5.0	AMCHITKA ISLAND	1908
936	51.4	-3.35	5.0	CARDIFF-WALES ARPT	890
937	51.517	-109.183	5.0	KINDERSLEY ARPT	914
938	51.55	12.0667	5.0	OPPIN	3700
939	51.717	126.65	5.0	HUMA	6620
940	51.733	6.267	5.0	KALKAR	3052
941	51.75	-1.583	5.0	BRIZE NORTON	1008
942	51.85	10.7667	5.0	WERNIGERODE	9806
943	51.883	-176.65	5.0	ADAK (NAS)	33391
944	51.9833	177.5667	5.0	KISKA ISLAND	308
945	52.05	29.25	5.0	MOZYR (AMOS)	6912
946	52.167	-106.717	5.0	SASKATOON DIEFENBAKE	2309
947	52.167	4.433	5.0	VALKENBURG	583
948	52.267	7.433	5.0	NORDHORN	5346
949	52.267	104.317	5.0	IRKUTSK	39087
950	52.4167	-4.0	5.0	CAPEL DEWI	6559
951	52.417	16.85	5.0	POZNAN	31288
952	52.433	-114.917	5.0	ROCKY MTN HOUSE	1475
953	52.467	9.7	5.0	HANNOVER	44613
954	52.483	13.417	5.0	BERLIN/TEMPELHOF	30570
955	52.5	-20.0	5.0	OCEAN WEATHER SHIP J	2559
956	52.67	1.68	5.0	HEMSBY	50217
957	52.733	41.467	5.0	TAMBOV	38381
958	52.75	-35.5	5.0	OCEAN WEATHER SHIP C	13900
959	52.767	-108.25	5.0	NORTH BATTLEFORD	2182
960	52.8	-2.667	5.0	SHAWBURY	561
961	52.8	173.16	5.0	ATTU ISLAND	3463
962	53.05	158.33	5.0	NIKOLAEVKA	127
963	53.067	132.983	5.0	EKIMCHAN	29232
964	53.167	-0.517	5.0	WADDINGTON	992
965	53.2	-70.9	5.0	NITCHEQUON	15444
966	53.217	-105.667	5.0	PRINCE ALBERT ARPT	9605
967	53.25	4.917	5.0	VLIELAND	6803
968	53.38	-167.9	5.0	UMNAK ISLAND	2799
969	53.5333	7.8833	5.0	JEVER	872
970	53.55	-2.917	5.0	AUGHTON	43285
971	53.6167	109.6333	5.0	BARGUZIN	6508
972	53.7333	87.1833	5.0	ABAGUR	181
973	53.833	-89.867	5.0	TROUT LAKE	15743
974	53.85	-94.65	5.0	ISLAND LAKE ARPT	4067
975	53.883	-122.667	5.0	PRINCE GEORGE	30854
976	53.9	-166.53	5.0	DUTCH HARBOR	2953
977	54.0	123.967	5.0	SKOVORODINO	31293
978	54.2	16.1833	5.0	KOSZALIN	1537
979	54.3	-1.533	5.0	LEEMING	777
980	54.75	-110.05	5.0	PRIMROSE LAKE	845
981	54.8	105.167	5.0	ZHIGALOVO	35584
982	55.283	-114.783	5.0	SLAVE LAKE AIRPORT	13183
983	55.317	-3.2	5.0	ESKDALEMUIR	233
984	55.35	-131.65	5.0	KETCHIKAN	5932
985	55.417	-1.6	5.0	BOULMER	13127
986	56.0	92.883	5.0	KRASNOYARSK	40900
987	56.483	21.017	5.0	LIEPAJA	26905
988	56.5	-51.0	5.0	OCEAN WEATHER SHIP B	11583
989	56.65	-111.217	5.0	FORT MCMURRAY ARPT	11470
990	56.8	60.6	5.0	SWERDLOWSK	171
991	56.917	23.967	5.0	RIGA	47749
992	57.1	9.867	5.0	FLYVESTATION AALBOR	4824
993	57.2	-2.217	5.0	ABERDEEN/DYCE AIRPO	421
994	57.58	39.58	5.0	JAROSLAVL	529
995	57.65	-3.567	5.0	KINLOSS	767
996	57.817	28.333	5.0	PSKOV	39213
997	58.217	-6.317	5.0	STORNOWAY	52782
998	59.0	-19.0	5.0	OCEAN WEATHER SHIP I	2647
999	59.35	17.95	5.0	STOCKHOLM/BROMMA	41574
1000	59.933	30.317	5.0	LENINGRAD/CHOSSEYNOR	254
1001	60.2	-166.1	5.0	NUNIVAK AAF	100
1002	60.2	11.083	5.0	OSLO/GARDERMOEN	27726
1003	60.3167	24.9667	5.0	HELSINKI/SEUTALA	4544
1004	60.35	166.0	5.0	KORF	42069
1005	60.38	5.33	5.0	BERGEN	179
1006	60.4833	-145.5	5.0	CORDOVA	2276
1007	61.267	108.2	5.0	ERBOGACEN	35974
1008	61.95	160.8667	5.0	GIZIGA	28015
1009	62.0	-33.0	5.0	OCEAN WEATHER SHIP A	7562
1010	62.1	42.9	5.0	SENKURSK	255
1011	62.1167	-163.75	5.0	MOUNTAIN VILLAGE	147
1012	62.7833	148.1333	5.0	SUSUMAN	12807
1013	62.85	149.76	5.0	SHTURMOVOY	2661
1014	62.97	-141.96	5.0	NORTHWAY	12371
1015	63.017	179.283	5.0	BERINGOVSKAJA	25831
1016	63.183	14.5	5.0	OSTERSUND/FROSON	16859
1017	63.3333	-149.15	5.0	SUMMIT	2843
1018	63.43	-51.18	5.0	MARRAK POINT	353
1019	63.85	-171.6	5.0	GAMBELL	8490
1020	63.9	-160.7833	5.0	UNALAKLEET	1191
1021	64.0	-145.733	5.0	FT GREELY/ALLEN AAF	1398
1022	64.383	-173.233	5.0	BUHTA PROVIDENJA	27529
1023	64.683	170.417	5.0	MARKOVO	33706
1024	64.7167	-156.9	5.0	GALENA	571
1025	64.917	77.817	5.0	TARKO-SALE	33211
1026	65.6167	-168.05	5.0	WALES	863
1027	65.93	-36.68	5.0	IKATEQ	111
1028	66.0	2.0	5.0	OCEAN WEATHER SHIP M	2031
1029	66.167	-169.833	5.0	MYS UELEN	30932
1030	66.567	-145.267	5.0	FORT YUKON	133
1031	67.0	-50.8	5.0	KANGERLUSSUAK	3155
1032	67.47	86.57	5.0	IGARKA	13709
1033	68.23	-135.0	5.0	AKLAVIK	7053
1034	68.47	17.5	5.0	NARVIK	128
1035	68.47	73.6	5.0	MYS KAMENNY	29022
1036	68.65	43.3	5.0	KANIN NOS	4393
1037	69.3667	-152.1333	5.0	UMIAT	611
1038	69.4	86.17	5.0	DUDINKA	5076
1039	69.783	61.783	5.0	AMDERMA	34229
1040	69.9333	167.9667	5.0	AJON ISLAND	9137
1041	70.1333	-143.6333	5.0	BARTER ISLAND WSO AP	25677
1042	70.42	-21.97	5.0	KAP TOBIN	18381
1043	70.45	-68.55	5.0	CLYDE RIVER	13851
1044	70.967	-178.65	5.0	OSTROV VRANGELYA	29474
1045	71.317	-156.617	5.0	SANDIA LAB. D	523
1046	72.0	-125.27	5.0	SACHS HARBOUR	22298
1047	73.0	-85.3	5.0	ARCTIC BAY (NWT)	7539
1048	73.2	143.533	5.0	MYS SHALAUROVA	27652
1049	73.33	70.03	5.0	IM POPOVA	11828
1050	74.67	112.93	5.0	OSTROV PREOBRAZHENIA	28488
1051	76.15	152.83	5.0	OSTROV ZOHOVA	20328
1052	76.1833	62.5667	5.0	RUSSKAJA GAVAN	246
1053	76.25	-119.35	5.0	MOULD BAY	34676
1054	76.533	-68.75	5.0	PITUFFIK	50379
1055	77.23	-62.33	5.0	THULE	119
1056	77.5	82.23	5.0	OSTROV UEDINENIA	24206
1057	77.72	104.28	5.0	MYS CHELIUSKINA	657
1058	78.0667	13.6333	5.0	ISFJORD RADIO	1297
1059	78.8	-103.5	5.0	ISACHSEN	21510
1060	79.5	76.98	5.0	OSTROV VIZE	26148
1061	80.05	18.3	5.0	KINNVIKA STATION	259
1062	81.6	-16.67	5.0	NORD	10981
1063	-78.35	-163.025	5.6	LITTLE AMERICA,LITTLE AMERICA	1819
1064	-77.85	-39.95835	5.6	GENERAL BELGRANO,ELLSWORTH IGY	3920
1065	-43.6315	172.285	5.6	RAKAIA,CHRISTCHURCH	44077
1066	-36.63467924528302	174.74754716981133	5.9	MT TAMAHUNGA,AUCKLAND AIRPORT,AUCKLAND	40740
1067	-17.9585	25.833500000000004	5.6	VICTORIA FALLS,LIVINGSTONE	14079
1068	-13.771499999999998	33.73350000000001	5.6	LILONGWE INTL AIRPO,LILONGWE	15098
1069	-11.6665	33.81699999999999	5.6	MZIMBA,MZUZU	8106
1070	-8.525	126.4835	5.6	KOMORO,BAU CAU	6939
1071	-7.649850000000001	110.5915	5.6	ADISUCIPTO/JOGYAKAR,SURAKARTA/ADISUMARM	6614
1072	-6.725	107.625	5.6	BANDUNG/HUSEIN,KALIJATI	3518
1073	-4.375	15.3415	5.6	KINSHASA/NDJILI,KINSHASA/BINZA	1037
1074	-3.7581499999999997	-73.275	5.6	IQUITOS,MORONA	1396
1075	-0.23349999999999999	35.008500000000005	5.6	KERICHO,KISUMU	10864
1076	0.7499999999999999	35.15	5.6	ELDORET,KITALE	11263
1077	3.1085000000000003	101.6	5.6	PETALING JAYA,KUALA LUMPUR SUBANG	34224
1078	10.541999999999998	-71.69149999999999	5.6	LA CANADA,MARACAIBO-LA CHINIT	1487
1079	10.807311320754717	106.94964716981131	5.9	BIEN HOA (VVBH),BARIA (PHUOC LE),AN LOC	1812
1080	13.825	100.5835	5.6	BANGKOK METROPOLIS,DON MUANG	59253
1081	13.983350000000002	108.33335	5.6	AN KHE (VVAK),PLEIKU AB	922
1082	14.457650000000001	-11.43665	5.6	KAYES,KAYES/DAG-DAG	28913
1083	15.140811320754716	120.40096226415095	5.9	CROW VALLEY GUNNERY,SUBIC BAY WEATHER,CLARK AB	40252
1084	15.45	44.1915	5.6	SANAA,SANA'A (CIV/MIL)	2841
1085	15.616499999999998	73.72349999999999	5.6	GOA/DABOLIM AIRPORT,VENGURLA	2023
1086	16.68459811320755	107.26820566037736	5.9	DONG HA,HUE/PHU BAI,QUANG TRI	2118
1087	18.375	-67.1333	5.6	MAYAGUEZ,AGUADILLA RAMEY AFB	6815
1088	22.2335	120.5915	5.6	467590,DONGGANG (=595530)	26550
1089	22.7165	-12.5915	5.6	FORT GOURAUD,ZOUERATE	12816
1090	23.208499999999997	120.3	5.6	TAINAN (TW-AFB),CHIAYI (TW-AFB)	12503
1091	24.3665	118.258	5.6	CHIANGYANG,CHINMEM/SHATOU(AFB)	10508
1092	25.5	28.993499999999994	5.6	DAKHLA,AL-DAKHLA	7513
1093	26.5257	-80.09970000000001	5.6	BOCA RATON (AAF),WEST PALM BEACH INTL AP	15396
1094	26.608299999999996	-81.78335	5.6	FORT MYERS (PAIGE FIELD),FORT MYERS (BUCKINGHAM AAF)	1286
1095	26.483490566037734	127.7478679245283	5.9	IEJIMA AUXILIARY AB,NAHA,KADENA AB	71318
1096	27.558349999999997	-81.34984999999999	5.6	SEBRING HENDRICKS FIELD,AVON PARK GUNNERY R	13029
1097	27.524196226415096	-82.49558867924529	5.9	TAMPA MACDILL FIELD,VENICE (AAF),SARASOTA AAF	2510
1098	28.351499999999998	28.898500000000002	5.6	BAHARIA,AL-WAHAT AL-BAHRIYA	7028
1099	28.80835	-97.01669999999999	5.6	VICTORIA (ALOE AAF),VICTORIA RGNL AP	19942
1100	28.641509433962266	-81.54464528301887	5.9	LEESBURG (AAF),ORLANDO (PINECASTLE AAF),ORLANDO (AAB)	3240
1101	29.158299999999997	-89.38335	5.6	BURRWOOD,BOOTHVILLE WSCMO CIT	27347
1102	30.2	-89.8083	5.6	NEW ORLEANS (AAB),NASA MISS. TEST	1504
1103	29.877277358490566	-85.37631132075471	5.9	PANAMA CITY (TYNDALL FIELD),CAPE SAN BLAS SITE D 3,APALACHICOLA MUNI	16111
1104	30.357999999999997	-9.492	5.6	AGADIR AL MASSIRA,AGADIR INEZGANNE	17056
1105	30.47428301886792	-86.67775094339622	5.9	EGLIN AFB RANGE NO.,PENSACOLA FOREST SHERMAN NAS,HURLBURT FIELD (AF)	4240
1106	30.64835	-96.51500000000001	5.6	BRYAN,COLLEGE STATION (BRYAN AFB)	2651
1107	30.93315	-93.19985	5.6	DE RIDDER (AFB),FORT POLK (ARMY)	2376
1108	31.05	-83.45	5.6	VALDOSTA MOODY AFB,MOULTRIE SPENCE FIELD	3706
1109	31.100941509433966	-85.16823018867925	5.9	DOTHAN (NAPIER FIELD),MARIANNA (AAF),BAINBRIDGE AAF	3917
1110	31.32418867924528	-92.454	5.9	ALEXANDRIA (ESLER FIELD),CLAIBORNE RNG (AFS),ALEXANDRIA	5329
1111	31.524849999999997	-109.97484999999999	5.6	DOUGLAS (AAF),FORT HUACHUCA	11003
1112	31.589999999999996	-84.10164999999999	5.6	ALBANY,ALBANY TURNER FIELD	1030
1113	31.625149999999998	-97.14185	5.6	WACO RGNL,WACO (JAMES CONNALLY AFB)	11745
1114	31.94185	-81.38315	5.6	FORT STEWART RESERV,SAVANNAH HUNTER AFB	5591
1115	32.26649999999999	35.9165	5.6	AMMAN AIRPORT,IRBED	2006
1116	32.375	-86.61665	5.6	SELMA CRAIG AFB,MONTGOMERY (GUNTER FIELD)	2757
1117	32.66665	-83.625	5.6	WARNER ROBINS ROBINS AFB,MACON COCHRAN FIELD	3363
1118	32.791650000000004	13.225	5.6	TRIPOLI INTL ARPT,WHEELUS	36796
1119	32.7915	22.232999999999997	5.6	DERNA,SHAHAT	6120
1120	32.84185	-116.04985000000002	5.6	EL CENTRO NAF,MOUNT LAGUNA	1966
1121	33.033500000000004	130.1085	5.6	NAGASAKI AIRPORT,SAGA AIRPORT	1005
1122	33.11665000000001	-111.55	5.6	COOLIDGE (AAF),CHANDLER (WILLIAMS FIELD)	2009
1123	33.35	-104.53315	5.6	ROSWELL/INDUSTRIAL,ROSWELL	11787
1124	33.22805660377358	-112.47988301886792	5.9	GILA BEND (AAF),PHOENIX/SKY HARBOR,PHOENIX (LUKE FIELD)	28907
1125	33.61665000000001	-102.025	5.6	REESE AFB,LUBBOCK/MUNI (TEX)	3650
1126	33.7333	-116.35835000000002	5.6	THERMAL (AAF),PALM SPRINGS (AAF)	1759
1127	34.075	-77.95835	5.6	OAK ISLAND,WILMINGTON (NEW HANOVER AP)	2682
1128	33.931603773584904	-80.65039245283019	5.9	SHAW AFB/SUMTER,POINSETT RANGE,COLUMBIA AAB	7611
1129	34.066500000000005	134.6165	5.6	KOMATSUSHIMA AB,TOKUSHIMA AB	5729
1130	34.175	-6.68335	5.6	RABAT,KENITRA PORT LYAUTEY	12678
1131	34.34165	-117.3083	5.6	SAN BERNARDINO (NORTON AFB),VICTORVILLE (GEORGE AFB)	4168
1132	34.34165	-103.55834999999999	5.6	MELROSE GUNNERY RAN,CLOVIS AAF	2278
1133	34.632999999999996	32.9	5.6	AKROTIRI,EPISKOPI	21901
1134	34.775	-120.5085	5.6	SOUTH VANDENBERG AF,SANTA MARIA/PUBLIC (CAL)	16004
1135	34.9665	-79.14984999999999	5.6	LAURINBURG (MAXTON AAB),FORT BRAGG/SIMMONS	2213
1136	35.1315	139.7515	5.6	TATEYAMA AB,YOKOSUKA	1947
1137	35.27385	-116.35664999999999	5.6	BAKER,BICYCLE LAKE (AAF)	2252
1138	35.46685	-75.725	5.6	CAPE HATTERAS WB BLDG,DARE COUNTY GUNNERY	48399
1139	35.3	-117.2665	5.6	CUDDLEBACK GUNNERY,SUPERIOR VALLEY GUN	6790
1140	35.48350000000001	8.4	5.6	TEBESSA,THALA	16947
1141	35.376747169811324	-119.17891509433962	5.9	BAKERSFIELD (MINTER FIELD),TAFT (GARDNER FIELD),BAKERSFIELD	9417
1142	35.7085	10.425	5.6	KAIROUAN,MONASTIR-SKANES	45397
1143	35.933499999999995	-89.675	5.6	DYERSBURG AAF,BLYTHEVILLE AFB	2196
1144	35.9415	129.0335	5.6	DAEGU AB,POHANG AB	6547
1145	36.45	5.1585	5.6	SETIF,BEJAIA-AEROPORT	17970
1146	36.716499999999996	8.775	5.6	JENDOUBA,TABARKA	24747
1147	36.6665	127.4665	5.6	CHEONGJU,CHEONGJU INTL AIRPO	6428
1148	37.47428301886792	126.90662264150944	5.9	GIMPO INTL AIRPORT,SV RI SAN,SEOUL AB	23474
1149	38.57334999999999	-76.94	5.6	DAHLGREN,CAMP SPRINGS (ANDREWS AFB)	3534
1150	38.75834999999999	-121.18499999999999	5.6	SACRAMENTO (MATHER AFB),AUBURN	548
1151	38.885000000000005	-98.96834999999999	5.6	RUSSELL,VICTORIA (WALKER AAF)	1573
1152	38.715792452830186	-104.72005660377359	5.9	AIR FORCE ACADEMY,PUEBLO MEMORIAL(AW),FORT CARSON/BUTTS	11440
1153	40.22610754716982	-122.1679245283019	5.9	REDDING (AAF),CHICO MUNI,RED BLUFF MUNICIPAL	7410
1154	40.666999999999994	46.783500000000004	5.6	EVLAKH AIRPORT,GANDJA	982
1155	40.36294716981132	-73.99728867924527	5.9	NEW YORK JFK AP,LAKEHURST,SPRING LAKE BELMAR	30692
1156	41.058350000000004	-72.325	5.6	WESTHAMPTON SUFFOLK COUNTY AAF,FISHERS ISLAND FORT H G WRIGHT	993
1157	41.15	-111.9917	5.6	OGDEN (HILL AFB),OGDEN	7026
1158	41.98335	-103.20829999999998	5.6	SCOTTSBLUFF AAF,ALLIANCE AAF	1598
1159	42.06665	-72.60830000000001	5.6	WINDSOR LOCKS/BRADLEY FIELD,CHICOPEE FALLS (WESTOVER AFB)	4577
1160	41.72514150943396	-70.16981320754716	5.9	NORTH TRURO,NANTUCKET MEM AP,FALMOUTH OTIS AFB	24582
1161	42.15015	-76.0415	5.6	BINGHAMTON,BINGHAMTON/BROOME C	9283
1162	42.2	42.833000000000006	5.6	SAKARA,KUTAISI	571
1163	42.275	-83.38329999999999	5.6	YPSILANTI,DETROIT METRO.	11811
1164	42.616499999999995	-92.44149999999999	5.6	WATERLOO,WAVERLY	1548
1165	42.91685	-106.40014999999998	5.6	CASPER WYO,CASPER/NATRONA COUN	11626
1166	42.66037924528302	-71.30563584905661	5.9	MANCHESTER (GRENIER FIELD),CAMBRIDGE MIT,BEDFORD HANSCOM AP	2003
1167	43.533500000000004	6.975	5.6	SAINT-RAPHAEL,NICE	667
1168	43.575	-1.3	5.6	BIARRITZ,DAX	1383
1169	43.58315	-119.0	5.6	BURNS MUNI (AMOS),BURNS	9056
1170	45.17682641509435	-83.16989056603775	5.9	ENVIRONM BUOY 45003,ALPENA,ALPENA/PHELPS COLLI	9906
1171	45.641999999999996	-73.583	5.6	MONTREAL/TRUDEAU INT,LASSOMPTION CDA	17931
1172	45.6	25.558	5.6	PREDEAL,BRASOV-GHIMBAV	1501
1173	45.967	21.2835	5.6	TIMISOARA,ARAD	8037
1174	45.80800000000001	24.508	5.6	SIBIU,FAGARAS	967
1175	46.36	121.705	5.6	ULANHOT,TE-PO-SU-K/-MIAO	13962
1176	46.9585	2.04185	5.6	CHATEAUROUX,BOURGES	8557
1177	47.69199999999999	23.191499999999998	5.6	BAIA MARE,SATU MARE	2659
1178	48.0415	9.075	5.6	NEUHAUSEN OB ECK,SIGMARINGEN	21411
1179	48.1665	-103.60814999999998	5.6	WILLISTON,WILLISTON/SLOULIN F	6802
1180	49.5415	11.5585	5.6	FEUCHT(USA-AF),GRAFENWOEHR	4679
1181	49.8	6.935	5.6	BAUMHOLDER (USA-AF),BITBURG	5102
1182	50.09647169811321	8.711471698113208	5.9	HANAU,LANGEN,WIESBADEN	10990
1183	51.05	7.36665	5.6	KOLN/BONN,LUDENSCHEID	2763
1184	51.83585000000001	0.89695	5.6	SHOEBURYNESS,WATTISHAM	11190
1185	53.492000000000004	-113.525	5.6	EDMONTON INTL ARPT,EDMONTON NAMAO ARPT	10372
1186	54.50815	9.75	5.6	KEIL/HOLTENAU,EGGEBECK	18072
1187	54.565	-6.15835	5.6	LONG KESH,BELFAST/ALDERGROVE ARPT	52711
1188	55.70015000000001	12.59985	5.6	KOBENHAVN/KASTRUP,JAEGERSBORG	49140
1189	56.408	-2.867	5.6	LEUCHARS,SHANWELL	38226
1190	57.95	11.9665	5.6	GOTEBURG/TORSLANDA,TORPABRON	20845
1191	61.25834999999999	-149.725	5.6	ANCHORAGE ELMENDORF FIELD,FT. RICHARDSON/BRYANT AHP	1195
1192	68.225	-166.275	5.6	CAPE THOMPSON,POINT HOPE	525
1193	-0.20425	37.275000000000006	6.2	EMBU,NYERI,NANUYKI,MERU	7361
1194	21.449925	-157.93335	6.2	BARBERS POINT NAS,HONOLULU INTL,KANEOHE BAY (MCAF),KAHUKU AAB	35506
1195	32.74175	-106.34592500000001	6.2	WHITE SANDS TEST RG,FRYE SITE,HOLLOMAN AFB,WHITE SANDS MISSILE	21207
1196	33.684174999999996	-117.95407499999999	6.2	CAMP PENDLETON,CA SANTA ANA/ORANGE COUNTY AAF,LOMITA (AAF),LONG BEACH	8921
1197	36.7259	-116.002875	6.2	INDIAN SPRINGS GUNN,MERCURY DESERT ROCK AP,JACKASS FLATS,YUCCA FLATS TEST 21	40991
1198	39.196650000000005	-85.86667500000001	6.2	MADISON JEFFERSON PRVGR,SEYMOUR FREEMAN FIELD,COLUMBUS,INDIANAPOLIS STOUT FIELD	4583
1199	39.5374	-75.24585	6.2	DOVER (AAF),WILMINGTON (NEW CASTLE AAB),ATLANTIC CITY U-A,PHILADELPHIA INTL	22722
1200	47.366675	-122.49165000000002	6.2	OLYMPIA MUN I AP,TACOMA (MCCHORD AFB),SEATTLE-TACOMA INTL,EVERETT (PAINE FIELD)	20528
