	latitude	longitude	radius	station	records
0	-78.5	-163.8	5.0	LITTLE AMERICA	207
1	-33.6	115.4667	5.0	LUDLOW	539
2	-32.5667	148.95	5.0	WELLINGTON	948
3	-30.5167	151.65	5.0	ARMIDALE	728
4	-30.0833	145.9667	5.0	BOURKE (S23'05'11'17)	130
5	-22.03	-63.68	5.0	YACUIBA	670
6	-17.38	-66.17	5.0	COCHABAMBA	1502
7	-14.45	-67.53	5.0	RURRENABAQUE	125
8	-13.55	32.583	5.0	CHIPATA	140
9	-10.82	-65.37	5.0	GUAYARAMERIN	618
10	-2.2	-81.0	5.0	CHINCHIPE	601
11	8.28	73.05	5.0	MALIKU	574
12	15.15	76.95	5.0	BELLARY	989
13	15.85	73.63	5.0	VENGURLA	121
14	17.7	-64.8	5.0	ST CROIX (BENEDICT FIELD)	346
15	18.0167	-66.5	5.0	PONCE LOSEY FIELD	4773
16	18.25	-67.1333	5.0	MAYAGUEZ	104
17	18.9	72.82	5.0	COLABA	973
18	18.9167	-155.6833	5.0	MORSE FIELD	492
19	20.48	85.87	5.0	CUTTACK	318
20	20.57	74.53	5.0	MALEGAON	2563
21	21.15	-157.1	5.0	MOLOKAI HOMESTEAD FIELD	1921
22	21.3333	-157.95	5.0	HONOLULU HICKAM FIELD	2423
23	21.47	83.98	5.0	SAMBALPUR	4315
24	21.7	-157.9667	5.0	KAHUKU AAB	373
25	22.25	91.82	5.0	CHATTAGRAM	1629
26	22.77	88.37	5.0	BARAKPUR	388
27	23.1	-82.43	5.0	VILLA SAN CRISTOBAL DE LA HABA	882
28	23.28	69.67	5.0	BHUJ	1679
29	24.83	92.85	5.0	SILCHAR	1477
30	25.05	73.88	5.0	KANKROLI/RAJSAMAND	1612
31	25.25	55.37	5.0	SHARJAH	2477
32	25.77	87.52	5.0	PURNEA	179
33	25.88	89.43	5.0	LALMANIR HAT	407
34	26.2333	-97.6667	5.0	HARLINGEN AAF	2317
35	26.3667	-80.1	5.0	BOCA RATON (AAF)	1394
36	26.4	-98.35	5.0	MISSION (MOORE FIELD)	2133
37	27.05	88.3	5.0	DARJEELING	116
38	27.4667	-81.3667	5.0	SEBRING HENDRICKS FIELD	1878
39	27.5333	-99.4833	5.0	LAREDO	5690
40	27.7	68.92	5.0	SUKKUR	668
41	27.85	-82.5	5.0	TAMPA MACDILL FIELD	206
42	28.63	77.2	5.0	NEW DEHLI	2068
43	28.7667	-97.1167	5.0	VICTORIA (ALOE AAF)	198
44	28.8	-81.8	5.0	LEESBURG (AAF)	133
45	28.8667	-100.5167	5.0	EAGLE PASS (AAF)	311
46	28.9833	-89.3667	5.0	BURRWOOD	1458
47	29.3333	-100.8833	5.0	DEL RIO TEXAS	18085
48	30.0333	-90.0333	5.0	NEW ORLEANS (AAB)	436
49	30.0667	-85.5833	5.0	PANAMA CITY (TYNDALL FIELD)	1074
50	30.2	-97.6667	5.0	AUSTIN (BERGSTROM FIELD)	1076
51	30.4	-88.9167	5.0	BILOXI (KEESLER AFB)	2014
52	30.5333	-91.15	5.0	BATON ROUGE (HARDING FIELD)	1485
53	30.8333	-93.3667	5.0	DE RIDDER (AFB)	1154
54	30.8333	-85.2	5.0	MARIANNA (AAF)	1082
55	30.9667	-83.2	5.0	VALDOSTA MOODY AFB	1437
56	30.9833	-84.6333	5.0	BAINBRIDGE AAF	1172
57	31.1333	-83.7	5.0	MOULTRIE SPENCE FIELD	2269
58	31.2667	-89.25	5.0	HATTIESBURG	1210
59	31.3167	-85.45	5.0	DOTHAN (NAPIER FIELD)	1663
60	31.4	-92.3	5.0	ALEXANDRIA (ESLER FIELD)	1127
61	31.4667	-109.6167	5.0	DOUGLAS (AAF)	1752
62	31.5167	-103.1333	5.0	PYOTE (AFB)	1395
63	31.6	-84.0833	5.0	ALBANY TURNER FIELD	372
64	31.6333	-97.0667	5.0	WACO (JAMES CONNALLY AFB)	544
65	32.0167	-81.1333	5.0	SAVANNAH HUNTER AFB	1973
66	32.2333	-101.5	5.0	BIG SPRING	13868
67	32.25	-107.7167	5.0	DEMING AAF	518
68	32.3333	-90.2333	5.0	JACKSON (AAB)	400
69	32.35	-104.25	5.0	CARLSBAD AAF	2356
70	32.35	-90.8833	5.0	VICKSBURG	4567
71	32.35	-88.65	5.0	MERIDIAN (KEY FIELD)	2282
72	32.35	-86.9833	5.0	SELMA CRAIG AFB	1440
73	32.4	-86.25	5.0	MONTGOMERY (GUNTER FIELD)	1317
74	32.5	-93.6667	5.0	SHREVEPORT BARKSDALE AFB	8274
75	32.5	-85.7667	5.0	TUSKEGEE (AAF)	1157
76	32.5167	-92.05	5.0	MONROE (SELMAN FIELD)	2178
77	32.7	-83.65	5.0	MACON COCHRAN FIELD	2383
78	32.7333	-117.1667	5.0	SAN DIEGO (LINDBERGH FIELD)	248
79	32.7333	-96.9667	5.0	DALLAS HENSLEY FIELD	505
80	32.8667	-116.4167	5.0	MOUNT LAGUNA	605
81	32.9167	-80.6333	5.0	WALTERBORO AAF	499
82	32.9333	-111.4333	5.0	COOLIDGE (AAF)	100
83	33.4	-104.5333	5.0	ROSWELL	10819
84	33.45	-94.0	5.0	TEXARKANA	6925
85	33.4667	-82.0333	5.0	AUGUSTA DANIEL FIELD	2266
86	33.5	-90.0833	5.0	GREENWOOD AAF	1164
87	33.55	-112.3667	5.0	PHOENIX (LUKE FIELD)	2442
88	33.6	-114.75	5.0	BLYTHE	2084
89	33.6333	-116.1667	5.0	THERMAL (AAF)	348
90	33.6333	-88.45	5.0	COLUMBUS AAF	401
91	33.6833	-78.9333	5.0	MYRTLE BEACH AAF	2003
92	33.7167	-96.6667	5.0	SHERMAN PERRIN FIELD	1179
93	33.8167	-118.3333	5.0	LOMITA (AAF)	146
94	33.8333	-116.55	5.0	PALM SPRINGS (AAF)	1411
95	33.8833	-78.0167	5.0	OAK ISLAND	1470
96	33.95	-81.1167	5.0	COLUMBIA AAB	2011
97	33.98	-98.5	5.0	WICHITA FALLS	113
98	34.05	-6.7667	5.0	RABAT	612
99	34.1	-117.2333	5.0	SAN BERNARDINO (NORTON AFB)	855
100	34.2	-119.0667	5.0	OXNARD (FLIGHT STRIP)	174
101	34.2	-118.3667	5.0	BURBANK	18834
102	34.25	108.93	5.0	SIAN	196
103	34.2667	-77.9	5.0	WILMINGTON (NEW HANOVER AP)	1212
104	34.3833	-103.3167	5.0	CLOVIS AAF	2127
105	34.5833	-117.3833	5.0	VICTORVILLE (GEORGE AFB)	3313
106	34.6667	-87.3333	5.0	COURTLAND (AAF)	1491
107	34.7667	-82.3833	5.0	GREENVILLE DONALDSON AFB	1649
108	34.9167	-81.95	5.0	SPARTANBURG	17820
109	35.0333	-85.2	5.0	CHATTANOOGA	8998
110	35.2	-80.95	5.0	CHARLOTTE MORRIS FIELD	602
111	35.3833	-86.2333	5.0	TULLAHOMA WILLIAM NORTHERN AAF	537
112	35.9	-89.4	5.0	DYERSBURG AAF	821
113	35.9667	-83.9167	5.0	KNOXVILLE (ISLAND AIRPORT)	5122
114	36.0333	-102.5333	5.0	DALHART	2180
115	36.25	-119.95	5.0	LEMOORE	1341
116	36.6667	-121.6167	5.0	SALINAS (AAB)	782
117	36.75	-104.5	5.0	RATON	5905
118	36.77	3.05	5.0	ALGER	2691
119	37.3333	-79.2	5.0	LYNCHBURG	4148
120	37.47	15.07	5.0	CATANIA	912
121	37.5333	-77.4167	5.0	RICHMOND CITY	13174
122	37.6167	-122.3833	5.0	SAN FRANCISCO	1435
123	37.78	12.45	5.0	MARSALA	112
124	37.9	-121.2333	5.0	STOCKTON (FIELD)	1204
125	38.0667	-122.5167	5.0	SAN RAFAEL (HAMILTON AFB)	4890
126	38.1833	-85.7333	5.0	LOUISVILLE	7439
127	38.2333	-104.6333	5.0	PUEBLO	11332
128	38.5167	-122.8	5.0	SANTA ROSA (AAF)	213
129	38.5667	-121.3	5.0	SACRAMENTO (MATHER AFB)	415
130	38.72	-9.15	5.0	LISBOA/GEOFISICO	669
131	38.7333	-93.5667	5.0	KNOBNOSTER SEDALIA AFB	1436
132	38.7667	-87.6167	5.0	LAWRENCEVILLE GEORGE FIELD	1385
133	38.8167	-76.85	5.0	CAMP SPRINGS (ANDREWS AFB)	737
134	38.8333	-85.4167	5.0	MADISON JEFFERSON PRVGR	842
135	38.8833	-79.85	5.0	ELKINS	10236
136	38.9	-99.1167	5.0	VICTORIA (WALKER AAF)	1289
137	38.9333	-85.9167	5.0	SEYMOUR FREEMAN FIELD	1697
138	38.95	-121.07	5.0	AUBURN	133
139	38.95	-95.6667	5.0	TOPEKA (FORBES AFB)	1930
140	39.1	-84.4167	5.0	CINCINNATI (LUNKEN AIRPORT)	17716
141	39.1333	-75.4667	5.0	DOVER (AAF)	888
142	39.6833	-75.6	5.0	WILMINGTON (NEW CASTLE AAB)	1021
143	39.7167	-104.9	5.0	DENVER (LOWRY FIELD)	878
144	39.75	-86.2333	5.0	INDIANAPOLIS STOUT FIELD	891
145	39.8333	-89.6667	5.0	SPRINGFIELD	11873
146	39.9	116.47	5.0	PEIPING	701
147	39.9333	-75.0833	5.0	CAMDEN	1339
148	40.1833	-74.0667	5.0	SPRING LAKE BELMAR	295
149	40.2167	-76.85	5.0	HARRISBURG	11420
150	40.3833	-75.9667	5.0	READING AAF	1035
151	40.5167	-122.3	5.0	REDDING (AAF)	109
152	40.85	-73.9167	5.0	NEW YORK UNIVERSITY	1127
153	40.85	-72.6333	5.0	WESTHAMPTON SUFFOLK COUNTY AAF	828
154	41.0333	-81.4833	5.0	AKRON	11543
155	41.1167	-111.9667	5.0	OGDEN (HILL AFB)	362
156	41.2667	-72.0167	5.0	FISHERS ISLAND FORT H G WRIGHT	165
157	41.3667	-71.4833	5.0	POINT JUDITH	1724
158	41.5	-88.1667	5.0	JOLIET	7402
159	41.6	-109.0667	5.0	ROCK SPRINGS	20297
160	42.0333	-70.0333	5.0	NORTH TRURO	1581
161	42.0833	-76.1	5.0	BINGHAMTON	9174
162	42.1	-102.8333	5.0	ALLIANCE AAF	611
163	42.1667	-76.9	5.0	ELMIRA	1639
164	42.2333	-83.5333	5.0	YPSILANTI	1210
165	42.5833	-100.0	5.0	AINSWORTH AAF	1523
166	42.9167	-112.5333	5.0	POCATELLO	11754
167	42.9167	-106.3333	5.0	CASPER WYO	10206
168	42.9333	-71.4333	5.0	MANCHESTER (GRENIER FIELD)	1073
169	42.95	-87.9	5.0	MILWAUKEE WI AIRPORT	11003
170	43.0667	-76.2667	5.0	SYRACUSE	12089
171	43.5833	-119.05	5.0	BURNS	7351
172	43.9333	-91.2833	5.0	LA CROSSE	9613
173	44.2667	-71.3	5.0	MOUNT WASHINGTON	506
174	44.62	33.53	5.0	SEWASTOPOL	723
175	45.0667	-83.4333	5.0	ALPENA	9221
176	45.9667	-112.5	5.0	BUTTE	12098
177	46.2667	-119.1167	5.0	PASCO	5233
178	46.5667	-87.4	5.0	MARQUETTE	8748
179	47.0	-15.0	5.0	WEATHERSHIP K CIRRUS	477
180	47.0333	-120.5167	5.0	ELLENSBURG	10146
181	47.15	-122.4833	5.0	TACOMA (MCCHORD AFB)	538
182	47.1833	-119.3167	5.0	MOSES LAKE (LARSON AFB)	344
183	47.6667	-117.3333	5.0	SPOKANE (FELTS FIELD)	7917
184	47.9	-122.2833	5.0	EVERETT (PAINE FIELD)	200
185	48.02	7.83	5.0	FREIBURG	1516
186	48.1333	-123.4167	5.0	PORT ANGELES	3357
187	48.15	-103.5833	5.0	WILLISTON	6342
188	48.95	-97.25	5.0	PEMBINA	2575
189	49.6	34.55	5.0	POLTAVA	634
190	49.75	6.98	5.0	TRIER	220
191	50.28	-64.17	5.0	MINGAN	632
192	51.02	11.03	5.0	ERFURT	465
193	51.9833	177.5667	5.0	KISKA ISLAND	308
194	53.38	-167.9	5.0	UMNAK ISLAND	2799
195	54.62	-113.33	5.0	MEANOOK	101
196	55.35	-131.65	5.0	KETCHIKAN	5932
197	56.8	60.6	5.0	SWERDLOWSK	171
198	59.68	30.45	5.0	SLUTSK	186
199	59.78	21.37	5.0	UTO	674
200	59.97	11.03	5.0	KJELLER	1688
201	60.2	-166.1	5.0	NUNIVAK AAF	100
202	60.38	5.33	5.0	BERGEN	179
203	60.4833	-145.5	5.0	CORDOVA	2276
204	60.57	28.63	5.0	SUUR-MERIJOKI	418
205	60.88	26.97	5.0	UTTI	630
206	61.08	-69.55	5.0	CAPE HOPES ADVANCE STATION	661
207	61.25	-149.8	5.0	ANCHORAGE ELMENDORF FIELD	223
208	62.1167	-163.75	5.0	MOUNTAIN VILLAGE	147
209	63.12	23.08	5.0	KAUHAVA	611
210	63.32	30.5	5.0	LIEKSA	148
211	63.3333	-149.15	5.0	SUMMIT	2843
212	63.43	-51.18	5.0	MARRAK POINT	353
213	63.5	-90.7	5.0	CHESTERFIELD INLET	472
214	63.9	-160.7833	5.0	UNALAKLEET	1191
215	64.7167	-156.9	5.0	GALENA	571
216	65.6167	-168.05	5.0	WALES	863
217	65.93	-36.68	5.0	IKATEQ	111
218	67.0	-50.8	5.0	KANGERLUSSUAK	3155
219	68.35	-166.7833	5.0	POINT HOPE	425
220	68.47	17.5	5.0	NARVIK	128
221	69.3667	-152.1333	5.0	UMIAT	611
222	71.17	-24.4	5.0	OSTSTATION	106
223	77.72	104.28	5.0	MYS CHELIUSKINA	657
224	26.608299999999996	-81.78335	5.6	FORT MYERS (PAIGE FIELD),FORT MYERS (BUCKINGHAM AAF)	1286
225	27.233299999999996	-82.49165	5.6	VENICE (AAF),SARASOTA AAF	2304
226	28.5	-81.31665000000001	5.6	ORLANDO (PINECASTLE AAF),ORLANDO (AAB)	3107
227	29.491650000000003	-98.375	5.6	SAN ANTONIO FORT SAM HOUSTON,SAN ANTONIO RANDOLPH AFB	1273
228	30.658299999999997	-88.15	5.6	MOBILE (BROOKLEY AFB),MOBILE	11613
229	33.36665000000001	-111.84169999999999	5.6	CHANDLER (WILLIAMS FIELD),PHOENIX	25079
230	35.29719433962264	-119.20313584905661	5.9	TAFT (GARDNER FIELD),BAKERSFIELD,BAKERSFIELD (MINTER FIELD)	9417
231	35.958349999999996	-86.5	5.6	MURFREESBORO,SMYRNA SEWART AFB	6381
232	39.90835	-82.90830000000001	5.6	COLUMBUS LOCKBOURNE AFB,COLUMBUS	20915
233	40.94275849056604	-78.02580188679245	5.9	KYLERTOWN,PHILIPSBURG,BELLEFONTE	17876
234	42.0062716981132	-72.60374905660377	5.9	CHICOPEE FALLS (WESTOVER AFB),HARTFORD,WINDSOR LOCKS/BRADLEY FIELD	14999
235	42.416700000000006	-71.19165000000001	5.6	CAMBRIDGE MIT,BEDFORD HANSCOM AP	930
