	latitude	longitude	radius	station	records
0	-79.25	-147.5	5.0	LITTLE ROCKFORD	309
1	-77.9667	-38.8	5.0	GENERAL BELGRANO	1782
2	-76.2667	-147.5	5.0	LITTLE ROCKFORD	389
3	-69.5	159.4	5.0	LENINGRADSKAJA	2575
4	-67.667	45.85	5.0	MOLODEZNAJA	13014
5	-63.4667	-56.2833	5.0	PETREL NAS	1654
6	-62.183	-58.883	5.0	BELLINGSHAUSEN AWS	6342
7	-59.45	-27.267	5.0	CORBETA URUGUAY DN	275
8	-53.8	-67.75	5.0	RIO GRANDE AIRPORT	3267
9	-51.6333	-69.2167	5.0	RIO GALLEGOS B. A.	4526
10	-49.3522	70.2433	5.0	PORT-AUX-FRANCAIS	15904
11	-43.78	172.02	5.0	RAKAIA	12147
12	-43.2333	-65.3	5.0	ALMIRANTE ZAR	1150
13	-42.7167	170.9833	5.0	HOKITIKA AERODROME	26036
14	-42.417	173.7	5.0	KAIKOURA	5055
15	-41.3	174.63	5.0	OUTLOOK HILL	11385
16	-39.467	175.683	5.0	WAIOURU	2309
17	-39.0167	174.1833	5.0	NEW PLYMOUTH AERO	31454
18	-38.7333	-62.1667	5.0	COMANDANTE ESPORA	13733
19	-38.6667	177.9833	5.0	GISBORNE AERODROME	28600
20	-37.017	174.8	5.0	AUCKLAND AIRPORT	23125
21	-36.3	174.7	5.0	MT TAMAHUNGA	14698
22	-35.367	-57.283	5.0	PUNTA INDIO B.A.	151
23	-35.1	173.267	5.0	KAITAIA	14537
24	-34.017	22.383	5.0	GEORGE AIRPORT	4491
25	-33.033	27.833	5.0	EAST LONDON	3098
26	-32.8833	-68.85	5.0	OBSERV MENDOZA	3075
27	-31.6667	128.8667	5.0	EUCLA	12086
28	-31.35	-54.117	5.0	BAGE (AEROPORTO)	1012
29	-28.8	24.767	5.0	KIMBERLEY	9829
30	-28.25	28.3333	5.0	BETHLEHEM AIRPORT	11390
31	-26.5333	18.1167	5.0	KEETMANSHOOP	6019
32	-26.05	22.45	5.0	TSABONG	836
33	-25.783	25.533	5.0	MAFIKENG WO	1154
34	-25.55	45.533	5.0	FAUX-CAP	549
35	-25.2333	-57.5167	5.0	AEROPUERTO SILVIO PETTIROSSI	5464
36	-25.0333	46.95	5.0	TAOLAGNARO	29889
37	-24.85	-65.4833	5.0	SALTA AERO	19838
38	-23.8667	29.45	5.0	PIETERSBURG (SAAF)	13740
39	-23.4372	144.2769	5.0	LONGREACH AERO	47067
40	-23.383	43.733	5.0	TOLIARA	5308
41	-23.35	-149.4833	5.0	TUBUAI ISLAND	19527
42	-22.9833	14.65	5.0	WALVIS BAY AIRPORT	1174
43	-22.8	47.833	5.0	FARAFANGANA	2385
44	-22.55	45.4	5.0	RANOHIRA	1639
45	-22.333	40.333	5.0	ILE EUROPA	7597
46	-22.2761	166.4528	5.0	NOUMEA (NLLE-CALEDONIE)	41494
47	-22.217	30.0	5.0	BEITBRIDGE	3367
48	-22.0167	-60.6167	5.0	MARISCAL ESTIGARRIBIA	708
49	-21.817	-138.8	5.0	MURUROA	6907
50	-21.75	43.367	5.0	MOROMBE	1328
51	-21.45	47.1	5.0	FIANARANTSOA	1453
52	-21.417	25.6	5.0	LETLHAKANE	693
53	-21.333	55.483	5.0	ST. PIERRE/FONDS	5723
54	-21.233	-175.15	5.0	FUAAMOTU	5436
55	-21.217	27.5	5.0	FRANCISTOWN	613
56	-21.2	-159.8167	5.0	RAROTONGA	23629
57	-21.2	48.367	5.0	MANANJARY	4840
58	-21.017	31.583	5.0	BUFFALO RANGE	6492
59	-20.8925	55.5286	5.0	SAINT-DENIS/GILLOT (REUNION)	24745
60	-20.767	167.233	5.0	OUANAHAM	7206
61	-20.7667	-138.55	5.0	TUREIA	271
62	-20.567	164.283	5.0	KOUMAC	11482
63	-20.5	-29.3167	5.0	TRINDADE (ILHA)	9829
64	-20.283	44.317	5.0	MORONDAVA	3268
65	-20.233	169.767	5.0	ANEITYUM	125
66	-20.15	28.617	5.0	BULAWAYO	14661
67	-20.067	30.867	5.0	MASVINGO	8225
68	-19.9061	-144.9494	5.0	HEREHERETUE	7607
69	-19.833	48.8	5.0	MAHANORO	1069
70	-19.783	-47.967	5.0	UBERABA	134
71	-19.683	63.417	5.0	RODRIGUES	10891
72	-19.6422	134.1833	5.0	TENNANT CREEK AIRPORT	46728
73	-19.6	18.117	5.0	GROOTFONTEIN	4094
74	-19.45	29.85	5.0	GWERU	5186
75	-19.28	121.5	5.0	TALGARNO	297
76	-18.633	26.85	5.0	HWANGE NATIONAL PAR	2189
77	-18.533	32.15	5.0	RUSAPE	2604
78	-18.317	29.883	5.0	KADOMA	1432
79	-18.3167	-59.7667	5.0	ROBORE	144
80	-18.217	28.933	5.0	GOKWE	1693
81	-18.1	25.85	5.0	VICTORIA FALLS	6409
82	-18.067	-140.95	5.0	HAO	18186
83	-17.7333	-39.25	5.0	CARAVELAS	5524
84	-17.7333	139.5333	5.0	BURKETOWN	145
85	-17.7	168.3	5.0	BAUERFIELD (EFATE)	7305
86	-17.417	32.217	5.0	MUTOKO	4155
87	-17.3167	123.6333	5.0	DERBY	7081
88	-17.083	49.817	5.0	SAINTE-MARIE AERODR	681
89	-17.05	42.717	5.0	ILE JUAN DE NOVA	5730
90	-16.833	29.617	5.0	KAROI	4958
91	-16.517	28.883	5.0	KARIBA	2203
92	-16.45	-151.75	5.0	BORA-BORA	11160
93	-16.45	59.617	5.0	ST. BRANDON	5725
94	-16.333	-71.567	5.0	AREQUIPA	3138
95	-15.8878	54.5206	5.0	SERGE-FROLOW (ILE TROMELIN)	20680
96	-15.683	34.967	5.0	CHILEKA	10079
97	-15.6667	46.35	5.0	MAHAJANGA	36011
98	-15.6	-56.1	5.0	CUIABA	443
99	-15.517	167.217	5.0	PEKOA AIRPORT	661
100	-15.25	23.15	5.0	MONGU	5748
101	-15.1	39.283	5.0	NAMPULA	4237
102	-15.0	50.333	5.0	ANTALAHA	4654
103	-14.95	-147.659	5.0	RANGIROA	5720
104	-14.95	-40.883	5.0	VITORIA DA CONQUIST	123
105	-14.933	13.567	5.0	LUBANGO	236
106	-14.633	47.767	5.0	ANALALAVA	1607
107	-14.4833	-145.0333	5.0	TAKAROA ATOLL	17249
108	-14.3667	-170.7833	5.0	LEONE BAY AMERICAN S	359
109	-14.283	50.167	5.0	SAMBAVA	2763
110	-13.8	-171.783	5.0	APIA	10496
111	-13.75	34.583	5.0	SALIMA	2342
112	-13.733	-76.217	5.0	PISCO	1501
113	-13.367	50.0	5.0	VOHEMAR	807
114	-13.317	48.317	5.0	FASCENE (NOSSI-BE)	786
115	-13.2667	-43.4167	5.0	BOM JESUS DA LAPA	6605
116	-13.0167	-38.5167	5.0	SALVADOR	7952
117	-13.0	28.65	5.0	NDOLA	2372
118	-12.8	45.2833	5.0	DZAOUDZI/PAMANZI	15117
119	-12.5	177.05	5.0	ROTUMA	6835
120	-12.35	49.3	5.0	ANTSIRANANA	8157
121	-12.15	-77.0	5.0	LAS PALMAS	389
122	-12.15	-45.0	5.0	BARREIRAS	1194
123	-12.117	44.433	5.0	OUANI (ANJOUAN)	3271
124	-11.883	33.617	5.0	MZIMBA	4451
125	-11.7	43.233	5.0	MORONI AIRPORT	5231
126	-11.583	47.283	5.0	ILES GLORIEUSES	7379
127	-11.45	34.017	5.0	MZUZU	3655
128	-11.3	-41.867	5.0	IRECE	347
129	-11.0333	-68.7833	5.0	COBIJA	222
130	-10.917	-37.05	5.0	ARACAJU	417
131	-10.7	-48.4	5.0	PORTO NACIONAL	1005
132	-10.7	152.833	5.0	MISIMA ISLAND	2055
133	-10.7	165.8	5.0	SANTA CRUZ ISLAND	151
134	-10.433	56.75	5.0	AGALEGA	2514
135	-10.217	31.133	5.0	KASAMA	3135
136	-9.95	33.883	5.0	KARONGA	2595
137	-9.517	-35.783	5.0	MACEIO (AEROPORTO)	133
138	-9.3833	-40.4833	5.0	PETROLINA	9393
139	-9.35	46.533	5.0	ALDABRA	143
140	-9.333	-54.967	5.0	CACHIMBO AERO	2176
141	-9.2	124.367	5.0	OE-CUSSIE	498
142	-9.1	-44.117	5.0	BOM JESUS	376
143	-9.0	-158.05	5.0	PENRHYN	8316
144	-8.933	33.467	5.0	MBEYA	767
145	-8.55	126.567	5.0	KOMORO	6384
146	-8.367	-74.567	5.0	PUCALLPA	328
147	-7.967	112.7	5.0	MALANG/ABDUL (AFB)	586
148	-7.783	110.433	5.0	ADISUCIPTO/JOGYAKAR	3047
149	-7.633	35.767	5.0	IRINGA	677
150	-7.617	111.517	5.0	MADIUN/ISWAHYUD AFB	3443
151	-7.5167	110.75	5.0	SURAKARTA/ADISUMARM	3567
152	-7.3333	-47.4667	5.0	CAROLINA	5666
153	-7.333	108.25	5.0	CIBEUREM/TASIK(AFB)	625
154	-7.317	-39.3	5.0	BARBALHA	334
155	-7.3	72.4	5.0	DIEGO GARCIA	16326
156	-7.017	-37.267	5.0	PATOS	137
157	-6.9	107.583	5.0	BANDUNG/HUSEIN	2478
158	-6.8667	39.2	5.0	DAR ES SALAAM INT	10437
159	-6.833	37.65	5.0	MOROGORO	142
160	-6.783	-79.817	5.0	CHICLAYO	1504
161	-6.7667	-43.0167	5.0	FLORIANO	7626
162	-6.55	107.667	5.0	KALIJATI	1040
163	-6.267	-57.733	5.0	JACAREACANGA	287
164	-6.167	35.767	5.0	DODOMA	1096
165	-5.5	-45.267	5.0	BARRA DO CORDA	161
166	-5.2	-39.3	5.0	QUIXERAMOBIM	334
167	-5.083	32.833	5.0	TABORA AIRPORT	1062
168	-5.083	39.067	5.0	TANGA	776
169	-5.05	-42.817	5.0	TERESINA	313
170	-4.883	29.667	5.0	KIGOMA	112
171	-4.883	38.283	5.0	MOMBO	113
172	-4.567	-81.233	5.0	TALARA	1823
173	-4.45	105.183	5.0	MENGGALA/ASTRA KSET	181
174	-4.1	122.433	5.0	KENDARI/WOLTER MONG	1064
175	-4.05	-154.9833	5.0	MALDEN ISLAND AF	274
176	-4.033	39.617	5.0	MOMBASA	3673
177	-3.7667	-38.6	5.0	FORTALEZA	9728
178	-3.417	37.067	5.0	KILIMANJARO AIRPORT	696
179	-3.4	38.567	5.0	VOI	4508
180	-3.2944	-60.6283	5.0	MANACAPURU	2770
181	-3.217	40.1	5.0	MALINDI	1769
182	-3.083	-41.783	5.0	PARNAIBA	665
183	-2.533	14.767	5.0	DJAMBALA	1376
184	-2.467	32.917	5.0	MWANZA	383
185	-2.283	37.833	5.0	MAKINDU	5723
186	-1.333	31.817	5.0	BUKOBA	1433
187	-1.133	35.833	5.0	NAROK	4802
188	-0.9	-89.6	5.0	SAN CRISTOBAL RADIOSONDA	3825
189	-0.617	30.65	5.0	MBARARA	114
190	-0.5	37.45	5.0	EMBU	862
191	-0.467	39.633	5.0	GARISSA	7179
192	-0.433	36.967	5.0	NYERI	426
193	-0.367	35.267	5.0	KERICHO	1787
194	-0.267	36.1	5.0	NAKURU	7184
195	-0.1	34.75	5.0	KISUMU	9077
196	0.033	37.033	5.0	NANUYKI	3435
197	0.083	37.65	5.0	MERU	2638
198	0.183	30.1	5.0	KASESE	419
199	0.483	35.3	5.0	ELDORET	1687
200	0.683	34.167	5.0	TORORO	264
201	1.017	35.0	5.0	KITALE	9576
202	1.617	18.067	5.0	IMPFONDO	986
203	1.683	31.717	5.0	MASINDI	632
204	1.717	33.617	5.0	SOROTI	112
205	1.85	-78.767	5.0	TUMACO	344
206	2.0	-157.4	5.0	CHRISTMAS ISLAND	29424
207	2.033	-56.117	5.0	SIPALIWINI	331
208	2.083	11.483	5.0	BITAM	483
209	2.333	37.983	5.0	MARSABIT	1160
210	3.117	35.617	5.0	LODWAR	8644
211	3.367	-57.333	5.0	COEROENI	254
212	3.533	39.05	5.0	MOYALE	3218
213	3.55	-76.3833	5.0	CALI/ALFONSO BONILLA ARAGON	1230
214	3.633	-54.033	5.0	MARIPASOULA	1329
215	3.783	-56.15	5.0	TAFELBERG	228
216	3.85	-159.367	5.0	FANNING ISLAND	103
217	3.883	-51.8	5.0	SAINT GEORGES	2681
218	3.933	41.867	5.0	MANDERA	3516
219	4.1917	73.5292	5.0	MALE	4090
220	4.2167	100.7	5.0	SITIAWAN	52733
221	4.25	15.8	5.0	BERBERATI	2543
222	4.317	21.183	5.0	MOBAYE	150
223	4.35	-54.417	5.0	STOELMANSEILAND	153
224	4.55	-70.917	5.0	LAS GAVIOTAS	3770
225	4.6	-61.1167	5.0	SANTA ELENA DE UAIREN	813
226	4.733	22.833	5.0	BANGASSOU	2199
227	4.883	-1.767	5.0	TAKORADI	135
228	5.45	-55.2	5.0	ZANDERIJ	2383
229	5.5	-54.033	5.0	SAINT-LAURENT	3207
230	5.55	12.367	5.0	YOKO	1316
231	5.6	-0.1667	5.0	ACCRA/KOTOKA INTL	3276
232	5.9	43.583	5.0	GODE	237
233	5.9	118.0667	5.0	SANDAKAN	47253
234	5.917	169.65	5.0	JALUIT ATOLL	130
235	5.95	-57.033	5.0	NICKERIE	382
236	5.967	15.633	5.0	BOUAR	2424
237	6.25	-10.35	5.0	ROBERTS FIELD	1457
238	6.467	7.55	5.0	ENUGU	469
239	6.483	17.433	5.0	BOSSANGOA	3181
240	6.5	3.3833	5.0	LAGOS/OSHODI	1419
241	6.8833	81.8333	5.0	POTTUVIL	151
242	7.233	-70.8	5.0	GUASDUALITO	356
243	7.3	-61.45	5.0	TUMEREMO	451
244	7.383	143.917	5.0	WOLEAI ATOLL	106
245	7.7	28.017	5.0	WAU	717
246	7.85	-72.45	5.0	SAN ANTONIO DEL TACHIRA	3694
247	7.9	-67.4167	5.0	SAN FERNANDO DE APURE	1404
248	8.0333	79.8333	5.0	PUTTALAM	6376
249	8.15	-63.55	5.0	CIUDAD BOLIVAR	641
250	8.3333	80.4167	5.0	ANURADHAPURA	612
251	8.4	20.65	5.0	NDELE	2173
252	8.4089	124.6119	5.0	LUMBIA AIRPORT	3518
253	8.617	-13.2	5.0	LUNGI	1194
254	9.15	18.3833	5.0	SARH	17203
255	9.25	7.0	5.0	ABUJA	972
256	9.417	-5.617	5.0	KORHOGO	11845
257	9.467	170.25	5.0	WOTJE ATOLL	299
258	9.5	-7.567	5.0	ODIENNE	140
259	9.5	-0.85	5.0	TAMALE	1562
260	9.6	105.967	5.0	BA-XUYEN/SOC TRANG	170
261	9.617	6.533	5.0	MINNA	440
262	9.75	-63.183	5.0	MATURIN	1184
263	9.8	125.5	5.0	SURIGAO	347
264	9.817	-70.933	5.0	MENE GRANDE	780
265	9.9333	76.2333	5.0	COCHIN (IN-NAVY)	17051
266	9.983	98.617	5.0	RANONG	194
267	10.067	-69.317	5.0	BARQUISIMETO	741
268	10.117	-64.683	5.0	BARCELONA	1459
269	10.25	-67.65	5.0	MARACAY - B.A. SUCRE	5220
270	10.5	107.1667	5.0	BARIA (PHUOC LE)	747
271	10.6	-66.983	5.0	CARACAS/MAIQUETIA A	912
272	10.6667	-63.25	5.0	CARUPANO	159
273	10.717	115.833	5.0	NENSHA ISL	436
274	10.85	121.033	5.0	CUYO	270
275	10.917	-63.967	5.0	PORLAMAR	739
276	10.9667	106.8167	5.0	BIEN HOA (VVBH)	480
277	11.1167	72.7333	5.0	AMINIDIVI	26613
278	11.5333	-72.9333	5.0	RIOHACHA/ALMIRANTE PADILLA	2967
279	11.55	43.15	5.0	DJIBOUTI	2487
280	11.783	34.383	5.0	DAMAZINE	1808
281	11.85	13.083	5.0	MAIDUGURI	593
282	12.7	28.433	5.0	EN NAHUD	198
283	12.917	74.883	5.0	MANGALORE/BAJPE	2209
284	13.167	32.667	5.0	AROMA	298
285	13.3	-87.1833	5.0	CHOLUTECA	767
286	13.467	7.083	5.0	MARADI	18936
287	13.567	-89.833	5.0	ACAJUTLA	185
288	13.683	44.15	5.0	TAIZ (CIV/MIL)	449
289	13.7	-89.117	5.0	SAN SALVADOR/ILOPAN	689
290	13.85	20.85	5.0	ABECHE	4728
291	13.917	-90.817	5.0	SAN JOSE	1220
292	13.917	100.6	5.0	DON MUANG	780
293	13.9667	108.65	5.0	AN KHE (VVAK)	224
294	14.0	108.0167	5.0	PLEIKU AB	698
295	14.033	35.4	5.0	GEDAREF	238
296	14.05	-87.25	5.0	TEGUCIGALPA	5493
297	14.067	-83.367	5.0	PUERTO CABEZAS	4028
298	14.117	93.367	5.0	COCO ISLAND	985
299	14.3667	-87.6167	5.0	SOTO CANO AB	298
300	14.4	33.483	5.0	WAD MEDANI	269
301	14.482	-11.44	5.0	KAYES/DAG-DAG	16115
302	14.5333	-90.5667	5.0	GUATEMALA CITY	5620
303	14.6	-61.0	5.0	LAMENTIN AERO	9234
304	14.6833	77.6167	5.0	ANANTAPUR	10993
305	14.75	42.967	5.0	HODEIDAH (CIV/MIL)	542
306	14.8	100.617	5.0	LOP BURI	837
307	14.8	120.267	5.0	SUBIC BAY WEATHER	1333
308	14.9	-23.517	5.0	PRAIA	123
309	15.117	105.783	5.0	PAKSE	590
310	15.117	145.733	5.0	SAIPAN/ISLEY (CGS)	7992
311	15.167	-7.283	5.0	NARA	9645
312	15.283	38.917	5.0	ASMARA	2299
313	15.317	120.383	5.0	CROW VALLEY GUNNERY	3166
314	15.4167	75.6333	5.0	GADAG	12739
315	15.4167	108.7	5.0	CHU LAI	822
316	15.717	-88.6	5.0	PUERTO BARRIOS	639
317	16.1667	-95.1667	5.0	SALINA CRUZ	556
318	16.4	107.6833	5.0	HUE/PHU BAI	508
319	16.433	101.15	5.0	PHETCHABUN	401
320	16.533	80.8	5.0	VIJAYAWADA/GANNAVA	8012
321	16.55	104.65	5.0	SAVANNAKHET	508
322	16.55	111.617	5.0	HOANG SA (PATTLE)	417
323	16.633	-11.4	5.0	KIFFA	4608
324	16.7167	-3.0	5.0	TOMBOUCTOU	28543
325	16.767	94.767	5.0	PATHEIN	2065
326	16.883	42.583	5.0	GIZAN	1629
327	16.9	96.183	5.0	MINGALADON	945
328	17.3769	102.8094	5.0	UDON THANI	48194
329	17.417	104.783	5.0	NAKHON PHANOM	2528
330	17.9	-62.85	5.0	ST. BARTHELEMY	4048
331	17.95	102.567	5.0	VIENTIANE	2162
332	18.0	19.167	5.0	FAYA	2999
333	18.2167	109.5833	5.0	SANYA	23144
334	18.3	42.8	5.0	KHAMIS MUSHAIT	11138
335	18.433	1.35	5.0	KIDAL	5839
336	18.633	-91.833	5.0	CUIDAD DEL CARMEN	185
337	18.717	-110.95	5.0	ISLA SOCORRO	9477
338	19.0833	82.0333	5.0	JAGDALPUR	26956
339	19.1	108.617	5.0	DONGFANG	6890
340	19.167	30.483	5.0	DONGOLA	1444
341	19.2667	84.8833	5.0	GOPALPUR	9005
342	19.883	102.133	5.0	LUANG-PRABANG	472
343	20.45	121.967	5.0	BASCO	867
344	20.667	58.9	5.0	MASIRAH	514
345	20.7167	116.7167	5.0	DONGSHA (=597920)	9110
346	20.883	95.9	5.0	MEIKTILA	5141
347	20.899	-156.43	5.0	KAHULUI ARPT/MAUI	19540
348	21.2	72.8333	5.0	SURAT	2307
349	21.217	110.4	5.0	ZHANJIANG	5208
350	21.3	99.617	5.0	KENGTUNG	231
351	21.3333	0.95	5.0	BORDJ-BADJ-MOKHTAR	231
352	21.433	-157.767	5.0	KANEOHE BAY (MCAF)	1432
353	21.4833	109.1	5.0	BEIHAI	9881
354	21.5167	86.9333	5.0	BALASORE	1408
355	21.8333	111.9667	5.0	YANGJIANG	25007
356	21.9167	84.0833	5.0	JHARSIGUDA	8456
357	22.283	-97.85	5.0	TAMPICO	165
358	22.367	106.75	5.0	LONGZHOU	4011
359	22.45	70.083	5.0	JAMNAGAR	895
360	22.6833	121.5	5.0	LU-TAO	3323
361	22.75	-12.483	5.0	ZOUERATE	2072
362	22.767	81.9	5.0	PENDRA ROAD	5308
363	22.783	115.367	5.0	SHANWEI	2322
364	23.25	69.8	5.0	BHUJ-RUDRAMATA	12439
365	23.2833	77.35	5.0	BHOPAL/BAIRAGHAR	35992
366	23.3833	87.0833	5.0	BANKURA	1420
367	23.467	120.383	5.0	CHIAYI (TW-AFB)	6409
368	23.8	114.7333	5.0	HEYUAN	2983
369	23.8167	5.15	5.0	IN AMGUEL	144
370	23.8833	91.25	5.0	AGARTALA	37876
371	23.8833	100.0833	5.0	LINCANG	2076
372	23.9833	121.6	5.0	HUA-LIEN CITY	17027
373	24.067	105.067	5.0	GUANGNAN	5390
374	24.183	120.65	5.0	TAICHUNG (TW-AFB)	4776
375	24.217	23.3	5.0	KUFRA	6321
376	24.267	9.467	5.0	DJANET	6261
377	24.35	109.4	5.0	LIUZHOU	4445
378	24.367	114.483	5.0	LIANPING	20784
379	24.583	73.7	5.0	UDAIPUR	1174
380	24.7	46.733	5.0	RIYADH OBS.	11578
381	24.7	108.0333	5.0	HECHI	22855
382	24.7667	93.9	5.0	IMPHAL/TULIHAL	19897
383	25.0167	102.8333	5.0	KAN-HAI-TZU	598
384	25.05	-77.4667	5.0	NASSAU AIRPORT NEW PROVIDENCE	14365
385	25.15	75.85	5.0	KOTA AERODROME	1768
386	25.2667	63.4833	5.0	PASNI	119
387	25.3667	97.4	5.0	MYITKYINA	3942
388	25.3833	68.4167	5.0	HYDERABAD	934
389	25.433	105.183	5.0	XINGREN	4750
390	25.433	106.767	5.0	LUODIAN	3236
391	25.5	28.967	5.0	DAKHLA	4922
392	25.517	119.783	5.0	PINGTAN	3181
393	25.533	-103.45	5.0	TORREON AIRPORT	1530
394	25.617	-109.05	5.0	TOPOLOBAMPO	251
395	25.75	71.3833	5.0	BARMER	2587
396	25.8	21.133	5.0	TAZERBO	3989
397	25.85	116.367	5.0	CHANGTING	5057
398	25.9	-81.7167	5.0	DELTA SEVEN	436
399	25.967	108.533	5.0	RONGJIANG	2499
400	26.15	119.95	5.0	MAZU (=588490)	4062
401	26.2	36.483	5.0	AL-WEJH	5395
402	26.2	127.683	5.0	NAHA	45567
403	26.2003	32.7467	5.0	SOUTH OF VALLEY UNIVERSITY	4197
404	26.267	50.167	5.0	DHAHRAN	17304
405	26.5	8.417	5.0	ILLIZI	502
406	26.717	92.8	5.0	TEZPUR/BINDUKURI	424
407	26.717	127.783	5.0	IEJIMA AUXILIARY AB	1571
408	26.867	100.233	5.0	LIJING	20204
409	26.9667	64.1	5.0	PANJGUR	8843
410	26.983	84.85	5.0	RAXAUL	1140
411	27.0167	14.45	5.0	SEBHA	3998
412	27.117	114.967	5.0	JIAN	4747
413	27.3	105.233	5.0	BIJIE	1335
414	27.333	120.2	5.0	FUDING	4348
415	27.5667	81.6	5.0	BAHRAICH	9170
416	27.65	-81.333	5.0	AVON PARK GUNNERY R	11151
417	27.7	85.367	5.0	KATHMANDU AIRPORT	651
418	27.75	89.167	5.0	PAGRI	5820
419	27.8333	66.6333	5.0	KHUZDAR	1098
420	27.883	-0.283	5.0	ADRAR	22304
421	27.95	-80.5667	5.0	VALKARIA	798
422	27.95	108.25	5.0	SINAN	3144
423	28.05	9.633	5.0	IN-AMENAS	12360
424	28.083	30.733	5.0	MINYA	2596
425	28.333	28.867	5.0	BAHARIA	5180
426	28.417	92.467	5.0	LHUNZE	9321
427	28.45	98.883	5.0	DEQEN	6169
428	28.467	-16.25	5.0	STA. CRUZ DE TENERI	22725
429	28.633	87.083	5.0	TINGRI	4882
430	28.8167	62.75	5.0	NOKKUNDI	1323
431	28.833	108.767	5.0	YOUYANG	169
432	28.883	-118.3	5.0	ISLA GUADALUPE	13025
433	29.033	21.567	5.0	JALO	3469
434	29.033	101.5	5.0	JIULONG	1437
435	29.0333	66.5833	5.0	KALAT	172
436	29.05	111.683	5.0	CHANGDE	4719
437	29.117	15.933	5.0	HON	3794
438	29.217	88.917	5.0	XIGAZE	11663
439	29.2425	47.9714	5.0	KUWAIT INTERNATIONAL AIRPORT	36208
440	29.25	0.283	5.0	TIMIMOUN	9666
441	29.3	117.2	5.0	JINGDEZHEN	5385
442	29.383	113.083	5.0	YUEYANG	4823
443	29.55	34.95	5.0	EILAT	6192
444	29.5667	94.4667	5.0	NYINGCHI	6509
445	29.6833	-85.35	5.0	CAPE SAN BLAS SITE D 3	2507
446	29.75	24.533	5.0	GIARABUB	2551
447	29.8833	69.7167	5.0	BARKHAN	1029
448	29.95	73.25	5.0	BAHAWALNAGAR	1115
449	29.967	-95.35	5.0	HOUSTON/INTERCONTIN	1796
450	29.967	99.067	5.0	BATANG	19656
451	30.033	122.117	5.0	DINGHAI	3697
452	30.05	101.967	5.0	KANGDING	3716
453	30.133	-2.167	5.0	BENI-ABBES	7838
454	30.133	9.5	5.0	GHADAMES	5808
455	30.167	35.783	5.0	MAAN	595
456	30.3333	76.4667	5.0	PATIALA	23763
457	30.3667	-89.5833	5.0	NASA MISS. TEST	1068
458	30.383	13.583	5.0	GARIAT EL-SHARGHIA	688
459	30.567	2.867	5.0	EL-GOLEA	31528
460	30.717	20.167	5.0	AGEDABIA	3757
461	30.8	106.083	5.0	NANCHONG	8082
462	30.933	-6.9	5.0	OUARZAZATE	8186
463	30.95	88.633	5.0	XAINZA	12076
464	31.017	46.233	5.0	NASIRIYA	750
465	31.033	-93.033	5.0	FORT POLK (ARMY)	1222
466	31.1	-97.717	5.0	FT HOOD AAF/KILLEEN	2923
467	31.183	-92.633	5.0	CLAIBORNE RNG (AFS)	3303
468	31.2	16.583	5.0	SIRTE	2738
469	31.217	107.5	5.0	DA XIAN	23565
470	31.233	34.783	5.0	BEER-SHEVA	2318
471	31.283	32.233	5.0	PORT SAID/EL GAMIL	1814
472	31.367	90.017	5.0	BAINGOIN	11427
473	31.367	130.833	5.0	KANOYA AB	464
474	31.417	95.6	5.0	DENGQEN	6863
475	31.5	65.85	5.0	KANDAHAR AIRPORT	5934
476	31.617	-8.033	5.0	MARRAKECH	9944
477	31.683	9.3	5.0	EL BORMA	1728
478	31.8667	34.6833	5.0	ASHDOD NORTH	1453
479	31.867	-81.633	5.0	FORT STEWART RESERV	3618
480	31.867	10.983	5.0	NALUT	2037
481	31.867	93.767	5.0	SOG XIAN	7101
482	31.867	117.233	5.0	HEFEI	9149
483	31.9	54.2833	5.0	YAZD	1516
484	31.9	102.233	5.0	BARKAM	6148
485	31.933	-4.4	5.0	ERRACHIDIA	6598
486	31.9333	5.4	5.0	OUARGLA	2887
487	31.983	35.983	5.0	AMMAN AIRPORT	1315
488	32.05	72.667	5.0	SARGODHA	19138
489	32.067	108.033	5.0	WANYUAN	3574
490	32.133	114.05	5.0	XINYANG	7884
491	32.2167	-98.1833	5.0	STEPHENVILLE	15234
492	32.283	-9.233	5.0	SAFI	1179
493	32.317	10.4	5.0	REMADA	9738
494	32.333	-84.833	5.0	FORT BENNING	3790
495	32.35	-94.65	5.0	LONGVIEW WSMO	14445
496	32.367	-6.4	5.0	BENI-MELLAL	2448
497	32.383	3.817	5.0	GHARDAIA	31999
498	32.383	111.667	5.0	GUANGHUA	3239
499	32.417	15.05	5.0	MISURATA	1073
500	32.43	109.02	5.0	ANKANG	23991
501	32.5	-106.4167	5.0	FRYE SITE	155
502	32.5	74.5333	5.0	SIALKOT	942
503	32.5	80.067	5.0	SHIQUANHE	10631
504	32.55	35.85	5.0	IRBED	691
505	32.683	-4.733	5.0	MIDELT	2966
506	32.6833	13.1667	5.0	TRIPOLI INTL ARPT	18212
507	32.717	133.017	5.0	SHIMIZU	5015
508	32.8	21.883	5.0	SHAHAT	1530
509	32.817	-115.683	5.0	EL CENTRO NAF	1361
510	32.883	12.083	5.0	ZUARA	2793
511	32.9	-87.25	5.0	CENTREVILLE WSMO	14447
512	32.917	129.917	5.0	NAGASAKI AIRPORT	506
513	32.933	-112.7	5.0	GILA BEND (AAF)	19204
514	32.967	114.05	5.0	ZHUMADIAN	6626
515	33.033	40.283	5.0	RUTBAH	2392
516	33.15	130.3	5.0	SAGA AIRPORT	499
517	33.2939	126.1628	5.0	GOSAN	21028
518	33.417	36.517	5.0	DAMASCUS INT. AIRPO	10082
519	33.45	-111.95	5.0	WFO PHOENIX	4904
520	33.5	6.783	5.0	EL-OUED	28456
521	33.5333	-0.2833	5.0	MECHERIA	6933
522	33.583	102.967	5.0	RUOERGAI	2991
523	33.6167	73.1	5.0	ISLAMABAD AIRPORT	7050
524	33.683	1.0	5.0	EL-BAYADH	10962
525	33.783	114.517	5.0	XIHUA	6675
526	33.8	99.8	5.0	DARLAG	12064
527	33.85	-80.483	5.0	POINSETT RANGE	3637
528	33.8667	70.0833	5.0	PARACHINAR	2376
529	33.867	10.767	5.0	DJERBA MELLITA	27692
530	33.883	-5.533	5.0	MEKNES	2167
531	33.95	92.617	5.0	TUOTUOHE	11291
532	34.05	131.05	5.0	OZUKI AB	303
533	34.0803	111.0728	5.0	LUSHI	26483
534	34.217	-4.0	5.0	TAZA	2441
535	34.217	62.217	5.0	HERAT	1107
536	34.3	-103.8	5.0	MELROSE GUNNERY RAN	151
537	34.417	8.817	5.0	GAFSA	20537
538	34.583	105.75	5.0	TIANSHUI	6899
539	34.6	-86.6333	5.0	REDSTONE ARSENAL	2583
540	34.6	138.217	5.0	OMAEZAKI	4148
541	34.65	-120.567	5.0	SOUTH VANDENBERG AF	6218
542	34.6833	3.25	5.0	DJELFA	9814
543	34.717	10.683	5.0	SFAX EL-MAOU	30654
544	34.7503	137.703	5.0	HAMAMATSU AB	37467
545	34.783	-1.95	5.0	OUJDA	7639
546	34.8	5.733	5.0	BISKRA	19871
547	34.85	119.133	5.0	GANYU	7452
548	34.917	98.217	5.0	MADOI	6085
549	34.933	136.583	5.0	YOKKAICHI	4758
550	34.983	139.833	5.0	TATEYAMA AB	533
551	35.117	36.75	5.0	HAMA	741
552	35.133	-78.933	5.0	FORT BRAGG/SIMMONS	159
553	35.169	128.934	5.0	GIMHAE INTL AIRPORT	5577
554	35.183	-3.85	5.0	AL HOCEIMA	4040
555	35.217	93.083	5.0	WUDAOLIANG	5083
556	35.281	-116.63	5.0	BICYCLE LAKE (AAF)	1660
557	35.35	1.467	5.0	TIARET	280
558	35.417	8.117	5.0	TEBESSA	6009
559	35.533	35.767	5.0	LATTAKIA	458
560	35.55	8.683	5.0	THALA	10938
561	35.633	-0.6	5.0	ORAN-SENIA	38241
562	35.667	-75.9	5.0	DARE COUNTY GUNNERY	5845
563	35.667	10.1	5.0	KAIROUAN	22918
564	35.733	-5.9	5.0	TANGER (AERODROME)	389
565	35.75	10.75	5.0	MONASTIR-SKANES	22479
566	35.8	140.017	5.0	SHIMOFUSA AB	467
567	35.9	128.65	5.0	DAEGU AB	5685
568	35.9167	74.3333	5.0	GILGIT	521
569	35.933	39.017	5.0	RAQQA	252
570	35.983	129.417	5.0	POHANG AB	862
571	36.05	114.4	5.0	ANYANG	7228
572	36.183	5.25	5.0	SETIF	5598
573	36.183	118.15	5.0	YIYUAN	6101
574	36.217	1.333	5.0	CHLEF	3213
575	36.283	6.617	5.0	CONSTANTINE	21262
576	36.3	2.233	5.0	MILIANA	14988
577	36.317	43.15	5.0	MOSUL	884
578	36.4	139.067	5.0	MAEBASHI	5175
579	36.483	8.8	5.0	JENDOUBA	19808
580	36.533	-115.667	5.0	INDIAN SPRINGS GUNN	335
581	36.617	128.35	5.0	YECHEON AB	5663
582	36.6667	68.9167	5.0	KUNDUZ	4540
583	36.7	67.2	5.0	MAZAR-I-SHARIF	2179
584	36.7	119.1167	5.0	WEI HSIEN	254
585	36.717	5.067	5.0	BEJAIA-AEROPORT	12372
586	36.767	126.467	5.0	SEOSAN	566
587	36.833	7.817	5.0	ANNABA	30088
588	36.85	11.083	5.0	KELIBIA	18563
589	36.867	30.733	5.0	ANTALYA	1476
590	36.883	6.9	5.0	SKIKDA	639
591	36.8833	-93.9	5.0	MONETT	18071
592	36.95	8.75	5.0	TABARKA	4939
593	37.017	-7.967	5.0	FARO/AEROPORTO	1831
594	37.05	41.217	5.0	KAMISHLI	136
595	37.0667	-88.7667	5.0	PADUCAH BARKLEY FLD	4390
596	37.1	128.8667	5.0	SANGDONG	294
597	37.1808	114.3589	5.0	XINGTAI	26266
598	37.233	9.817	5.0	BIZERTE	7207
599	37.233	67.267	5.0	TERMEZ	20099
600	37.3167	-121.8667	5.0	SAN JOSE/EMSU	188
601	37.317	97.217	5.0	DELINGHA	10750
602	37.4	122.683	5.0	CHENGSHANTOU	15581
603	37.433	-105.867	5.0	ALAMOSA MUNI(AWOS)	921
604	37.433	127.95	5.0	WONJU AB	6345
605	37.617	120.317	5.0	LONGKOU	8328
606	37.75	128.95	5.0	GANGNEUNG AB	6015
607	37.783	-81.117	5.0	BECKLEY	114
608	37.783	-0.8	5.0	MURCIA/SAN JAVIER	1000
609	37.85	95.367	5.0	DA-QAIDAM	5439
610	37.9025	127.7358	5.0	CHUNCHEON	397
611	37.917	139.05	5.0	NIIGATA	2033
612	37.93	83.65	5.0	ANDIR	14362
613	37.966	124.63	5.0	BAENGNYEONGDO	8261
614	38.0	-71.0	5.0	OCEAN WEATHER SHIP H	3274
615	38.25	90.85	5.0	MANGNAI	15030
616	38.2508	128.5647	5.0	SOKCHO	10880
617	38.283	-104.5	5.0	PUEBLO MEMORIAL(AW)	1430
618	38.373	-81.6	5.0	YEAGER	1619
619	38.417	-113.017	5.0	MILFORD MUNICIPAL	774
620	38.433	77.267	5.0	SHACHE	15714
621	38.733	115.483	5.0	BAODING	9153
622	38.817	35.433	5.0	KAYSERI/ERKILET	1942
623	39.0833	-28.0333	5.0	GRACIOSA/AERODROME	2173
624	39.1	107.983	5.0	OTOG QI	9443
625	39.2	45.417	5.0	NAXCIVAN	914
626	39.383	111.15	5.0	HEQU	8713
627	39.4333	118.9	5.0	LETING	20578
628	39.45	-74.6667	5.0	ATLANTIC CITY U-A	10118
629	39.5	-76.1667	5.0	ABERDEEN PRVGR	5475
630	39.55	2.617	5.0	PALMA DE MALLORCA	9948
631	39.6667	118.1167	5.0	TANG SHAN	251
632	39.783	105.75	5.0	JARTAI	9470
633	39.8	78.567	5.0	BACHU	9060
634	39.8333	109.9833	5.0	DONGSHENG	23570
635	39.867	4.233	5.0	MENORCA/MAHON	165
636	39.9333	127.55	5.0	HAMHEUNG	11836
637	39.983	46.75	5.0	KHANKANDY	657
638	40.083	124.333	5.0	DANDONG	24594
639	40.1	113.333	5.0	DATONG	8658
640	40.2	-8.417	5.0	COIMBRA	458
641	40.217	69.733	5.0	KHUDJAND	382
642	40.267	97.033	5.0	YUMENZHEN	2942
643	40.433	-80.0	5.0	PITTSBURGH/EMSU	544
644	40.55	70.95	5.0	KOKAND	7416
645	40.617	47.15	5.0	EVLAKH AIRPORT	164
646	40.633	87.7	5.0	TIKANLIK	16175
647	40.717	46.417	5.0	GANDJA	818
648	40.75	104.5	5.0	BAYAN MOD	20474
649	40.783	43.833	5.0	GUMRI	147
650	40.7833	114.8833	5.0	ZHANGJIAKOU	23066
651	40.85	35.583	5.0	MERZIFON	1796
652	40.933	78.45	5.0	AKQI	5651
653	40.95	-5.5	5.0	SALAMANCA/MATACAN	173
654	40.967	117.917	5.0	CHENGDE	6676
655	41.1167	122.95	5.0	AN SHAN	362
656	41.117	121.067	5.0	JINZHOU	26088
657	41.233	-8.683	5.0	PORTO/PEDRAS RUBRAS	1615
658	41.25	-76.917	5.0	WILLIAMSPORT/LYCOMI	463
659	41.433	76.0	5.0	NARYN	13926
660	41.45	31.8	5.0	ZONGULDAK	304
661	41.45	106.383	5.0	HAILS	4738
662	41.55	46.667	5.0	ZAKATALA	424
663	41.5667	108.5167	5.0	HALIUT	23054
664	41.633	41.6	5.0	BATUMI	7554
665	41.65	-70.5167	5.0	FALMOUTH OTIS AFB	383
666	41.65	25.367	5.0	KURDJALI	9983
667	41.717	-4.85	5.0	VALLADOLID/VILLANUB	206
668	41.75	86.133	5.0	KORLA	21640
669	41.75	103.9667	5.0	PANG-TING-TO-TO-KAI	1057
670	41.95	21.633	5.0	SKOPJE- AIRPORT	2454
671	42.2	-1.45	5.0	BARDENAS REALES	4866
672	42.217	-75.983	5.0	BINGHAMTON/BROOME C	109
673	42.45	-2.333	5.0	LOGRONO/AGONCILLO	349
674	42.583	-5.65	5.0	LEON/VIRGEN DEL CAM	200
675	42.7	-68.3	5.0	ENVIRONM BUOY 44005	574
676	42.917	-106.467	5.0	CASPER/NATRONA COUN	1420
677	42.933	89.2	5.0	TURPAN	10824
678	43.0	1.1	5.0	SAINT GIRONS	158
679	43.2	107.167	5.0	HANBOGD	2539
680	43.417	6.75	5.0	SAINT-RAPHAEL	230
681	43.467	-1.533	5.0	BIARRITZ	1055
682	43.483	91.633	5.0	SHISANJIANFANG	15467
683	43.583	-118.95	5.0	BURNS MUNI (AMOS)	1705
684	43.5833	39.7667	5.0	SOCHI	194
685	43.6	118.067	5.0	LINXI	3300
686	43.633	1.367	5.0	TOULOUSE BLAGNAC	1937
687	43.65	7.2	5.0	NICE	437
688	43.683	-1.067	5.0	DAX	328
689	43.75	24.883	5.0	TR. MAGURELE	218
690	43.917	-0.5	5.0	MONT-DE-MARSAN	166
691	43.983	119.4	5.0	LINDONG	4651
692	44.017	89.567	5.0	QITAI	9992
693	44.117	-77.533	5.0	TRENTON ARPT	142
694	44.217	28.633	5.0	CONSTANTA	27610
695	44.317	23.867	5.0	CRAIOVA	548
696	44.567	129.6	5.0	MUDANJIANG	4789
697	44.583	4.733	5.0	MONTELIMAR	189
698	44.583	117.6	5.0	XI UJIMQIN QI	8443
699	44.617	82.9	5.0	JINGHE	10505
700	44.617	114.15	5.0	NARAN BULAG	14093
701	44.633	22.633	5.0	DROBETA TURNU SEVER	953
702	45.0	-16.0	5.0	OCEAN WEATHER SHIP K	2558
703	45.0464	34.5989	5.0	KRYMSKA	493
704	45.067	-83.567	5.0	ALPENA/PHELPS COLLI	111
705	45.15	26.817	5.0	BUZAU	652
706	45.15	29.667	5.0	SULINA	178
707	45.3	-82.8	5.0	ENVIRONM BUOY 45003	574
708	45.417	-91.767	5.0	RICE LAKE RGNL CARLS	581
709	45.467	-73.733	5.0	MONTREAL/TRUDEAU INT	17827
710	45.5	28.2	5.0	GALATI	7351
711	45.6	84.85	5.0	KARAMAY	20097
712	45.667	-0.317	5.0	COGNAC	356
713	45.7264	5.0778	5.0	LYON-ST EXUPERY	35372
714	45.767	21.25	5.0	TIMISOARA	862
715	45.767	106.283	5.0	MANDALGOBI	3030
716	45.783	24.083	5.0	SIBIU	813
717	45.817	-73.433	5.0	LASSOMPTION CDA	104
718	45.833	24.933	5.0	FAGARAS	154
719	45.867	1.183	5.0	LIMOGES	190
720	45.867	22.9	5.0	DEVA	887
721	45.95	-77.317	5.0	PETAWAWA	1273
722	46.0	18.233	5.0	PECS/POGANY	127
723	46.0303	12.5992	5.0	AVIANO	1508
724	46.167	21.317	5.0	ARAD	7175
725	46.2	150.5	5.0	URUP	29544
726	46.2667	102.7833	5.0	ARVAIHEER	13261
727	46.374	-117.015	5.0	LEWISTON NEZ PERCE	432
728	46.4	96.25	5.0	ALTAI	14794
729	46.5	121.36	5.0	TE-PO-SU-K/-MIAO	11684
730	46.533	24.533	5.0	TG. MURES	1169
731	46.583	26.983	5.0	BACAU	1500
732	46.733	83.0	5.0	TACHENG	22028
733	46.767	-56.167	5.0	SAINT-PIERRE	690
734	46.81	85.7489	5.0	HOBOKSAR	26741
735	46.9	-71.483	5.0	VALCARTIER AIRPORT	2371
736	46.9667	-122.9	5.0	OLYMPIA MUN I AP	1217
737	46.9931	15.4392	5.0	GRAZ-THALERHOF-FLUGHAFEN	10698
738	47.033	21.9	5.0	ORADEA	822
739	47.067	2.367	5.0	BOURGES	3475
740	47.15	-1.6	5.0	NANTES	256
741	47.167	27.633	5.0	IASI	1100
742	47.2603	11.3439	5.0	INNSBRUCK-FLUGHAFEN	7542
743	47.267	5.083	5.0	DIJON	234
744	47.267	16.633	5.0	SZOMBATHELY	183
745	47.383	123.917	5.0	QIQIHAR	17927
746	47.45	101.467	5.0	TSETSERLEG	2069
747	47.567	-59.15	5.0	PORT-AUX-BASQUES	2303
748	47.633	26.25	5.0	SUCEAVA	513
749	47.667	23.5	5.0	BAIA MARE	1152
750	47.717	22.883	5.0	SATU MARE	1507
751	47.75	96.85	5.0	ULIASTAI	1923
752	47.8	3.55	5.0	AUXERRE	185
753	47.95	-97.4	5.0	GRAND FORKS AFB	517
754	48.017	91.567	5.0	HOVD	3097
755	48.0833	114.55	5.0	CHOIBALSAN	11826
756	48.183	-103.633	5.0	WILLISTON/SLOULIN F	460
757	48.2353	14.1881	5.0	LINZ/HOERSCHING-FLUGHAFEN	10855
758	48.55	-109.767	5.0	HAVRE (AMOS)	690
759	48.667	116.817	5.0	XIN BARAG YOUQI	12550
760	48.7	-8.9167	5.0	ENVIRONM BUOY 62027	215
761	48.8	103.55	5.0	BULGAN	2639
762	48.917	106.067	5.0	BARUUNHARAA	2895
763	49.08	16.62	5.0	BRNO REBESOVICE	4516
764	49.2	-123.167	5.0	VANCOUVER INT. AIRP	14056
765	49.3	4.033	5.0	REIMS	179
766	49.383	11.167	5.0	FEUCHT(USA-AF)	1528
767	49.633	-112.8	5.0	LETHBRIDGE AWOS	9936
768	49.65	7.3	5.0	BAUMHOLDER (USA-AF)	1342
769	49.7	11.95	5.0	GRAFENWOEHR	3151
770	49.7167	-124.9	5.0	COMOX A	104
771	49.75	10.2	5.0	KITZINGEN AAF	631
772	49.783	-99.633	5.0	SHILO	6238
773	49.9031	-98.2842	5.0	PORTAGE SOUTHPORT	554
774	50.0	88.667	5.0	KOS-AGAC	10486
775	50.033	5.4	5.0	ST-HUBERT	26357
776	50.133	1.833	5.0	ABBEVILLE	116
777	50.133	65.233	5.0	AMANGELDY	15887
778	50.383	-102.683	5.0	BROADVIEW	8722
779	50.8667	7.1333	5.0	KOLN/BONN	1759
780	51.083	2.65	5.0	KOKSIJDE	311
781	51.1	-100.05	5.0	DAUPHIN AIRPORT	2648
782	51.117	-114.017	5.0	CALGARY INTL	15534
783	51.13	9.28	5.0	FRITZLAR/KASSELER	21333
784	51.133	-106.583	5.0	ELBOW CS	165
785	51.4	-3.35	5.0	CARDIFF-WALES ARPT	890
786	51.517	-109.183	5.0	KINDERSLEY ARPT	914
787	51.55	12.0667	5.0	OPPIN	3700
788	51.5547	0.8269	5.0	SHOEBURYNESS	10753
789	51.717	126.65	5.0	HUMA	6620
790	51.733	6.267	5.0	KALKAR	3052
791	51.75	-1.583	5.0	BRIZE NORTON	1008
792	52.117	0.967	5.0	WATTISHAM	437
793	52.167	-106.717	5.0	SASKATOON DIEFENBAKE	2309
794	52.167	4.433	5.0	VALKENBURG	583
795	52.267	7.433	5.0	NORDHORN	5346
796	52.4167	-4.0	5.0	CAPEL DEWI	6559
797	52.433	-114.917	5.0	ROCKY MTN HOUSE	1475
798	52.5	-20.0	5.0	OCEAN WEATHER SHIP J	2559
799	52.767	-108.25	5.0	NORTH BATTLEFORD	2182
800	52.8	-2.667	5.0	SHAWBURY	561
801	53.167	-0.517	5.0	WADDINGTON	992
802	53.217	-105.667	5.0	PRINCE ALBERT ARPT	9605
803	53.25	4.917	5.0	VLIELAND	6803
804	53.85	-94.65	5.0	ISLAND LAKE ARPT	4067
805	54.2	16.1833	5.0	KOSZALIN	1537
806	54.3	-1.533	5.0	LEEMING	777
807	54.383	10.15	5.0	KEIL/HOLTENAU	15248
808	54.48	-6.1	5.0	LONG KESH	48477
809	55.283	-114.783	5.0	SLAVE LAKE AIRPORT	13183
810	55.317	-3.2	5.0	ESKDALEMUIR	233
811	55.417	-1.6	5.0	BOULMER	13127
812	55.767	12.533	5.0	JAEGERSBORG	40587
813	56.2933	9.1139	5.0	FLYVESTATION KARUP	5675
814	56.5422	3.2236	5.0	EKOFISK	15135
815	56.65	-111.217	5.0	FORT MCMURRAY ARPT	11470
816	57.1	9.867	5.0	FLYVESTATION AALBOR	4824
817	57.2	-2.217	5.0	ABERDEEN/DYCE AIRPO	421
818	57.65	-3.567	5.0	KINLOSS	767
819	57.65	18.35	5.0	VISBY AEROLOGISKA STATION	28914
820	58.183	12.15	5.0	TORPABRON	288
821	59.0	-19.0	5.0	OCEAN WEATHER SHIP I	2647
822	59.9428	10.7194	5.0	OSLO-BLINDERN	934
823	61.2667	-149.65	5.0	FT. RICHARDSON/BRYANT AHP	972
824	66.0	2.0	5.0	OCEAN WEATHER SHIP M	2031
825	66.567	-145.267	5.0	FORT YUKON	133
826	68.1	-165.7667	5.0	CAPE THOMPSON	100
827	69.3153	16.1308	5.0	ANDOYA	3633
828	69.9333	167.9667	5.0	AJON ISLAND	9137
829	71.317	-156.617	5.0	SANDIA LAB. D	523
830	-24.6085	25.91685	5.6	GABORONE,SERETSE KHAMA INTERNATIONAL AI	6466
831	-22.52485	17.283499999999997	5.6	WINDHOEK,HOSEA KUTAKO INTL A	20028
832	-17.87515	31.074850000000005	5.6	HARARE (KUTSAGA),HARARE (BELVEDERE)	19508
833	-13.771499999999998	33.73350000000001	5.6	LILONGWE INTL AIRPO,LILONGWE	15098
834	-5.19165	-80.6	5.6	PIURA,PIURA GRUP7	1436
835	-4.375	15.3415	5.6	KINSHASA/NDJILI,KINSHASA/BINZA	1037
836	-3.7581499999999997	-73.275	5.6	IQUITOS,MORONA	1396
837	3.1085000000000003	101.6	5.6	PETALING JAYA,KUALA LUMPUR SUBANG	34224
838	10.541999999999998	-71.69149999999999	5.6	LA CANADA,MARACAIBO-LA CHINIT	1487
839	15.45	44.1915	5.6	SANAA,SANA'A (CIV/MIL)	2841
840	16.775	107.1333	5.6	QUANG TRI,DONG HA	1610
841	22.808349999999997	120.3335	5.6	PINGTUNG SOUTH(AFB),TAINAN (TW-AFB)	17565
842	24.3665	118.258	5.6	CHIANGYANG,CHINMEM/SHATOU(AFB)	10508
843	26.6	88.54169999999999	5.6	JALPAIGURI,SILIGURI	21141
844	30.357999999999997	-9.492	5.6	AGADIR AL MASSIRA,AGADIR INEZGANNE	17056
845	30.5	-86.5	5.6	HURLBURT FIELD (AF),EGLIN AFB RANGE NO.	777
846	34.066500000000005	134.6165	5.6	KOMATSUSHIMA AB,TOKUSHIMA AB	5729
847	34.632999999999996	32.9	5.6	AKROTIRI,EPISKOPI	21901
848	35.3	-117.2665	5.6	CUDDLEBACK GUNNERY,SUPERIOR VALLEY GUN	6790
849	36.6665	127.4665	5.6	CHEONGJU,CHEONGJU INTL AIRPO	6428
850	37.39149999999999	127.01700000000001	5.6	SV RI SAN,SEOUL AB	7063
851	38.8335	-104.792	5.6	FORT CARSON/BUTTS,AIR FORCE ACADEMY	10010
852	42.2	42.833000000000006	5.6	SAKARA,KUTAISI	571
853	45.6	25.558	5.6	PREDEAL,BRASOV-GHIMBAV	1501
854	48.0415	9.075	5.6	NEUHAUSEN OB ECK,SIGMARINGEN	21411
855	49.85	-97.18315	5.6	WINNIPEG UA,WINNIPEG INT.AIRPOR	16919
856	50.0869	-119.34164999999999	5.6	KELOWNA UA,VERNON AUTO	32630
857	50.092	8.8085	5.6	LANGEN,HANAU	1153
858	50.3165	-104.68350000000001	5.6	BRATT'S LAKE UA,REGINA INTL	6506
859	53.492000000000004	-113.525	5.6	EDMONTON INTL ARPT,EDMONTON NAMAO ARPT	10372
860	54.5835	-110.1665	5.6	COLD LAKE,PRIMROSE LAKE	6241
