	latitude	longitude	radius	station	records
0	-79.25	-147.5	5.0	LITTLE ROCKFORD	309
1	-77.9667	-38.8	5.0	GENERAL BELGRANO	1782
2	-76.2667	-147.5	5.0	LITTLE ROCKFORD	389
3	-69.5	159.4	5.0	LENINGRADSKAJA	2575
4	-67.667	45.85	5.0	MOLODEZNAJA	13014
5	-63.4667	-56.2833	5.0	PETREL NAS	1654
6	-62.183	-58.883	5.0	BELLINGSHAUSEN AWS	6342
7	-59.45	-27.267	5.0	CORBETA URUGUAY DN	275
8	-53.8	-67.75	5.0	RIO GRANDE AIRPORT	3267
9	-51.6333	-69.2167	5.0	RIO GALLEGOS B. A.	4526
10	-49.3522	70.2433	5.0	PORT-AUX-FRANCAIS	15904
11	-43.78	172.02	5.0	RAKAIA	12147
12	-43.2333	-65.3	5.0	ALMIRANTE ZAR	1150
13	-42.7167	170.9833	5.0	HOKITIKA AERODROME	26036
14	-42.417	173.7	5.0	KAIKOURA	5055
15	-41.3	174.63	5.0	OUTLOOK HILL	11385
16	-39.467	175.683	5.0	WAIOURU	2309
17	-39.0167	174.1833	5.0	NEW PLYMOUTH AERO	31454
18	-38.7333	-62.1667	5.0	COMANDANTE ESPORA	13733
19	-38.6667	177.9833	5.0	GISBORNE AERODROME	28600
20	-37.017	174.8	5.0	AUCKLAND AIRPORT	23125
21	-36.3	174.7	5.0	MT TAMAHUNGA	14698
22	-35.367	-57.283	5.0	PUNTA INDIO B.A.	151
23	-35.1	173.267	5.0	KAITAIA	14537
24	-34.017	22.383	5.0	GEORGE AIRPORT	4491
25	-33.033	27.833	5.0	EAST LONDON	3098
26	-32.8833	-68.85	5.0	OBSERV MENDOZA	3075
27	-31.6667	128.8667	5.0	EUCLA	12086
28	-31.35	-54.117	5.0	BAGE (AEROPORTO)	1012
29	-28.8	24.767	5.0	KIMBERLEY	9829
30	-28.25	28.3333	5.0	BETHLEHEM AIRPORT	11390
31	-26.5333	18.1167	5.0	KEETMANSHOOP	6019
32	-26.05	22.45	5.0	TSABONG	836
33	-25.783	25.533	5.0	MAFIKENG WO	1154
34	-25.55	45.533	5.0	FAUX-CAP	549
35	-25.2333	-57.5167	5.0	AEROPUERTO SILVIO PETTIROSSI	5464
36	-25.0333	46.95	5.0	TAOLAGNARO	29889
37	-24.85	-65.4833	5.0	SALTA AERO	19838
38	-23.8667	29.45	5.0	PIETERSBURG (SAAF)	13740
39	-23.4372	144.2769	5.0	LONGREACH AERO	47067
40	-23.383	43.733	5.0	TOLIARA	5308
41	-23.35	-149.4833	5.0	TUBUAI ISLAND	19527
42	-22.9833	14.65	5.0	WALVIS BAY AIRPORT	1174
43	-22.8	47.833	5.0	FARAFANGANA	2385
44	-22.55	45.4	5.0	RANOHIRA	1639
45	-22.333	40.333	5.0	ILE EUROPA	7597
46	-22.2761	166.4528	5.0	NOUMEA (NLLE-CALEDONIE)	41494
47	-22.217	30.0	5.0	BEITBRIDGE	3367
48	-22.0167	-60.6167	5.0	MARISCAL ESTIGARRIBIA	708
49	-21.817	-138.8	5.0	MURUROA	6907
50	-21.75	43.367	5.0	MOROMBE	1328
51	-21.45	47.1	5.0	FIANARANTSOA	1453
52	-21.417	25.6	5.0	LETLHAKANE	693
53	-21.233	-175.15	5.0	FUAAMOTU	5436
54	-21.217	27.5	5.0	FRANCISTOWN	613
55	-21.2	-159.8167	5.0	RAROTONGA	23629
56	-21.2	48.367	5.0	MANANJARY	4840
57	-21.017	31.583	5.0	BUFFALO RANGE	6492
58	-20.767	167.233	5.0	OUANAHAM	7206
59	-20.7667	-138.55	5.0	TUREIA	271
60	-20.567	164.283	5.0	KOUMAC	11482
61	-20.5	-29.3167	5.0	TRINDADE (ILHA)	9829
62	-20.283	44.317	5.0	MORONDAVA	3268
63	-20.233	169.767	5.0	ANEITYUM	125
64	-20.15	28.617	5.0	BULAWAYO	14661
65	-20.067	30.867	5.0	MASVINGO	8225
66	-19.9061	-144.9494	5.0	HEREHERETUE	7607
67	-19.833	48.8	5.0	MAHANORO	1069
68	-19.783	-47.967	5.0	UBERABA	134
69	-19.683	63.417	5.0	RODRIGUES	10891
70	-19.6422	134.1833	5.0	TENNANT CREEK AIRPORT	46728
71	-19.6	18.117	5.0	GROOTFONTEIN	4094
72	-19.45	29.85	5.0	GWERU	5186
73	-19.28	121.5	5.0	TALGARNO	297
74	-18.633	26.85	5.0	HWANGE NATIONAL PAR	2189
75	-18.533	32.15	5.0	RUSAPE	2604
76	-18.317	29.883	5.0	KADOMA	1432
77	-18.3167	-59.7667	5.0	ROBORE	144
78	-18.217	28.933	5.0	GOKWE	1693
79	-18.1	25.85	5.0	VICTORIA FALLS	6409
80	-18.067	-140.95	5.0	HAO	18186
81	-17.7333	-39.25	5.0	CARAVELAS	5524
82	-17.7333	139.5333	5.0	BURKETOWN	145
83	-17.7	168.3	5.0	BAUERFIELD (EFATE)	7305
84	-17.417	32.217	5.0	MUTOKO	4155
85	-17.3167	123.6333	5.0	DERBY	7081
86	-17.083	49.817	5.0	SAINTE-MARIE AERODR	681
87	-17.05	42.717	5.0	ILE JUAN DE NOVA	5730
88	-16.833	29.617	5.0	KAROI	4958
89	-16.517	28.883	5.0	KARIBA	2203
90	-16.45	-151.75	5.0	BORA-BORA	11160
91	-16.45	59.617	5.0	ST. BRANDON	5725
92	-16.333	-71.567	5.0	AREQUIPA	3138
93	-15.8878	54.5206	5.0	SERGE-FROLOW (ILE TROMELIN)	20680
94	-15.683	34.967	5.0	CHILEKA	10079
95	-15.6667	46.35	5.0	MAHAJANGA	36011
96	-15.6	-56.1	5.0	CUIABA	443
97	-15.517	167.217	5.0	PEKOA AIRPORT	661
98	-15.25	23.15	5.0	MONGU	5748
99	-15.1	39.283	5.0	NAMPULA	4237
100	-15.0	50.333	5.0	ANTALAHA	4654
101	-14.95	-147.659	5.0	RANGIROA	5720
102	-14.95	-40.883	5.0	VITORIA DA CONQUIST	123
103	-14.933	13.567	5.0	LUBANGO	236
104	-14.633	47.767	5.0	ANALALAVA	1607
105	-14.4833	-145.0333	5.0	TAKAROA ATOLL	17249
106	-14.3667	-170.7833	5.0	LEONE BAY AMERICAN S	359
107	-14.283	50.167	5.0	SAMBAVA	2763
108	-13.8	-171.783	5.0	APIA	10496
109	-13.75	34.583	5.0	SALIMA	2342
110	-13.733	-76.217	5.0	PISCO	1501
111	-13.367	50.0	5.0	VOHEMAR	807
112	-13.317	48.317	5.0	FASCENE (NOSSI-BE)	786
113	-13.2667	-43.4167	5.0	BOM JESUS DA LAPA	6605
114	-13.0167	-38.5167	5.0	SALVADOR	7952
115	-13.0	28.65	5.0	NDOLA	2372
116	-12.8	45.2833	5.0	DZAOUDZI/PAMANZI	15117
117	-12.5	177.05	5.0	ROTUMA	6835
118	-12.35	49.3	5.0	ANTSIRANANA	8157
119	-12.15	-77.0	5.0	LAS PALMAS	389
120	-12.15	-45.0	5.0	BARREIRAS	1194
121	-12.117	44.433	5.0	OUANI (ANJOUAN)	3271
122	-11.7	43.233	5.0	MORONI AIRPORT	5231
123	-11.583	47.283	5.0	ILES GLORIEUSES	7379
124	-11.3	-41.867	5.0	IRECE	347
125	-11.0333	-68.7833	5.0	COBIJA	222
126	-10.917	-37.05	5.0	ARACAJU	417
127	-10.7	-48.4	5.0	PORTO NACIONAL	1005
128	-10.7	152.833	5.0	MISIMA ISLAND	2055
129	-10.7	165.8	5.0	SANTA CRUZ ISLAND	151
130	-10.433	56.75	5.0	AGALEGA	2514
131	-10.217	31.133	5.0	KASAMA	3135
132	-9.95	33.883	5.0	KARONGA	2595
133	-9.517	-35.783	5.0	MACEIO (AEROPORTO)	133
134	-9.3833	-40.4833	5.0	PETROLINA	9393
135	-9.35	46.533	5.0	ALDABRA	143
136	-9.333	-54.967	5.0	CACHIMBO AERO	2176
137	-9.2	124.367	5.0	OE-CUSSIE	498
138	-9.1	-44.117	5.0	BOM JESUS	376
139	-9.0	-158.05	5.0	PENRHYN	8316
140	-8.933	33.467	5.0	MBEYA	767
141	-8.55	126.567	5.0	KOMORO	6384
142	-8.367	-74.567	5.0	PUCALLPA	328
143	-7.967	112.7	5.0	MALANG/ABDUL (AFB)	586
144	-7.633	35.767	5.0	IRINGA	677
145	-7.617	111.517	5.0	MADIUN/ISWAHYUD AFB	3443
146	-7.3333	-47.4667	5.0	CAROLINA	5666
147	-7.333	108.25	5.0	CIBEUREM/TASIK(AFB)	625
148	-7.317	-39.3	5.0	BARBALHA	334
149	-7.3	72.4	5.0	DIEGO GARCIA	16326
150	-7.017	-37.267	5.0	PATOS	137
151	-6.8667	39.2	5.0	DAR ES SALAAM INT	10437
152	-6.833	37.65	5.0	MOROGORO	142
153	-6.783	-79.817	5.0	CHICLAYO	1504
154	-6.7667	-43.0167	5.0	FLORIANO	7626
155	-6.267	-57.733	5.0	JACAREACANGA	287
156	-6.167	35.767	5.0	DODOMA	1096
157	-5.5	-45.267	5.0	BARRA DO CORDA	161
158	-5.2	-39.3	5.0	QUIXERAMOBIM	334
159	-5.083	32.833	5.0	TABORA AIRPORT	1062
160	-5.083	39.067	5.0	TANGA	776
161	-5.05	-42.817	5.0	TERESINA	313
162	-4.883	29.667	5.0	KIGOMA	112
163	-4.883	38.283	5.0	MOMBO	113
164	-4.567	-81.233	5.0	TALARA	1823
165	-4.45	105.183	5.0	MENGGALA/ASTRA KSET	181
166	-4.1	122.433	5.0	KENDARI/WOLTER MONG	1064
167	-4.05	-154.9833	5.0	MALDEN ISLAND AF	274
168	-4.033	39.617	5.0	MOMBASA	3673
169	-3.7667	-38.6	5.0	FORTALEZA	9728
170	-3.417	37.067	5.0	KILIMANJARO AIRPORT	696
171	-3.4	38.567	5.0	VOI	4508
172	-3.2944	-60.6283	5.0	MANACAPURU	2770
173	-3.217	40.1	5.0	MALINDI	1769
174	-3.083	-41.783	5.0	PARNAIBA	665
175	-2.533	14.767	5.0	DJAMBALA	1376
176	-2.467	32.917	5.0	MWANZA	383
177	-2.283	37.833	5.0	MAKINDU	5723
178	-1.333	31.817	5.0	BUKOBA	1433
179	-1.133	35.833	5.0	NAROK	4802
180	-0.9	-89.6	5.0	SAN CRISTOBAL RADIOSONDA	3825
181	-0.617	30.65	5.0	MBARARA	114
182	-0.467	39.633	5.0	GARISSA	7179
183	-0.267	36.1	5.0	NAKURU	7184
184	0.183	30.1	5.0	KASESE	419
185	0.683	34.167	5.0	TORORO	264
186	1.617	18.067	5.0	IMPFONDO	986
187	1.683	31.717	5.0	MASINDI	632
188	1.717	33.617	5.0	SOROTI	112
189	1.85	-78.767	5.0	TUMACO	344
190	2.0	-157.4	5.0	CHRISTMAS ISLAND	29424
191	2.033	-56.117	5.0	SIPALIWINI	331
192	2.083	11.483	5.0	BITAM	483
193	2.333	37.983	5.0	MARSABIT	1160
194	3.117	35.617	5.0	LODWAR	8644
195	3.367	-57.333	5.0	COEROENI	254
196	3.533	39.05	5.0	MOYALE	3218
197	3.55	-76.3833	5.0	CALI/ALFONSO BONILLA ARAGON	1230
198	3.633	-54.033	5.0	MARIPASOULA	1329
199	3.783	-56.15	5.0	TAFELBERG	228
200	3.85	-159.367	5.0	FANNING ISLAND	103
201	3.883	-51.8	5.0	SAINT GEORGES	2681
202	3.933	41.867	5.0	MANDERA	3516
203	4.1917	73.5292	5.0	MALE	4090
204	4.2167	100.7	5.0	SITIAWAN	52733
205	4.25	15.8	5.0	BERBERATI	2543
206	4.317	21.183	5.0	MOBAYE	150
207	4.35	-54.417	5.0	STOELMANSEILAND	153
208	4.55	-70.917	5.0	LAS GAVIOTAS	3770
209	4.6	-61.1167	5.0	SANTA ELENA DE UAIREN	813
210	4.733	22.833	5.0	BANGASSOU	2199
211	4.883	-1.767	5.0	TAKORADI	135
212	5.45	-55.2	5.0	ZANDERIJ	2383
213	5.5	-54.033	5.0	SAINT-LAURENT	3207
214	5.55	12.367	5.0	YOKO	1316
215	5.6	-0.1667	5.0	ACCRA/KOTOKA INTL	3276
216	5.9	43.583	5.0	GODE	237
217	5.9	118.0667	5.0	SANDAKAN	47253
218	5.917	169.65	5.0	JALUIT ATOLL	130
219	5.95	-57.033	5.0	NICKERIE	382
220	5.967	15.633	5.0	BOUAR	2424
221	6.25	-10.35	5.0	ROBERTS FIELD	1457
222	6.467	7.55	5.0	ENUGU	469
223	6.483	17.433	5.0	BOSSANGOA	3181
224	6.5	3.3833	5.0	LAGOS/OSHODI	1419
225	6.8833	81.8333	5.0	POTTUVIL	151
226	7.233	-70.8	5.0	GUASDUALITO	356
227	7.3	-61.45	5.0	TUMEREMO	451
228	7.383	143.917	5.0	WOLEAI ATOLL	106
229	7.7	28.017	5.0	WAU	717
230	7.85	-72.45	5.0	SAN ANTONIO DEL TACHIRA	3694
231	7.9	-67.4167	5.0	SAN FERNANDO DE APURE	1404
232	8.0333	79.8333	5.0	PUTTALAM	6376
233	8.15	-63.55	5.0	CIUDAD BOLIVAR	641
234	8.3333	80.4167	5.0	ANURADHAPURA	612
235	8.4	20.65	5.0	NDELE	2173
236	8.4089	124.6119	5.0	LUMBIA AIRPORT	3518
237	8.617	-13.2	5.0	LUNGI	1194
238	9.15	18.3833	5.0	SARH	17203
239	9.417	-5.617	5.0	KORHOGO	11845
240	9.467	170.25	5.0	WOTJE ATOLL	299
241	9.5	-7.567	5.0	ODIENNE	140
242	9.5	-0.85	5.0	TAMALE	1562
243	9.6	105.967	5.0	BA-XUYEN/SOC TRANG	170
244	9.75	-63.183	5.0	MATURIN	1184
245	9.8	125.5	5.0	SURIGAO	347
246	9.817	-70.933	5.0	MENE GRANDE	780
247	9.9333	76.2333	5.0	COCHIN (IN-NAVY)	17051
248	9.983	98.617	5.0	RANONG	194
249	10.067	-69.317	5.0	BARQUISIMETO	741
250	10.117	-64.683	5.0	BARCELONA	1459
251	10.25	-67.65	5.0	MARACAY - B.A. SUCRE	5220
252	10.6	-66.983	5.0	CARACAS/MAIQUETIA A	912
253	10.6667	-63.25	5.0	CARUPANO	159
254	10.717	115.833	5.0	NENSHA ISL	436
255	10.85	121.033	5.0	CUYO	270
256	10.917	-63.967	5.0	PORLAMAR	739
257	11.1167	72.7333	5.0	AMINIDIVI	26613
258	11.5333	-72.9333	5.0	RIOHACHA/ALMIRANTE PADILLA	2967
259	11.55	43.15	5.0	DJIBOUTI	2487
260	11.783	34.383	5.0	DAMAZINE	1808
261	11.85	13.083	5.0	MAIDUGURI	593
262	12.7	28.433	5.0	EN NAHUD	198
263	12.917	74.883	5.0	MANGALORE/BAJPE	2209
264	13.167	32.667	5.0	AROMA	298
265	13.3	-87.1833	5.0	CHOLUTECA	767
266	13.467	7.083	5.0	MARADI	18936
267	13.567	-89.833	5.0	ACAJUTLA	185
268	13.683	44.15	5.0	TAIZ (CIV/MIL)	449
269	13.7	-89.117	5.0	SAN SALVADOR/ILOPAN	689
270	13.85	20.85	5.0	ABECHE	4728
271	13.917	-90.817	5.0	SAN JOSE	1220
272	13.917	100.6	5.0	DON MUANG	780
273	14.033	35.4	5.0	GEDAREF	238
274	14.067	-83.367	5.0	PUERTO CABEZAS	4028
275	14.117	93.367	5.0	COCO ISLAND	985
276	14.4	33.483	5.0	WAD MEDANI	269
277	14.482	-11.44	5.0	KAYES/DAG-DAG	16115
278	14.5333	-90.5667	5.0	GUATEMALA CITY	5620
279	14.6	-61.0	5.0	LAMENTIN AERO	9234
280	14.6833	77.6167	5.0	ANANTAPUR	10993
281	14.75	42.967	5.0	HODEIDAH (CIV/MIL)	542
282	14.8	100.617	5.0	LOP BURI	837
283	14.9	-23.517	5.0	PRAIA	123
284	15.117	105.783	5.0	PAKSE	590
285	15.117	145.733	5.0	SAIPAN/ISLEY (CGS)	7992
286	15.167	-7.283	5.0	NARA	9645
287	15.283	38.917	5.0	ASMARA	2299
288	15.4167	75.6333	5.0	GADAG	12739
289	15.4167	108.7	5.0	CHU LAI	822
290	15.717	-88.6	5.0	PUERTO BARRIOS	639
291	16.1667	-95.1667	5.0	SALINA CRUZ	556
292	16.433	101.15	5.0	PHETCHABUN	401
293	16.533	80.8	5.0	VIJAYAWADA/GANNAVA	8012
294	16.55	104.65	5.0	SAVANNAKHET	508
295	16.55	111.617	5.0	HOANG SA (PATTLE)	417
296	16.633	-11.4	5.0	KIFFA	4608
297	16.7167	-3.0	5.0	TOMBOUCTOU	28543
298	16.767	94.767	5.0	PATHEIN	2065
299	16.883	42.583	5.0	GIZAN	1629
300	16.9	96.183	5.0	MINGALADON	945
301	17.417	104.783	5.0	NAKHON PHANOM	2528
302	17.9	-62.85	5.0	ST. BARTHELEMY	4048
303	18.0	19.167	5.0	FAYA	2999
304	18.2167	109.5833	5.0	SANYA	23144
305	18.3	42.8	5.0	KHAMIS MUSHAIT	11138
306	18.433	1.35	5.0	KIDAL	5839
307	18.633	-91.833	5.0	CUIDAD DEL CARMEN	185
308	18.717	-110.95	5.0	ISLA SOCORRO	9477
309	19.0833	82.0333	5.0	JAGDALPUR	26956
310	19.1	108.617	5.0	DONGFANG	6890
311	19.167	30.483	5.0	DONGOLA	1444
312	19.2667	84.8833	5.0	GOPALPUR	9005
313	19.883	102.133	5.0	LUANG-PRABANG	472
314	20.45	121.967	5.0	BASCO	867
315	20.667	58.9	5.0	MASIRAH	514
316	20.7167	116.7167	5.0	DONGSHA (=597920)	9110
317	20.883	95.9	5.0	MEIKTILA	5141
318	20.899	-156.43	5.0	KAHULUI ARPT/MAUI	19540
319	21.2	72.8333	5.0	SURAT	2307
320	21.217	110.4	5.0	ZHANJIANG	5208
321	21.3	99.617	5.0	KENGTUNG	231
322	21.3333	0.95	5.0	BORDJ-BADJ-MOKHTAR	231
323	21.433	-157.767	5.0	KANEOHE BAY (MCAF)	1432
324	21.4833	109.1	5.0	BEIHAI	9881
325	21.5167	86.9333	5.0	BALASORE	1408
326	21.8333	111.9667	5.0	YANGJIANG	25007
327	21.9167	84.0833	5.0	JHARSIGUDA	8456
328	22.283	-97.85	5.0	TAMPICO	165
329	22.367	106.75	5.0	LONGZHOU	4011
330	22.45	70.083	5.0	JAMNAGAR	895
331	22.6833	121.5	5.0	LU-TAO	3323
332	22.75	-12.483	5.0	ZOUERATE	2072
333	22.767	81.9	5.0	PENDRA ROAD	5308
334	22.783	115.367	5.0	SHANWEI	2322
335	23.25	69.8	5.0	BHUJ-RUDRAMATA	12439
336	23.2833	77.35	5.0	BHOPAL/BAIRAGHAR	35992
337	23.3833	87.0833	5.0	BANKURA	1420
338	23.8167	5.15	5.0	IN AMGUEL	144
339	23.8833	91.25	5.0	AGARTALA	37876
340	23.8833	100.0833	5.0	LINCANG	2076
341	23.9833	121.6	5.0	HUA-LIEN CITY	17027
342	24.067	105.067	5.0	GUANGNAN	5390
343	24.183	120.65	5.0	TAICHUNG (TW-AFB)	4776
344	24.217	23.3	5.0	KUFRA	6321
345	24.267	9.467	5.0	DJANET	6261
346	24.35	109.4	5.0	LIUZHOU	4445
347	24.583	73.7	5.0	UDAIPUR	1174
348	24.7	46.733	5.0	RIYADH OBS.	11578
349	24.7	108.0333	5.0	HECHI	22855
350	24.7667	93.9	5.0	IMPHAL/TULIHAL	19897
351	25.0167	102.8333	5.0	KAN-HAI-TZU	598
352	25.05	-77.4667	5.0	NASSAU AIRPORT NEW PROVIDENCE	14365
353	25.15	75.85	5.0	KOTA AERODROME	1768
354	25.2667	63.4833	5.0	PASNI	119
355	25.3667	97.4	5.0	MYITKYINA	3942
356	25.3833	68.4167	5.0	HYDERABAD	934
357	25.433	105.183	5.0	XINGREN	4750
358	25.433	106.767	5.0	LUODIAN	3236
359	25.5	28.967	5.0	DAKHLA	4922
360	25.517	119.783	5.0	PINGTAN	3181
361	25.533	-103.45	5.0	TORREON AIRPORT	1530
362	25.617	-109.05	5.0	TOPOLOBAMPO	251
363	25.75	71.3833	5.0	BARMER	2587
364	25.8	21.133	5.0	TAZERBO	3989
365	25.85	116.367	5.0	CHANGTING	5057
366	25.9	-81.7167	5.0	DELTA SEVEN	436
367	25.967	108.533	5.0	RONGJIANG	2499
368	26.15	119.95	5.0	MAZU (=588490)	4062
369	26.2	36.483	5.0	AL-WEJH	5395
370	26.2003	32.7467	5.0	SOUTH OF VALLEY UNIVERSITY	4197
371	26.267	50.167	5.0	DHAHRAN	17304
372	26.5	8.417	5.0	ILLIZI	502
373	26.717	92.8	5.0	TEZPUR/BINDUKURI	424
374	26.867	100.233	5.0	LIJING	20204
375	26.9667	64.1	5.0	PANJGUR	8843
376	26.983	84.85	5.0	RAXAUL	1140
377	27.0167	14.45	5.0	SEBHA	3998
378	27.117	114.967	5.0	JIAN	4747
379	27.3	105.233	5.0	BIJIE	1335
380	27.333	120.2	5.0	FUDING	4348
381	27.5667	81.6	5.0	BAHRAICH	9170
382	27.65	-81.333	5.0	AVON PARK GUNNERY R	11151
383	27.7	85.367	5.0	KATHMANDU AIRPORT	651
384	27.75	89.167	5.0	PAGRI	5820
385	27.8333	66.6333	5.0	KHUZDAR	1098
386	27.883	-0.283	5.0	ADRAR	22304
387	27.95	-80.5667	5.0	VALKARIA	798
388	27.95	108.25	5.0	SINAN	3144
389	28.05	9.633	5.0	IN-AMENAS	12360
390	28.083	30.733	5.0	MINYA	2596
391	28.333	28.867	5.0	BAHARIA	5180
392	28.417	92.467	5.0	LHUNZE	9321
393	28.45	98.883	5.0	DEQEN	6169
394	28.467	-16.25	5.0	STA. CRUZ DE TENERI	22725
395	28.633	87.083	5.0	TINGRI	4882
396	28.8167	62.75	5.0	NOKKUNDI	1323
397	28.833	108.767	5.0	YOUYANG	169
398	28.883	-118.3	5.0	ISLA GUADALUPE	13025
399	29.033	21.567	5.0	JALO	3469
400	29.033	101.5	5.0	JIULONG	1437
401	29.0333	66.5833	5.0	KALAT	172
402	29.05	111.683	5.0	CHANGDE	4719
403	29.117	15.933	5.0	HON	3794
404	29.217	88.917	5.0	XIGAZE	11663
405	29.2425	47.9714	5.0	KUWAIT INTERNATIONAL AIRPORT	36208
406	29.25	0.283	5.0	TIMIMOUN	9666
407	29.3	117.2	5.0	JINGDEZHEN	5385
408	29.383	113.083	5.0	YUEYANG	4823
409	29.55	34.95	5.0	EILAT	6192
410	29.5667	94.4667	5.0	NYINGCHI	6509
411	29.6833	-85.35	5.0	CAPE SAN BLAS SITE D 3	2507
412	29.75	24.533	5.0	GIARABUB	2551
413	29.8833	69.7167	5.0	BARKHAN	1029
414	29.95	73.25	5.0	BAHAWALNAGAR	1115
415	29.967	-95.35	5.0	HOUSTON/INTERCONTIN	1796
416	29.967	99.067	5.0	BATANG	19656
417	30.033	122.117	5.0	DINGHAI	3697
418	30.05	101.967	5.0	KANGDING	3716
419	30.133	-2.167	5.0	BENI-ABBES	7838
420	30.133	9.5	5.0	GHADAMES	5808
421	30.167	35.783	5.0	MAAN	595
422	30.3333	76.4667	5.0	PATIALA	23763
423	30.3667	-89.5833	5.0	NASA MISS. TEST	1068
424	30.383	13.583	5.0	GARIAT EL-SHARGHIA	688
425	30.567	2.867	5.0	EL-GOLEA	31528
426	30.717	20.167	5.0	AGEDABIA	3757
427	30.8	106.083	5.0	NANCHONG	8082
428	30.933	-6.9	5.0	OUARZAZATE	8186
429	30.95	88.633	5.0	XAINZA	12076
430	31.017	46.233	5.0	NASIRIYA	750
431	31.1	-97.717	5.0	FT HOOD AAF/KILLEEN	2923
432	31.2	16.583	5.0	SIRTE	2738
433	31.217	107.5	5.0	DA XIAN	23565
434	31.233	34.783	5.0	BEER-SHEVA	2318
435	31.283	32.233	5.0	PORT SAID/EL GAMIL	1814
436	31.367	90.017	5.0	BAINGOIN	11427
437	31.367	130.833	5.0	KANOYA AB	464
438	31.417	95.6	5.0	DENGQEN	6863
439	31.5	65.85	5.0	KANDAHAR AIRPORT	5934
440	31.617	-8.033	5.0	MARRAKECH	9944
441	31.683	9.3	5.0	EL BORMA	1728
442	31.8667	34.6833	5.0	ASHDOD NORTH	1453
443	31.867	-81.633	5.0	FORT STEWART RESERV	3618
444	31.867	10.983	5.0	NALUT	2037
445	31.867	93.767	5.0	SOG XIAN	7101
446	31.867	117.233	5.0	HEFEI	9149
447	31.9	54.2833	5.0	YAZD	1516
448	31.9	102.233	5.0	BARKAM	6148
449	31.933	-4.4	5.0	ERRACHIDIA	6598
450	31.9333	5.4	5.0	OUARGLA	2887
451	32.05	72.667	5.0	SARGODHA	19138
452	32.067	108.033	5.0	WANYUAN	3574
453	32.133	114.05	5.0	XINYANG	7884
454	32.2167	-98.1833	5.0	STEPHENVILLE	15234
455	32.283	-9.233	5.0	SAFI	1179
456	32.317	10.4	5.0	REMADA	9738
457	32.333	-84.833	5.0	FORT BENNING	3790
458	32.35	-94.65	5.0	LONGVIEW WSMO	14445
459	32.367	-6.4	5.0	BENI-MELLAL	2448
460	32.383	3.817	5.0	GHARDAIA	31999
461	32.383	111.667	5.0	GUANGHUA	3239
462	32.417	15.05	5.0	MISURATA	1073
463	32.43	109.02	5.0	ANKANG	23991
464	32.5	-106.4167	5.0	FRYE SITE	155
465	32.5	74.5333	5.0	SIALKOT	942
466	32.5	80.067	5.0	SHIQUANHE	10631
467	32.683	-4.733	5.0	MIDELT	2966
468	32.6833	13.1667	5.0	TRIPOLI INTL ARPT	18212
469	32.717	133.017	5.0	SHIMIZU	5015
470	32.8	21.883	5.0	SHAHAT	1530
471	32.817	-115.683	5.0	EL CENTRO NAF	1361
472	32.883	12.083	5.0	ZUARA	2793
473	32.9	-87.25	5.0	CENTREVILLE WSMO	14447
474	32.933	-112.7	5.0	GILA BEND (AAF)	19204
475	32.967	114.05	5.0	ZHUMADIAN	6626
476	33.033	40.283	5.0	RUTBAH	2392
477	33.2939	126.1628	5.0	GOSAN	21028
478	33.417	36.517	5.0	DAMASCUS INT. AIRPO	10082
479	33.45	-111.95	5.0	WFO PHOENIX	4904
480	33.5	6.783	5.0	EL-OUED	28456
481	33.5333	-0.2833	5.0	MECHERIA	6933
482	33.583	102.967	5.0	RUOERGAI	2991
483	33.6167	73.1	5.0	ISLAMABAD AIRPORT	7050
484	33.683	1.0	5.0	EL-BAYADH	10962
485	33.783	114.517	5.0	XIHUA	6675
486	33.8	99.8	5.0	DARLAG	12064
487	33.85	-80.483	5.0	POINSETT RANGE	3637
488	33.8667	70.0833	5.0	PARACHINAR	2376
489	33.867	10.767	5.0	DJERBA MELLITA	27692
490	33.883	-5.533	5.0	MEKNES	2167
491	33.95	92.617	5.0	TUOTUOHE	11291
492	34.05	131.05	5.0	OZUKI AB	303
493	34.0803	111.0728	5.0	LUSHI	26483
494	34.217	-4.0	5.0	TAZA	2441
495	34.217	62.217	5.0	HERAT	1107
496	34.3	-103.8	5.0	MELROSE GUNNERY RAN	151
497	34.417	8.817	5.0	GAFSA	20537
498	34.583	105.75	5.0	TIANSHUI	6899
499	34.6	-86.6333	5.0	REDSTONE ARSENAL	2583
500	34.65	-120.567	5.0	SOUTH VANDENBERG AF	6218
501	34.6833	3.25	5.0	DJELFA	9814
502	34.717	10.683	5.0	SFAX EL-MAOU	30654
503	34.783	-1.95	5.0	OUJDA	7639
504	34.8	5.733	5.0	BISKRA	19871
505	34.85	119.133	5.0	GANYU	7452
506	34.917	98.217	5.0	MADOI	6085
507	34.933	136.583	5.0	YOKKAICHI	4758
508	34.983	139.833	5.0	TATEYAMA AB	533
509	35.117	36.75	5.0	HAMA	741
510	35.133	-78.933	5.0	FORT BRAGG/SIMMONS	159
511	35.169	128.934	5.0	GIMHAE INTL AIRPORT	5577
512	35.183	-3.85	5.0	AL HOCEIMA	4040
513	35.217	93.083	5.0	WUDAOLIANG	5083
514	35.35	1.467	5.0	TIARET	280
515	35.533	35.767	5.0	LATTAKIA	458
516	35.633	-0.6	5.0	ORAN-SENIA	38241
517	35.667	-75.9	5.0	DARE COUNTY GUNNERY	5845
518	35.733	-5.9	5.0	TANGER (AERODROME)	389
519	35.8	140.017	5.0	SHIMOFUSA AB	467
520	35.9167	74.3333	5.0	GILGIT	521
521	35.933	39.017	5.0	RAQQA	252
522	36.05	114.4	5.0	ANYANG	7228
523	36.183	118.15	5.0	YIYUAN	6101
524	36.217	1.333	5.0	CHLEF	3213
525	36.283	6.617	5.0	CONSTANTINE	21262
526	36.3	2.233	5.0	MILIANA	14988
527	36.317	43.15	5.0	MOSUL	884
528	36.4	139.067	5.0	MAEBASHI	5175
529	36.533	-115.667	5.0	INDIAN SPRINGS GUNN	335
530	36.617	128.35	5.0	YECHEON AB	5663
531	36.6667	68.9167	5.0	KUNDUZ	4540
532	36.7	119.1167	5.0	WEI HSIEN	254
533	36.767	126.467	5.0	SEOSAN	566
534	36.833	7.817	5.0	ANNABA	30088
535	36.85	11.083	5.0	KELIBIA	18563
536	36.867	30.733	5.0	ANTALYA	1476
537	36.883	6.9	5.0	SKIKDA	639
538	36.8833	-93.9	5.0	MONETT	18071
539	37.017	-7.967	5.0	FARO/AEROPORTO	1831
540	37.05	41.217	5.0	KAMISHLI	136
541	37.0667	-88.7667	5.0	PADUCAH BARKLEY FLD	4390
542	37.1	128.8667	5.0	SANGDONG	294
543	37.1808	114.3589	5.0	XINGTAI	26266
544	37.233	9.817	5.0	BIZERTE	7207
545	37.3167	-121.8667	5.0	SAN JOSE/EMSU	188
546	37.317	97.217	5.0	DELINGHA	10750
547	37.4	122.683	5.0	CHENGSHANTOU	15581
548	37.433	-105.867	5.0	ALAMOSA MUNI(AWOS)	921
549	37.617	120.317	5.0	LONGKOU	8328
550	37.783	-81.117	5.0	BECKLEY	114
551	37.783	-0.8	5.0	MURCIA/SAN JAVIER	1000
552	37.85	95.367	5.0	DA-QAIDAM	5439
553	37.917	139.05	5.0	NIIGATA	2033
554	37.93	83.65	5.0	ANDIR	14362
555	37.966	124.63	5.0	BAENGNYEONGDO	8261
556	38.0	-71.0	5.0	OCEAN WEATHER SHIP H	3274
557	38.25	90.85	5.0	MANGNAI	15030
558	38.373	-81.6	5.0	YEAGER	1619
559	38.417	-113.017	5.0	MILFORD MUNICIPAL	774
560	38.433	77.267	5.0	SHACHE	15714
561	38.733	115.483	5.0	BAODING	9153
562	38.817	35.433	5.0	KAYSERI/ERKILET	1942
563	39.0833	-28.0333	5.0	GRACIOSA/AERODROME	2173
564	39.1	107.983	5.0	OTOG QI	9443
565	39.2	45.417	5.0	NAXCIVAN	914
566	39.383	111.15	5.0	HEQU	8713
567	39.4333	118.9	5.0	LETING	20578
568	39.45	-74.6667	5.0	ATLANTIC CITY U-A	10118
569	39.5	-76.1667	5.0	ABERDEEN PRVGR	5475
570	39.55	2.617	5.0	PALMA DE MALLORCA	9948
571	39.6667	118.1167	5.0	TANG SHAN	251
572	39.783	105.75	5.0	JARTAI	9470
573	39.8	78.567	5.0	BACHU	9060
574	39.8333	109.9833	5.0	DONGSHENG	23570
575	39.867	4.233	5.0	MENORCA/MAHON	165
576	39.9333	127.55	5.0	HAMHEUNG	11836
577	39.983	46.75	5.0	KHANKANDY	657
578	40.083	124.333	5.0	DANDONG	24594
579	40.1	113.333	5.0	DATONG	8658
580	40.2	-8.417	5.0	COIMBRA	458
581	40.217	69.733	5.0	KHUDJAND	382
582	40.267	97.033	5.0	YUMENZHEN	2942
583	40.433	-80.0	5.0	PITTSBURGH/EMSU	544
584	40.55	70.95	5.0	KOKAND	7416
585	40.633	87.7	5.0	TIKANLIK	16175
586	40.75	104.5	5.0	BAYAN MOD	20474
587	40.783	43.833	5.0	GUMRI	147
588	40.7833	114.8833	5.0	ZHANGJIAKOU	23066
589	40.85	35.583	5.0	MERZIFON	1796
590	40.933	78.45	5.0	AKQI	5651
591	40.95	-5.5	5.0	SALAMANCA/MATACAN	173
592	40.967	117.917	5.0	CHENGDE	6676
593	41.1167	122.95	5.0	AN SHAN	362
594	41.117	121.067	5.0	JINZHOU	26088
595	41.233	-8.683	5.0	PORTO/PEDRAS RUBRAS	1615
596	41.25	-76.917	5.0	WILLIAMSPORT/LYCOMI	463
597	41.433	76.0	5.0	NARYN	13926
598	41.45	31.8	5.0	ZONGULDAK	304
599	41.45	106.383	5.0	HAILS	4738
600	41.55	46.667	5.0	ZAKATALA	424
601	41.5667	108.5167	5.0	HALIUT	23054
602	41.633	41.6	5.0	BATUMI	7554
603	41.65	-70.5167	5.0	FALMOUTH OTIS AFB	383
604	41.65	25.367	5.0	KURDJALI	9983
605	41.717	-4.85	5.0	VALLADOLID/VILLANUB	206
606	41.75	86.133	5.0	KORLA	21640
607	41.75	103.9667	5.0	PANG-TING-TO-TO-KAI	1057
608	41.95	21.633	5.0	SKOPJE- AIRPORT	2454
609	42.2	-1.45	5.0	BARDENAS REALES	4866
610	42.217	-75.983	5.0	BINGHAMTON/BROOME C	109
611	42.45	-2.333	5.0	LOGRONO/AGONCILLO	349
612	42.583	-5.65	5.0	LEON/VIRGEN DEL CAM	200
613	42.7	-68.3	5.0	ENVIRONM BUOY 44005	574
614	42.917	-106.467	5.0	CASPER/NATRONA COUN	1420
615	42.933	89.2	5.0	TURPAN	10824
616	43.0	1.1	5.0	SAINT GIRONS	158
617	43.2	107.167	5.0	HANBOGD	2539
618	43.483	91.633	5.0	SHISANJIANFANG	15467
619	43.583	-118.95	5.0	BURNS MUNI (AMOS)	1705
620	43.5833	39.7667	5.0	SOCHI	194
621	43.6	118.067	5.0	LINXI	3300
622	43.633	1.367	5.0	TOULOUSE BLAGNAC	1937
623	43.75	24.883	5.0	TR. MAGURELE	218
624	43.917	-0.5	5.0	MONT-DE-MARSAN	166
625	43.983	119.4	5.0	LINDONG	4651
626	44.017	89.567	5.0	QITAI	9992
627	44.117	-77.533	5.0	TRENTON ARPT	142
628	44.217	28.633	5.0	CONSTANTA	27610
629	44.317	23.867	5.0	CRAIOVA	548
630	44.567	129.6	5.0	MUDANJIANG	4789
631	44.583	4.733	5.0	MONTELIMAR	189
632	44.583	117.6	5.0	XI UJIMQIN QI	8443
633	44.617	82.9	5.0	JINGHE	10505
634	44.617	114.15	5.0	NARAN BULAG	14093
635	44.633	22.633	5.0	DROBETA TURNU SEVER	953
636	45.0	-16.0	5.0	OCEAN WEATHER SHIP K	2558
637	45.0464	34.5989	5.0	KRYMSKA	493
638	45.15	26.817	5.0	BUZAU	652
639	45.15	29.667	5.0	SULINA	178
640	45.417	-91.767	5.0	RICE LAKE RGNL CARLS	581
641	45.5	28.2	5.0	GALATI	7351
642	45.6	84.85	5.0	KARAMAY	20097
643	45.667	-0.317	5.0	COGNAC	356
644	45.7264	5.0778	5.0	LYON-ST EXUPERY	35372
645	45.767	106.283	5.0	MANDALGOBI	3030
646	45.867	1.183	5.0	LIMOGES	190
647	45.867	22.9	5.0	DEVA	887
648	45.95	-77.317	5.0	PETAWAWA	1273
649	46.0	18.233	5.0	PECS/POGANY	127
650	46.0303	12.5992	5.0	AVIANO	1508
651	46.2	150.5	5.0	URUP	29544
652	46.2667	102.7833	5.0	ARVAIHEER	13261
653	46.374	-117.015	5.0	LEWISTON NEZ PERCE	432
654	46.4	96.25	5.0	ALTAI	14794
655	46.5	121.36	5.0	TE-PO-SU-K/-MIAO	11684
656	46.533	24.533	5.0	TG. MURES	1169
657	46.583	26.983	5.0	BACAU	1500
658	46.733	83.0	5.0	TACHENG	22028
659	46.767	-56.167	5.0	SAINT-PIERRE	690
660	46.81	85.7489	5.0	HOBOKSAR	26741
661	46.9	-71.483	5.0	VALCARTIER AIRPORT	2371
662	46.9667	-122.9	5.0	OLYMPIA MUN I AP	1217
663	46.9931	15.4392	5.0	GRAZ-THALERHOF-FLUGHAFEN	10698
664	47.033	21.9	5.0	ORADEA	822
665	47.067	2.367	5.0	BOURGES	3475
666	47.15	-1.6	5.0	NANTES	256
667	47.167	27.633	5.0	IASI	1100
668	47.2603	11.3439	5.0	INNSBRUCK-FLUGHAFEN	7542
669	47.267	5.083	5.0	DIJON	234
670	47.267	16.633	5.0	SZOMBATHELY	183
671	47.383	123.917	5.0	QIQIHAR	17927
672	47.45	101.467	5.0	TSETSERLEG	2069
673	47.567	-59.15	5.0	PORT-AUX-BASQUES	2303
674	47.633	26.25	5.0	SUCEAVA	513
675	47.75	96.85	5.0	ULIASTAI	1923
676	47.8	3.55	5.0	AUXERRE	185
677	47.95	-97.4	5.0	GRAND FORKS AFB	517
678	48.017	91.567	5.0	HOVD	3097
679	48.0833	114.55	5.0	CHOIBALSAN	11826
680	48.183	-103.633	5.0	WILLISTON/SLOULIN F	460
681	48.2353	14.1881	5.0	LINZ/HOERSCHING-FLUGHAFEN	10855
682	48.55	-109.767	5.0	HAVRE (AMOS)	690
683	48.667	116.817	5.0	XIN BARAG YOUQI	12550
684	48.7	-8.9167	5.0	ENVIRONM BUOY 62027	215
685	48.8	103.55	5.0	BULGAN	2639
686	48.917	106.067	5.0	BARUUNHARAA	2895
687	49.08	16.62	5.0	BRNO REBESOVICE	4516
688	49.2	-123.167	5.0	VANCOUVER INT. AIRP	14056
689	49.3	4.033	5.0	REIMS	179
690	49.633	-112.8	5.0	LETHBRIDGE AWOS	9936
691	49.65	7.3	5.0	BAUMHOLDER (USA-AF)	1342
692	49.7167	-124.9	5.0	COMOX A	104
693	49.75	10.2	5.0	KITZINGEN AAF	631
694	49.783	-99.633	5.0	SHILO	6238
695	49.9031	-98.2842	5.0	PORTAGE SOUTHPORT	554
696	50.0	88.667	5.0	KOS-AGAC	10486
697	50.033	5.4	5.0	ST-HUBERT	26357
698	50.133	1.833	5.0	ABBEVILLE	116
699	50.133	65.233	5.0	AMANGELDY	15887
700	50.383	-102.683	5.0	BROADVIEW	8722
701	50.8667	7.1333	5.0	KOLN/BONN	1759
702	51.083	2.65	5.0	KOKSIJDE	311
703	51.1	-100.05	5.0	DAUPHIN AIRPORT	2648
704	51.117	-114.017	5.0	CALGARY INTL	15534
705	51.13	9.28	5.0	FRITZLAR/KASSELER	21333
706	51.133	-106.583	5.0	ELBOW CS	165
707	51.4	-3.35	5.0	CARDIFF-WALES ARPT	890
708	51.517	-109.183	5.0	KINDERSLEY ARPT	914
709	51.55	12.0667	5.0	OPPIN	3700
710	51.717	126.65	5.0	HUMA	6620
711	51.733	6.267	5.0	KALKAR	3052
712	51.75	-1.583	5.0	BRIZE NORTON	1008
713	52.167	-106.717	5.0	SASKATOON DIEFENBAKE	2309
714	52.167	4.433	5.0	VALKENBURG	583
715	52.267	7.433	5.0	NORDHORN	5346
716	52.4167	-4.0	5.0	CAPEL DEWI	6559
717	52.433	-114.917	5.0	ROCKY MTN HOUSE	1475
718	52.5	-20.0	5.0	OCEAN WEATHER SHIP J	2559
719	52.767	-108.25	5.0	NORTH BATTLEFORD	2182
720	52.8	-2.667	5.0	SHAWBURY	561
721	53.167	-0.517	5.0	WADDINGTON	992
722	53.217	-105.667	5.0	PRINCE ALBERT ARPT	9605
723	53.25	4.917	5.0	VLIELAND	6803
724	53.85	-94.65	5.0	ISLAND LAKE ARPT	4067
725	54.2	16.1833	5.0	KOSZALIN	1537
726	54.3	-1.533	5.0	LEEMING	777
727	54.383	10.15	5.0	KEIL/HOLTENAU	15248
728	54.48	-6.1	5.0	LONG KESH	48477
729	55.283	-114.783	5.0	SLAVE LAKE AIRPORT	13183
730	55.317	-3.2	5.0	ESKDALEMUIR	233
731	55.417	-1.6	5.0	BOULMER	13127
732	55.767	12.533	5.0	JAEGERSBORG	40587
733	56.2933	9.1139	5.0	FLYVESTATION KARUP	5675
734	56.5422	3.2236	5.0	EKOFISK	15135
735	56.65	-111.217	5.0	FORT MCMURRAY ARPT	11470
736	57.1	9.867	5.0	FLYVESTATION AALBOR	4824
737	57.2	-2.217	5.0	ABERDEEN/DYCE AIRPO	421
738	57.65	-3.567	5.0	KINLOSS	767
739	57.65	18.35	5.0	VISBY AEROLOGISKA STATION	28914
740	58.183	12.15	5.0	TORPABRON	288
741	59.0	-19.0	5.0	OCEAN WEATHER SHIP I	2647
742	59.9428	10.7194	5.0	OSLO-BLINDERN	934
743	61.2667	-149.65	5.0	FT. RICHARDSON/BRYANT AHP	972
744	66.0	2.0	5.0	OCEAN WEATHER SHIP M	2031
745	66.567	-145.267	5.0	FORT YUKON	133
746	68.1	-165.7667	5.0	CAPE THOMPSON	100
747	69.3153	16.1308	5.0	ANDOYA	3633
748	69.9333	167.9667	5.0	AJON ISLAND	9137
749	71.317	-156.617	5.0	SANDIA LAB. D	523
750	-24.6085	25.91685	5.6	GABORONE,SERETSE KHAMA INTERNATIONAL AI	6466
751	-22.52485	17.283499999999997	5.6	WINDHOEK,HOSEA KUTAKO INTL A	20028
752	-21.11275	55.5058	5.6	ST. PIERRE/FONDS,SAINT-DENIS/GILLOT (REUNION)	30468
753	-17.87515	31.074850000000005	5.6	HARARE (KUTSAGA),HARARE (BELVEDERE)	19508
754	-13.771499999999998	33.73350000000001	5.6	LILONGWE INTL AIRPO,LILONGWE	15098
755	-11.6665	33.81699999999999	5.6	MZIMBA,MZUZU	8106
756	-7.649850000000001	110.5915	5.6	ADISUCIPTO/JOGYAKAR,SURAKARTA/ADISUMARM	6614
757	-6.725	107.625	5.6	BANDUNG/HUSEIN,KALIJATI	3518
758	-5.19165	-80.6	5.6	PIURA,PIURA GRUP7	1436
759	-4.375	15.3415	5.6	KINSHASA/NDJILI,KINSHASA/BINZA	1037
760	-3.7581499999999997	-73.275	5.6	IQUITOS,MORONA	1396
761	-0.23349999999999999	35.008500000000005	5.6	KERICHO,KISUMU	10864
762	0.7499999999999999	35.15	5.6	ELDORET,KITALE	11263
763	3.1085000000000003	101.6	5.6	PETALING JAYA,KUALA LUMPUR SUBANG	34224
764	9.4335	6.766499999999999	5.6	ABUJA,MINNA	1412
765	10.73335	106.9917	5.6	BARIA (PHUOC LE),BIEN HOA (VVBH)	1227
766	10.541999999999998	-71.69149999999999	5.6	LA CANADA,MARACAIBO-LA CHINIT	1487
767	13.983350000000002	108.33335	5.6	AN KHE (VVAK),PLEIKU AB	922
768	14.208350000000001	-87.43334999999999	5.6	TEGUCIGALPA,SOTO CANO AB	5791
769	15.0585	120.325	5.6	SUBIC BAY WEATHER,CROW VALLEY GUNNERY	4499
770	15.45	44.1915	5.6	SANAA,SANA'A (CIV/MIL)	2841
771	16.68459811320755	107.26820566037736	5.9	DONG HA,HUE/PHU BAI,QUANG TRI	2118
772	17.66345	102.68820000000001	5.6	UDON THANI,VIENTIANE	50356
773	23.119033962264147	120.35684905660378	5.9	CHIAYI (TW-AFB),PINGTUNG SOUTH(AFB),TAINAN (TW-AFB)	23974
774	24.0835	114.60815	5.6	HEYUAN,LIANPING	23767
775	24.3665	118.258	5.6	CHIANGYANG,CHINMEM/SHATOU(AFB)	10508
776	26.458499999999997	127.73299999999999	5.6	NAHA,IEJIMA AUXILIARY AB	47138
777	26.6	88.54169999999999	5.6	JALPAIGURI,SILIGURI	21141
778	30.357999999999997	-9.492	5.6	AGADIR AL MASSIRA,AGADIR INEZGANNE	17056
779	30.5	-86.5	5.6	HURLBURT FIELD (AF),EGLIN AFB RANGE NO.	777
780	31.108000000000004	-92.833	5.6	FORT POLK (ARMY),CLAIBORNE RNG (AFS)	4525
781	32.26649999999999	35.9165	5.6	AMMAN AIRPORT,IRBED	2006
782	33.033500000000004	130.1085	5.6	NAGASAKI AIRPORT,SAGA AIRPORT	1005
783	34.066500000000005	134.6165	5.6	KOMATSUSHIMA AB,TOKUSHIMA AB	5729
784	34.632999999999996	32.9	5.6	AKROTIRI,EPISKOPI	21901
785	34.67515	137.95999999999998	5.6	OMAEZAKI,HAMAMATSU AB	41615
786	35.29103773584906	-116.9662641509434	5.9	BICYCLE LAKE (AAF),CUDDLEBACK GUNNERY,SUPERIOR VALLEY GUN	8450
787	35.48350000000001	8.4	5.6	TEBESSA,THALA	16947
788	35.7085	10.425	5.6	KAIROUAN,MONASTIR-SKANES	45397
789	35.9415	129.0335	5.6	DAEGU AB,POHANG AB	6547
790	36.45	5.1585	5.6	SETIF,BEJAIA-AEROPORT	17970
791	36.716499999999996	8.775	5.6	JENDOUBA,TABARKA	24747
792	36.6665	127.4665	5.6	CHEONGJU,CHEONGJU INTL AIRPO	6428
793	36.966499999999996	67.2335	5.6	MAZAR-I-SHARIF,TERMEZ	22278
794	37.39149999999999	127.01700000000001	5.6	SV RI SAN,SEOUL AB	7063
795	37.66775	127.84290000000001	5.6	WONJU AB,CHUNCHEON	6742
796	38.0004	128.75735	5.6	GANGNEUNG AB,SOKCHO	16895
797	38.715792452830186	-104.72005660377359	5.9	AIR FORCE ACADEMY,PUEBLO MEMORIAL(AW),FORT CARSON/BUTTS	11440
798	40.666999999999994	46.783500000000004	5.6	EVLAKH AIRPORT,GANDJA	982
799	42.2	42.833000000000006	5.6	SAKARA,KUTAISI	571
800	43.533500000000004	6.975	5.6	SAINT-RAPHAEL,NICE	667
801	43.575	-1.3	5.6	BIARRITZ,DAX	1383
802	45.1835	-83.18350000000001	5.6	ALPENA/PHELPS COLLI,ENVIRONM BUOY 45003	685
803	45.641999999999996	-73.583	5.6	MONTREAL/TRUDEAU INT,LASSOMPTION CDA	17931
804	45.6	25.558	5.6	PREDEAL,BRASOV-GHIMBAV	1501
805	45.967	21.2835	5.6	TIMISOARA,ARAD	8037
806	45.80800000000001	24.508	5.6	SIBIU,FAGARAS	967
807	47.69199999999999	23.191499999999998	5.6	BAIA MARE,SATU MARE	2659
808	48.0415	9.075	5.6	NEUHAUSEN OB ECK,SIGMARINGEN	21411
809	49.5415	11.5585	5.6	FEUCHT(USA-AF),GRAFENWOEHR	4679
810	49.85	-97.18315	5.6	WINNIPEG UA,WINNIPEG INT.AIRPOR	16919
811	50.0869	-119.34164999999999	5.6	KELOWNA UA,VERNON AUTO	32630
812	50.092	8.8085	5.6	LANGEN,HANAU	1153
813	50.3165	-104.68350000000001	5.6	BRATT'S LAKE UA,REGINA INTL	6506
814	51.83585000000001	0.89695	5.6	SHOEBURYNESS,WATTISHAM	11190
815	53.492000000000004	-113.525	5.6	EDMONTON INTL ARPT,EDMONTON NAMAO ARPT	10372
816	54.5835	-110.1665	5.6	COLD LAKE,PRIMROSE LAKE	6241
817	-0.20425	37.275000000000006	6.2	EMBU,NYERI,NANUYKI,MERU	7361
