	latitude	longitude	radius	station	records
0	-80.017	-119.533	5.0	BYRD STN	7679
1	-79.25	-147.5	5.0	LITTLE ROCKFORD	309
2	-78.45	106.867	5.0	VOSTOK	7319
3	-78.4	87.583	5.0	SOVIETSKAVA	273
4	-76.2667	-147.5	5.0	LITTLE ROCKFORD	389
5	-72.3	170.2167	5.0	ADARE HALLETT	4373
6	-70.4333	24.3167	5.0	BASE ROI BAUDOUIN	1097
7	-70.317	-2.367	5.0	SANAE	9815
8	-69.73	95.05	5.0	PIONERSKAVA	121
9	-69.5	159.4	5.0	LENINGRADSKAJA	2575
10	-67.667	45.85	5.0	MOLODEZNAJA	13014
11	-66.27	100.73	5.0	BUNGER OASIS	548
12	-65.25	-64.2667	5.0	FARADAY	10141
13	-63.4667	-56.2833	5.0	PETREL NAS	1654
14	-62.183	-58.883	5.0	BELLINGSHAUSEN AWS	6342
15	-60.75	-44.7167	5.0	ISLAS ORCADAS (MET)	8699
16	-59.45	-27.267	5.0	CORBETA URUGUAY DN	275
17	-54.8	-68.3167	5.0	USHUAIA	1943
18	-53.8	-67.75	5.0	RIO GRANDE AIRPORT	3267
19	-53.1	73.7167	5.0	HEARD IS.(THESPIT)	2295
20	-52.55	169.15	5.0	CAMPBELL ISLAND	18775
21	-51.7	-57.8667	5.0	STANLEY	4603
22	-51.6333	-69.2167	5.0	RIO GALLEGOS B. A.	4526
23	-49.3522	70.2433	5.0	PORT-AUX-FRANCAIS	15904
24	-46.8831	37.8669	5.0	MARION ISLAND	33482
25	-43.95	-176.5667	5.0	CHATHAM ISL/TUUTA	16837
26	-43.2333	-65.3	5.0	ALMIRANTE ZAR	1150
27	-42.8833	147.3333	5.0	HOBART	1774
28	-42.7167	170.9833	5.0	HOKITIKA AERODROME	26036
29	-42.417	173.7	5.0	KAIKOURA	5055
30	-42.2	145.05	5.0	GEOGERTOWN	2980
31	-41.3	174.63	5.0	OUTLOOK HILL	11385
32	-39.467	175.683	5.0	WAIOURU	2309
33	-39.0167	174.1833	5.0	NEW PLYMOUTH AERO	31454
34	-38.7333	-62.1667	5.0	COMANDANTE ESPORA	13733
35	-38.6667	177.9833	5.0	GISBORNE AERODROME	28600
36	-38.1	147.1333	5.0	EAST SALE (AUS-AFB)	45308
37	-37.867	144.75	5.0	LAVERTON AERODROME	58326
38	-37.7953	77.5692	5.0	MARTIN DE VIVIES	16637
39	-35.367	-57.283	5.0	PUNTA INDIO B.A.	151
40	-35.3	149.183	5.0	CANBERRA AIRPORT	54494
41	-35.1	173.267	5.0	KAITAIA	14537
42	-34.58	-58.48	5.0	BUENOS AIRES	107
43	-34.2358	142.0867	5.0	MILDURA AIRPORT	75371
44	-34.017	22.383	5.0	GEORGE AIRPORT	4491
45	-33.6	115.4667	5.0	LUDLOW	539
46	-33.033	27.833	5.0	EAST LONDON	3098
47	-32.8833	-68.85	5.0	OBSERV MENDOZA	3075
48	-32.78	-71.51	5.0	QUINTERO (MIL)	28938
49	-32.5667	148.95	5.0	WELLINGTON	948
50	-31.6667	128.8667	5.0	EUCLA	12086
51	-31.35	-54.117	5.0	BAGE (AEROPORTO)	1012
52	-30.833	128.1	5.0	FORREST AIRPORT	54264
53	-30.5167	151.65	5.0	ARMIDALE	728
54	-30.3108	153.1186	5.0	COFFS HARBOUR MO	67021
55	-30.0833	145.9667	5.0	BOURKE (S23'05'11'17)	130
56	-30.01	131.583	5.0	MARALINGA	7453
57	-29.9667	30.95	5.0	DURBAN/LOUIS BOTHA	29090
58	-29.2447	-177.9289	5.0	RAOUL ISLAND	25267
59	-28.8	24.767	5.0	KIMBERLEY	9829
60	-28.567	16.533	5.0	KORTDOORN/ALEXANDER	11144
61	-28.25	28.3333	5.0	BETHLEHEM AIRPORT	11390
62	-27.65	152.7167	5.0	AMBERLEY	2455
63	-27.55	135.4833	5.0	OODNADATTA	37900
64	-27.4667	-58.9833	5.0	RESISTENCIA	1200
65	-26.5333	18.1167	5.0	KEETMANSHOOP	6019
66	-26.05	22.45	5.0	TSABONG	836
67	-25.783	25.533	5.0	MAFIKENG WO	1154
68	-25.733	28.183	5.0	PRETORIA-EENDRACHT	3937
69	-25.55	45.533	5.0	FAUX-CAP	549
70	-25.2333	-57.5167	5.0	AEROPUERTO SILVIO PETTIROSSI	5464
71	-25.0333	46.95	5.0	TAOLAGNARO	29889
72	-24.8878	113.67	5.0	CARNARVON AIRPORT	71908
73	-24.85	-65.4833	5.0	SALTA AERO	19838
74	-23.867	35.383	5.0	INHAMBANE	4808
75	-23.8667	29.45	5.0	PIETERSBURG (SAAF)	13740
76	-23.85	151.25	5.0	GLADSTONE	46725
77	-23.617	-46.65	5.0	SAO PAULO	16840
78	-23.4372	144.2769	5.0	LONGREACH AERO	47067
79	-23.383	43.733	5.0	TOLIARA	5308
80	-23.35	-149.4833	5.0	TUBUAI ISLAND	19527
81	-22.9833	14.65	5.0	WALVIS BAY AIRPORT	1174
82	-22.8	47.833	5.0	FARAFANGANA	2385
83	-22.55	45.4	5.0	RANOHIRA	1639
84	-22.333	40.333	5.0	ILE EUROPA	7597
85	-22.2761	166.4528	5.0	NOUMEA (NLLE-CALEDONIE)	41494
86	-22.217	30.0	5.0	BEITBRIDGE	3367
87	-22.03	-63.68	5.0	YACUIBA	670
88	-22.0167	-60.6167	5.0	MARISCAL ESTIGARRIBIA	708
89	-21.817	-138.8	5.0	MURUROA	6907
90	-21.75	43.367	5.0	MOROMBE	1328
91	-21.6333	115.1167	5.0	ONSLOW	25950
92	-21.45	47.1	5.0	FIANARANTSOA	1453
93	-21.417	25.6	5.0	LETLHAKANE	693
94	-21.233	-175.15	5.0	FUAAMOTU	5436
95	-21.217	27.5	5.0	FRANCISTOWN	613
96	-21.2	-159.8167	5.0	RAROTONGA	23629
97	-21.2	48.367	5.0	MANANJARY	4840
98	-21.1172	149.2169	5.0	MACKAY M.O	66046
99	-21.017	31.583	5.0	BUFFALO RANGE	6492
100	-20.767	167.233	5.0	OUANAHAM	7206
101	-20.7667	-138.55	5.0	TUREIA	271
102	-20.6667	140.5	5.0	CLONCURRY	33366
103	-20.567	164.283	5.0	KOUMAC	11482
104	-20.5	-29.3167	5.0	TRINDADE (ILHA)	9829
105	-20.283	44.317	5.0	MORONDAVA	3268
106	-20.233	169.767	5.0	ANEITYUM	125
107	-20.15	28.617	5.0	BULAWAYO	14661
108	-20.067	30.867	5.0	MASVINGO	8225
109	-19.9833	23.4167	5.0	MAUN	1796
110	-19.9061	-144.9494	5.0	HEREHERETUE	7607
111	-19.833	48.8	5.0	MAHANORO	1069
112	-19.783	-47.967	5.0	UBERABA	134
113	-19.683	63.417	5.0	RODRIGUES	10891
114	-19.6422	134.1833	5.0	TENNANT CREEK AIRPORT	46728
115	-19.6	18.117	5.0	GROOTFONTEIN	4094
116	-19.45	29.85	5.0	GWERU	5186
117	-19.28	121.5	5.0	TALGARNO	297
118	-19.2483	146.7661	5.0	TOWNSVILLE AERO	87784
119	-18.9	47.5333	5.0	TANANARIVE/SCM	4211
120	-18.633	26.85	5.0	HWANGE NATIONAL PAR	2189
121	-18.533	32.15	5.0	RUSAPE	2604
122	-18.317	29.883	5.0	KADOMA	1432
123	-18.3167	-59.7667	5.0	ROBORE	144
124	-18.2292	127.6636	5.0	HALLS CREEK AIRPORT	52731
125	-18.217	28.933	5.0	GOKWE	1693
126	-18.067	-140.95	5.0	HAO	18186
127	-17.883	36.883	5.0	QUELIMANE	2266
128	-17.8	-63.1833	5.0	SANTA CRUZ/EL TROMPILLO	1454
129	-17.7333	-39.25	5.0	CARAVELAS	5524
130	-17.7333	139.5333	5.0	BURKETOWN	145
131	-17.6833	141.0667	5.0	NORMANTON AIRPORT	229
132	-17.5553	-149.6145	5.0	TAHITI-FAAA	40183
133	-17.417	32.217	5.0	MUTOKO	4155
134	-17.38	-66.17	5.0	COCHABAMBA	1502
135	-17.3167	123.6333	5.0	DERBY	7081
136	-17.083	49.817	5.0	SAINTE-MARIE AERODR	681
137	-17.05	42.717	5.0	ILE JUAN DE NOVA	5730
138	-16.8736	145.7458	5.0	CAIRNS AERO	79304
139	-16.833	29.617	5.0	KAROI	4958
140	-16.517	-68.183	5.0	LA PAZ/ALTO	4156
141	-16.517	28.883	5.0	KARIBA	2203
142	-16.45	-151.75	5.0	BORA-BORA	11160
143	-16.45	59.617	5.0	ST. BRANDON	5725
144	-16.333	-71.567	5.0	AREQUIPA	3138
145	-16.2667	133.3833	5.0	DALY WATERS	20570
146	-16.183	33.583	5.0	TETE	2074
147	-15.8878	54.5206	5.0	SERGE-FROLOW (ILE TROMELIN)	20680
148	-15.683	34.967	5.0	CHILEKA	10079
149	-15.6667	46.35	5.0	MAHAJANGA	36011
150	-15.6	-56.1	5.0	CUIABA	443
151	-15.517	167.217	5.0	PEKOA AIRPORT	661
152	-15.417	28.317	5.0	LUSAKA CITY AIRPORT	9588
153	-15.25	23.15	5.0	MONGU	5748
154	-15.2167	12.1667	5.0	MOCAMEDES	1595
155	-15.1	39.283	5.0	NAMPULA	4237
156	-15.03	40.67	5.0	LUMBO	2531
157	-15.0	50.333	5.0	ANTALAHA	4654
158	-14.95	-147.659	5.0	RANGIROA	5720
159	-14.95	-40.883	5.0	VITORIA DA CONQUIST	123
160	-14.933	13.567	5.0	LUBANGO	236
161	-14.8167	-64.9167	5.0	TRINIDAD	937
162	-14.633	47.767	5.0	ANALALAVA	1607
163	-14.4833	-145.0333	5.0	TAKAROA ATOLL	17249
164	-14.45	-67.53	5.0	RURRENABAQUE	125
165	-14.4167	28.4833	5.0	KABWE	12025
166	-14.3667	-170.7833	5.0	LEONE BAY AMERICAN S	359
167	-14.283	50.167	5.0	SAMBAVA	2763
168	-13.8	-171.783	5.0	APIA	10496
169	-13.75	34.583	5.0	SALIMA	2342
170	-13.733	-76.217	5.0	PISCO	1501
171	-13.55	32.583	5.0	CHIPATA	140
172	-13.367	50.0	5.0	VOHEMAR	807
173	-13.317	48.317	5.0	FASCENE (NOSSI-BE)	786
174	-13.3	35.233	5.0	LICHINGA	1908
175	-13.2667	-43.4167	5.0	BOM JESUS DA LAPA	6605
176	-13.0167	-38.5167	5.0	SALVADOR	7952
177	-13.0	28.65	5.0	NDOLA	2372
178	-12.983	40.533	5.0	PEMBA	3898
179	-12.8	15.75	5.0	HUAMBO	301
180	-12.8	45.2833	5.0	DZAOUDZI/PAMANZI	15117
181	-12.5	177.05	5.0	ROTUMA	6835
182	-12.37	13.53	5.0	LOBITO	100
183	-12.35	49.3	5.0	ANTSIRANANA	8157
184	-12.15	-77.0	5.0	LAS PALMAS	389
185	-12.15	-45.0	5.0	BARREIRAS	1194
186	-12.117	44.433	5.0	OUANI (ANJOUAN)	3271
187	-11.783	19.917	5.0	LUENA (LUSO)	1995
188	-11.75	24.4333	5.0	MWINLUNGA	2872
189	-11.7	43.233	5.0	MORONI AIRPORT	5231
190	-11.583	47.283	5.0	ILES GLORIEUSES	7379
191	-11.3	-41.867	5.0	IRECE	347
192	-11.0333	-68.7833	5.0	COBIJA	222
193	-10.917	-37.05	5.0	ARACAJU	417
194	-10.82	-65.37	5.0	GUAYARAMERIN	618
195	-10.7	-48.4	5.0	PORTO NACIONAL	1005
196	-10.7	152.833	5.0	MISIMA ISLAND	2055
197	-10.7	165.8	5.0	SANTA CRUZ ISLAND	151
198	-10.583	142.217	5.0	THURSDAY IL/HORN IL	21187
199	-10.45	105.7	5.0	CHRISTMAS ISL (PVT)	3447
200	-10.433	56.75	5.0	AGALEGA	2514
201	-10.217	31.133	5.0	KASAMA	3135
202	-9.95	33.883	5.0	KARONGA	2595
203	-9.517	-35.783	5.0	MACEIO (AEROPORTO)	133
204	-9.4167	159.9667	5.0	HONIARA	24636
205	-9.3833	-40.4833	5.0	PETROLINA	9393
206	-9.3833	147.2167	5.0	PORT MORESBY W.O.	50726
207	-9.35	46.533	5.0	ALDABRA	143
208	-9.333	-54.967	5.0	CACHIMBO AERO	2176
209	-9.2	124.367	5.0	OE-CUSSIE	498
210	-9.1	-44.117	5.0	BOM JESUS	376
211	-9.0	-158.05	5.0	PENRHYN	8316
212	-8.933	33.467	5.0	MBEYA	767
213	-8.85	13.233	5.0	LUANDA	8531
214	-8.55	125.55	5.0	DILLI/DILLI AIRPORT	7176
215	-8.367	-74.567	5.0	PUCALLPA	328
216	-8.05	-34.9167	5.0	RECIFE	14978
217	-7.967	112.7	5.0	MALANG/ABDUL (AFB)	586
218	-7.9667	-14.4	5.0	WIDE AWAKE FIELD	18170
219	-7.633	35.767	5.0	IRINGA	677
220	-7.617	111.517	5.0	MADIUN/ISWAHYUD AFB	3443
221	-7.4	20.817	5.0	DUNDO	6240
222	-7.3333	-47.4667	5.0	CAROLINA	5666
223	-7.333	108.25	5.0	CIBEUREM/TASIK(AFB)	625
224	-7.317	-39.3	5.0	BARBALHA	334
225	-7.3	72.4	5.0	DIEGO GARCIA	16326
226	-7.017	-37.267	5.0	PATOS	137
227	-6.8667	39.2	5.0	DAR ES SALAAM INT	10437
228	-6.833	37.65	5.0	MOROGORO	142
229	-6.783	-79.817	5.0	CHICLAYO	1504
230	-6.7667	-43.0167	5.0	FLORIANO	7626
231	-6.733	147.0	5.0	LAE	29138
232	-6.267	-57.733	5.0	JACAREACANGA	287
233	-6.167	35.767	5.0	DODOMA	1096
234	-5.5	-45.267	5.0	BARRA DO CORDA	161
235	-5.217	145.783	5.0	MADANG	18232
236	-5.2	-39.3	5.0	QUIXERAMOBIM	334
237	-5.083	32.833	5.0	TABORA AIRPORT	1062
238	-5.083	39.067	5.0	TANGA	776
239	-5.05	-42.817	5.0	TERESINA	313
240	-4.883	29.667	5.0	KIGOMA	112
241	-4.883	38.283	5.0	MOMBO	113
242	-4.567	-81.233	5.0	TALARA	1823
243	-4.45	105.183	5.0	MENGGALA/ASTRA KSET	181
244	-4.217	12.667	5.0	DOLISIE	7834
245	-4.217	152.183	5.0	RABAUL	27818
246	-4.1	122.433	5.0	KENDARI/WOLTER MONG	1064
247	-4.05	-154.9833	5.0	MALDEN ISLAND AF	274
248	-4.033	39.617	5.0	MOMBASA	3673
249	-3.7667	-38.6	5.0	FORTALEZA	9728
250	-3.417	37.067	5.0	KILIMANJARO AIRPORT	696
251	-3.4	38.567	5.0	VOI	4508
252	-3.2944	-60.6283	5.0	MANACAPURU	2770
253	-3.217	40.1	5.0	MALINDI	1769
254	-3.083	-41.783	5.0	PARNAIBA	665
255	-2.767	-171.717	5.0	KANTON ISLAND	16684
256	-2.533	14.767	5.0	DJAMBALA	1376
257	-2.467	32.917	5.0	MWANZA	383
258	-2.283	37.833	5.0	MAKINDU	5723
259	-2.2	-81.0	5.0	CHINCHIPE	601
260	-2.1581	-79.8839	5.0	GUAYAQUIL AEROPUERTO	5607
261	-2.05	147.4167	5.0	MOMOTE W.O.	23951
262	-1.333	31.817	5.0	BUKOBA	1433
263	-1.133	35.833	5.0	NAROK	4802
264	-0.9	-89.6	5.0	SAN CRISTOBAL RADIOSONDA	3825
265	-0.7	8.75	5.0	PORT-GENTIL	10586
266	-0.617	30.65	5.0	MBARARA	114
267	-0.5167	166.9167	5.0	NAURU ARC-2	6251
268	-0.467	39.633	5.0	GARISSA	7179
269	-0.267	36.1	5.0	NAKURU	7184
270	0.05	32.45	5.0	ENTEBBE AIRPORT	6316
271	0.183	30.1	5.0	KASESE	419
272	0.383	6.717	5.0	S. TOME	5381
273	0.683	34.167	5.0	TORORO	264
274	1.083	154.767	5.0	KAPINGAMARANGI ATOL	487
275	1.617	18.067	5.0	IMPFONDO	986
276	1.683	31.717	5.0	MASINDI	632
277	1.717	33.617	5.0	SOROTI	112
278	1.75	40.067	5.0	WAJIR	3181
279	1.85	-78.767	5.0	TUMACO	344
280	2.0	-157.4	5.0	CHRISTMAS ISLAND	29424
281	2.033	-56.117	5.0	SIPALIWINI	331
282	2.083	11.483	5.0	BITAM	483
283	2.333	37.983	5.0	MARSABIT	1160
284	3.117	35.617	5.0	LODWAR	8644
285	3.367	-57.333	5.0	COEROENI	254
286	3.533	39.05	5.0	MOYALE	3218
287	3.55	-76.3833	5.0	CALI/ALFONSO BONILLA ARAGON	1230
288	3.633	-54.033	5.0	MARIPASOULA	1329
289	3.783	-56.15	5.0	TAFELBERG	228
290	3.833	11.517	5.0	YAOUNDE	7131
291	3.85	-159.367	5.0	FANNING ISLAND	103
292	3.883	-51.8	5.0	SAINT GEORGES	2681
293	3.933	41.867	5.0	MANDERA	3516
294	4.1917	73.5292	5.0	MALE	4090
295	4.2167	100.7	5.0	SITIAWAN	52733
296	4.25	15.8	5.0	BERBERATI	2543
297	4.317	21.183	5.0	MOBAYE	150
298	4.35	-54.417	5.0	STOELMANSEILAND	153
299	4.4	18.5167	5.0	BANGUI	34559
300	4.417	-7.367	5.0	TABOU	12633
301	4.467	14.367	5.0	BATOURI	4064
302	4.55	-70.917	5.0	LAS GAVIOTAS	3770
303	4.6	-61.1167	5.0	SANTA ELENA DE UAIREN	813
304	4.733	22.833	5.0	BANGASSOU	2199
305	4.8222	-52.3653	5.0	CAYENNE MATOURY	27508
306	4.883	-1.767	5.0	TAKORADI	135
307	5.3333	163.0167	5.0	KUSAIE/CAROLINES	1652
308	5.45	-55.2	5.0	ZANDERIJ	2383
309	5.467	100.383	5.0	BUTTERWORTH AB	24729
310	5.5	-54.033	5.0	SAINT-LAURENT	3207
311	5.55	12.367	5.0	YOKO	1316
312	5.6	-0.1667	5.0	ACCRA/KOTOKA INTL	3276
313	5.65	10.75	5.0	KOUNDJA	5780
314	5.8833	-162.05	5.0	PALMYRA ISLAND	631
315	5.9	43.583	5.0	GODE	237
316	5.9	118.0667	5.0	SANDAKAN	47253
317	5.917	169.65	5.0	JALUIT ATOLL	130
318	5.95	-57.033	5.0	NICKERIE	382
319	5.967	15.633	5.0	BOUAR	2424
320	6.25	-10.35	5.0	ROBERTS FIELD	1457
321	6.467	7.55	5.0	ENUGU	469
322	6.483	17.433	5.0	BOSSANGOA	3181
323	6.8833	81.8333	5.0	POTTUVIL	151
324	6.9	122.067	5.0	ZAMBOANGA	4876
325	7.233	-70.8	5.0	GUASDUALITO	356
326	7.3	-61.45	5.0	TUMEREMO	451
327	7.383	143.917	5.0	WOLEAI ATOLL	106
328	7.7	28.017	5.0	WAU	717
329	7.733	-5.067	5.0	BOUAKE	14811
330	7.85	-72.45	5.0	SAN ANTONIO DEL TACHIRA	3694
331	7.9	-67.4167	5.0	SAN FERNANDO DE APURE	1404
332	8.0333	79.8333	5.0	PUTTALAM	6376
333	8.15	-63.55	5.0	CIUDAD BOLIVAR	641
334	8.28	73.05	5.0	MALIKU	574
335	8.3333	80.4167	5.0	ANURADHAPURA	612
336	8.4	20.65	5.0	NDELE	2173
337	8.4089	124.6119	5.0	LUMBIA AIRPORT	3518
338	8.617	-13.2	5.0	LUNGI	1194
339	8.8667	2.6	5.0	TCHAOUROU	6364
340	8.983	1.15	5.0	SOKODE	5401
341	9.15	18.3833	5.0	SARH	17203
342	9.15	92.81	5.0	CAR NICOBAR	1627
343	9.333	13.383	5.0	GAROUA	10956
344	9.417	-5.617	5.0	KORHOGO	11845
345	9.467	170.25	5.0	WOTJE ATOLL	299
346	9.5	-7.567	5.0	ODIENNE	140
347	9.5	-0.85	5.0	TAMALE	1562
348	9.5667	-13.6167	5.0	CONAKRY	13759
349	9.6	105.967	5.0	BA-XUYEN/SOC TRANG	170
350	9.75	-63.183	5.0	MATURIN	1184
351	9.8	125.5	5.0	SURIGAO	347
352	9.817	-70.933	5.0	MENE GRANDE	780
353	9.9333	76.2333	5.0	COCHIN (IN-NAVY)	17051
354	9.983	98.617	5.0	RANONG	194
355	10.067	-69.317	5.0	BARQUISIMETO	741
356	10.117	-64.683	5.0	BARCELONA	1459
357	10.25	-67.65	5.0	MARACAY - B.A. SUCRE	5220
358	10.333	123.9	5.0	LAHUG	2175
359	10.3667	-12.0833	5.0	MAMOU	2746
360	10.3833	-9.3	5.0	KANKAN	11475
361	10.6	-66.983	5.0	CARACAS/MAIQUETIA A	912
362	10.6667	-63.25	5.0	CARUPANO	159
363	10.6833	-61.6167	5.0	TRINIDAD BWI	10395
364	10.717	115.833	5.0	NENSHA ISL	436
365	10.85	121.033	5.0	CUYO	270
366	10.917	-63.967	5.0	PORLAMAR	739
367	11.1167	72.7333	5.0	AMINIDIVI	26613
368	11.1333	2.9333	5.0	KANDI	24677
369	11.1667	-4.3	5.0	BOBO-DIOULASSO	51478
370	11.233	169.85	5.0	UTIRIK ATOLL M.ISL	577
371	11.3	167.48	5.0	RONGERIK	145
372	11.3167	-12.3	5.0	LABE	3485
373	11.35	162.35	5.0	ENEWETAK	16361
374	11.52	165.55	5.0	BIKINI	294
375	11.5333	-72.9333	5.0	RIOHACHA/ALMIRANTE PADILLA	2967
376	11.55	43.15	5.0	DJIBOUTI	2487
377	11.783	34.383	5.0	DAMAZINE	1808
378	11.85	13.083	5.0	MAIDUGURI	593
379	11.87	-15.5	5.0	BISSAU	2569
380	12.15	-86.167	5.0	MANAGUA A.C.SANDINO	2831
381	12.35	-1.5167	5.0	OUAGADOUGOU	60904
382	12.433	98.6	5.0	MERGUI	3067
383	12.55	-16.267	5.0	ZIGUINCHOR	40419
384	12.633	-8.033	5.0	BAMAKO	18540
385	12.7	28.433	5.0	EN NAHUD	198
386	12.917	74.883	5.0	MANGALORE/BAJPE	2209
387	13.0667	-9.4833	5.0	KITA	4283
388	13.167	32.667	5.0	AROMA	298
389	13.3	-87.1833	5.0	CHOLUTECA	767
390	13.433	-6.283	5.0	SEGOU	22146
391	13.467	7.083	5.0	MARADI	18936
392	13.567	-89.833	5.0	ACAJUTLA	185
393	13.683	44.15	5.0	TAIZ (CIV/MIL)	449
394	13.7	-89.117	5.0	SAN SALVADOR/ILOPAN	689
395	13.75	-60.98	5.0	VIEUX FORT	815
396	13.7833	8.9833	5.0	ZINDER	42219
397	13.8	5.25	5.0	BIRNI-N'KONNI	30210
398	13.85	20.85	5.0	ABECHE	4728
399	13.917	-90.817	5.0	SAN JOSE	1220
400	14.033	35.4	5.0	GEDAREF	238
401	14.067	-83.367	5.0	PUERTO CABEZAS	4028
402	14.117	93.367	5.0	COCO ISLAND	985
403	14.4	33.483	5.0	WAD MEDANI	269
404	14.5	-4.2	5.0	MOPTI-SEVARE	11065
405	14.5333	-90.5667	5.0	GUATEMALA CITY	5620
406	14.6	-61.0	5.0	LAMENTIN AERO	9234
407	14.6833	77.6167	5.0	ANANTAPUR	10993
408	14.75	42.967	5.0	HODEIDAH (CIV/MIL)	542
409	14.8	100.617	5.0	LOP BURI	837
410	14.9	-23.517	5.0	PRAIA	123
411	15.117	105.783	5.0	PAKSE	590
412	15.117	145.733	5.0	SAIPAN/ISLEY (CGS)	7992
413	15.167	-7.283	5.0	NARA	9645
414	15.283	38.917	5.0	ASMARA	2299
415	15.4167	75.6333	5.0	GADAG	12739
416	15.4167	108.7	5.0	CHU LAI	822
417	15.6	32.55	5.0	KHARTOUM	10644
418	15.717	-88.6	5.0	PUERTO BARRIOS	639
419	16.05	-16.483	5.0	SAINT-LOUIS	40078
420	16.1667	-95.1667	5.0	SALINA CRUZ	556
421	16.2639	-61.5164	5.0	LE RAIZET AERO	40752
422	16.267	-0.05	5.0	GAO	33723
423	16.433	101.15	5.0	PHETCHABUN	401
424	16.533	80.8	5.0	VIJAYAWADA/GANNAVA	8012
425	16.55	104.65	5.0	SAVANNAKHET	508
426	16.55	111.617	5.0	HOANG SA (PATTLE)	417
427	16.6	-7.267	5.0	NEMA	14295
428	16.633	-11.4	5.0	KIFFA	4608
429	16.7167	-3.0	5.0	TOMBOUCTOU	28543
430	16.7333	-169.5167	5.0	JOHNSTON IS WSO AP	27741
431	16.7333	-9.6333	5.0	AIOUN ELATROUSS	4231
432	16.7419	-22.9489	5.0	SAL	17887
433	16.767	94.767	5.0	PATHEIN	2065
434	16.883	42.583	5.0	GIZAN	1629
435	16.9	96.183	5.0	MINGALADON	945
436	17.117	-61.783	5.0	COOLIDGE FIELD (UA)	13896
437	17.4	-83.9333	5.0	SWAN ISLAND	22712
438	17.417	104.783	5.0	NAKHON PHANOM	2528
439	17.7	-64.8	5.0	ST CROIX (BENEDICT FIELD)	346
440	17.7	33.967	5.0	ATBARA	361
441	17.9	-62.85	5.0	ST. BARTHELEMY	4048
442	18.0	19.167	5.0	FAYA	2999
443	18.0167	-66.5	5.0	PONCE LOSEY FIELD	4773
444	18.2167	109.5833	5.0	SANYA	23144
445	18.3	42.8	5.0	KHAMIS MUSHAIT	11138
446	18.433	1.35	5.0	KIDAL	5839
447	18.633	-91.833	5.0	CUIDAD DEL CARMEN	185
448	18.683	12.917	5.0	BILMA	21154
449	18.717	-110.95	5.0	ISLA SOCORRO	9477
450	18.9167	-155.6833	5.0	MORSE FIELD	492
451	19.05	-69.3833	5.0	SABANA DE LA MAR	4059
452	19.0833	82.0333	5.0	JAGDALPUR	26956
453	19.1	108.617	5.0	DONGFANG	6890
454	19.167	30.483	5.0	DONGOLA	1444
455	19.2667	84.8833	5.0	GOPALPUR	9005
456	19.2833	166.65	5.0	WAKE IS	38611
457	19.533	33.317	5.0	ABU HAMED	1995
458	19.583	37.217	5.0	PORT SUDAN	2214
459	19.883	102.133	5.0	LUANG-PRABANG	472
460	19.9	-75.217	5.0	GUANTANAMO BAY NAS	23093
461	20.2	0.9833	5.0	TESSALIT	13490
462	20.45	121.967	5.0	BASCO	867
463	20.48	85.87	5.0	CUTTACK	318
464	20.517	-13.067	5.0	ATAR	22233
465	20.667	58.9	5.0	MASIRAH	514
466	20.7167	116.7167	5.0	DONGSHA (=597920)	9110
467	20.883	95.9	5.0	MEIKTILA	5141
468	20.899	-156.43	5.0	KAHULUI ARPT/MAUI	19540
469	20.9	70.367	5.0	VERAVAL	17106
470	20.9333	-17.0333	5.0	NOUADHIBOU	33748
471	21.15	-157.1	5.0	MOLOKAI HOMESTEAD FIELD	1921
472	21.2	72.8333	5.0	SURAT	2307
473	21.217	110.4	5.0	ZHANJIANG	5208
474	21.3	99.617	5.0	KENGTUNG	231
475	21.3333	0.95	5.0	BORDJ-BADJ-MOKHTAR	231
476	21.4	-77.85	5.0	CAMAGUEY	5786
477	21.45	-71.15	5.0	TURKS ISLAND	10548
478	21.4833	109.1	5.0	BEIHAI	9881
479	21.5167	86.9333	5.0	BALASORE	1408
480	21.8333	111.9667	5.0	YANGJIANG	25007
481	21.9167	84.0833	5.0	JHARSIGUDA	8456
482	22.0333	-159.7833	5.0	BARKING SANDS	5267
483	22.283	-97.85	5.0	TAMPICO	165
484	22.367	106.75	5.0	LONGZHOU	4011
485	22.37	-73.03	5.0	MAYAGUAN	1160
486	22.45	70.083	5.0	JAMNAGAR	895
487	22.5	103.95	5.0	HEKOU	13535
488	22.6833	121.5	5.0	LU-TAO	3323
489	22.767	81.9	5.0	PENDRA ROAD	5308
490	22.77	88.37	5.0	BARAKPUR	388
491	22.783	115.367	5.0	SHANWEI	2322
492	22.8167	86.1833	5.0	JAMSHEDPUR	7560
493	23.167	-82.35	5.0	CASA BLANCA	8864
494	23.217	113.483	5.0	GUANGZHOU	28004
495	23.25	69.8	5.0	BHUJ-RUDRAMATA	12439
496	23.2833	77.35	5.0	BHOPAL/BAIRAGHAR	35992
497	23.3833	87.0833	5.0	BANKURA	1420
498	23.5833	119.6167	5.0	MAKUNG AB (=593450)	22564
499	23.73	-99.11	5.0	CIUDAD VICTORIA	1366
500	23.8167	5.15	5.0	IN AMGUEL	144
501	23.8833	91.25	5.0	AGARTALA	37876
502	23.8833	100.0833	5.0	LINCANG	2076
503	23.9833	121.6	5.0	HUA-LIEN CITY	17027
504	24.067	105.067	5.0	GUANGNAN	5390
505	24.183	120.65	5.0	TAICHUNG (TW-AFB)	4776
506	24.217	23.3	5.0	KUFRA	6321
507	24.267	9.467	5.0	DJANET	6261
508	24.35	109.4	5.0	LIUZHOU	4445
509	24.583	73.7	5.0	UDAIPUR	1174
510	24.7	46.733	5.0	RIYADH OBS.	11578
511	24.7	108.0333	5.0	HECHI	22855
512	24.7667	93.9	5.0	IMPHAL/TULIHAL	19897
513	24.783	141.333	5.0	IWOTO	16295
514	24.8333	113.5	5.0	CHU CHIANG	1393
515	25.0167	102.8333	5.0	KAN-HAI-TZU	598
516	25.05	-77.4667	5.0	NASSAU AIRPORT NEW PROVIDENCE	14365
517	25.15	75.85	5.0	KOTA AERODROME	1768
518	25.233	-11.617	5.0	BIR MOGHREIN	5175
519	25.2667	-76.3	5.0	ELEUTHERA ISLAND	6389
520	25.2667	63.4833	5.0	PASNI	119
521	25.3667	97.4	5.0	MYITKYINA	3942
522	25.3833	68.4167	5.0	HYDERABAD	934
523	25.433	105.183	5.0	XINGREN	4750
524	25.433	106.767	5.0	LUODIAN	3236
525	25.45	30.533	5.0	KHARGA	5223
526	25.517	119.783	5.0	PINGTAN	3181
527	25.533	-103.45	5.0	TORREON AIRPORT	1530
528	25.5667	91.8833	5.0	SHILLONG S06 03Z	280
529	25.617	-109.05	5.0	TOPOLOBAMPO	251
530	25.75	71.3833	5.0	BARMER	2587
531	25.8	21.133	5.0	TAZERBO	3989
532	25.85	116.367	5.0	CHANGTING	5057
533	25.88	89.43	5.0	LALMANIR HAT	407
534	25.9	-81.7167	5.0	DELTA SEVEN	436
535	25.967	108.533	5.0	RONGJIANG	2499
536	26.15	119.95	5.0	MAZU (=588490)	4062
537	26.2	36.483	5.0	AL-WEJH	5395
538	26.2333	-97.6667	5.0	HARLINGEN AAF	2317
539	26.267	50.167	5.0	DHAHRAN	17304
540	26.4	-98.35	5.0	MISSION (MOORE FIELD)	2133
541	26.5	8.417	5.0	ILLIZI	502
542	26.6167	-78.3667	5.0	GOLD ROCK CREEK	13583
543	26.717	92.8	5.0	TEZPUR/BINDUKURI	424
544	26.867	100.233	5.0	LIJING	20204
545	26.9667	1.0833	5.0	AOULEF	3606
546	26.9667	64.1	5.0	PANJGUR	8843
547	26.983	84.85	5.0	RAXAUL	1140
548	27.0167	14.45	5.0	SEBHA	3998
549	27.117	114.967	5.0	JIAN	4747
550	27.15	33.717	5.0	HURGUADA	2188
551	27.3	105.233	5.0	BIJIE	1335
552	27.333	120.2	5.0	FUDING	4348
553	27.5333	-99.4833	5.0	LAREDO	5690
554	27.5667	81.6	5.0	BAHRAICH	9170
555	27.6667	98.3833	5.0	LA WANG/TZUKEI	857
556	27.7	85.367	5.0	KATHMANDU AIRPORT	651
557	27.75	89.167	5.0	PAGRI	5820
558	27.8333	66.6333	5.0	KHUZDAR	1098
559	27.883	-0.283	5.0	ADRAR	22304
560	27.95	-80.5667	5.0	VALKARIA	798
561	27.95	108.25	5.0	SINAN	3144
562	28.05	9.633	5.0	IN-AMENAS	12360
563	28.083	30.733	5.0	MINYA	2596
564	28.2	-177.3833	5.0	MIDWAY IS NAS	33263
565	28.2	113.0833	5.0	CHANGSHA	43728
566	28.417	92.467	5.0	LHUNZE	9321
567	28.45	98.883	5.0	DEQEN	6169
568	28.45	121.883	5.0	DACHEN DAO	18781
569	28.467	-16.25	5.0	STA. CRUZ DE TENERI	22725
570	28.633	87.083	5.0	TINGRI	4882
571	28.8167	62.75	5.0	NOKKUNDI	1323
572	28.817	104.533	5.0	YIBIN	27926
573	28.833	108.767	5.0	YOUYANG	169
574	28.8667	-100.5167	5.0	EAGLE PASS (AAF)	311
575	28.883	-118.3	5.0	ISLA GUADALUPE	13025
576	28.8833	64.4	5.0	DAL BANDIN	8890
577	29.0	135.0	5.0	OCEAN WEATHER SHIP T	5347
578	29.033	21.567	5.0	JALO	3469
579	29.033	101.5	5.0	JIULONG	1437
580	29.0333	66.5833	5.0	KALAT	172
581	29.05	111.683	5.0	CHANGDE	4719
582	29.117	15.933	5.0	HON	3794
583	29.183	25.517	5.0	SIWA	7069
584	29.217	88.917	5.0	XIGAZE	11663
585	29.2425	47.9714	5.0	KUWAIT INTERNATIONAL AIRPORT	36208
586	29.25	0.283	5.0	TIMIMOUN	9666
587	29.3	117.2	5.0	JINGDEZHEN	5385
588	29.383	113.083	5.0	YUEYANG	4823
589	29.5333	-98.2833	5.0	SAN ANTONIO RANDOLPH AFB	861
590	29.55	34.95	5.0	EILAT	6192
591	29.5667	94.4667	5.0	NYINGCHI	6509
592	29.75	24.533	5.0	GIARABUB	2551
593	29.8833	69.7167	5.0	BARKHAN	1029
594	29.95	73.25	5.0	BAHAWALNAGAR	1115
595	29.967	-95.35	5.0	HOUSTON/INTERCONTIN	1796
596	29.967	99.067	5.0	BATANG	19656
597	30.0	-140.0	5.0	OCEAN WEATHER SHIP N	19180
598	30.033	122.117	5.0	DINGHAI	3697
599	30.05	101.967	5.0	KANGDING	3716
600	30.133	-2.167	5.0	BENI-ABBES	7838
601	30.133	9.5	5.0	GHADAMES	5808
602	30.167	35.783	5.0	MAAN	595
603	30.2	-97.6667	5.0	AUSTIN (BERGSTROM FIELD)	1076
604	30.3333	76.4667	5.0	PATIALA	23763
605	30.383	13.583	5.0	GARIAT EL-SHARGHIA	688
606	30.4	-88.9167	5.0	BILOXI (KEESLER AFB)	2014
607	30.483	140.3	5.0	TORISHIMA	6556
608	30.517	47.783	5.0	BASRAH-HUSSEN	2290
609	30.5333	-91.15	5.0	BATON ROUGE (HARDING FIELD)	1485
610	30.567	2.867	5.0	EL-GOLEA	31528
611	30.6333	-88.0667	5.0	MOBILE (BROOKLEY AFB)	661
612	30.667	104.017	5.0	CHENGDU	34761
613	30.717	20.167	5.0	AGEDABIA	3757
614	30.8	106.083	5.0	NANCHONG	8082
615	30.933	-6.9	5.0	OUARZAZATE	8186
616	30.95	88.633	5.0	XAINZA	12076
617	31.017	46.233	5.0	NASIRIYA	750
618	31.0733	33.8358	5.0	EL ARISH	13389
619	31.1	-97.717	5.0	FT HOOD AAF/KILLEEN	2923
620	31.167	29.933	5.0	ALEXANDRIA/NOUZHA	2335
621	31.2	16.583	5.0	SIRTE	2738
622	31.217	107.5	5.0	DA XIAN	23565
623	31.25	-82.4	5.0	WAYCROSS WARE CO AP	20191
624	31.2667	-89.25	5.0	HATTIESBURG	1210
625	31.283	32.233	5.0	PORT SAID/EL GAMIL	1814
626	31.367	90.017	5.0	BAINGOIN	11427
627	31.367	130.833	5.0	KANOYA AB	464
628	31.4167	-100.4	5.0	MATHIS FLD/S.ANGELO	2501
629	31.417	95.6	5.0	DENGQEN	6863
630	31.5	65.85	5.0	KANDAHAR AIRPORT	5934
631	31.5167	-103.1333	5.0	PYOTE (AFB)	1395
632	31.617	-8.033	5.0	MARRAKECH	9944
633	31.62	25.93	5.0	SIDI BARRANI	1563
634	31.683	9.3	5.0	EL BORMA	1728
635	31.867	10.983	5.0	NALUT	2037
636	31.867	93.767	5.0	SOG XIAN	7101
637	31.867	117.233	5.0	HEFEI	9149
638	31.9	54.2833	5.0	YAZD	1516
639	31.9	102.233	5.0	BARKAM	6148
640	31.933	-4.4	5.0	ERRACHIDIA	6598
641	31.9333	5.4	5.0	OUARGLA	2887
642	32.05	72.667	5.0	SARGODHA	19138
643	32.067	108.033	5.0	WANYUAN	3574
644	32.1	20.2667	5.0	BENINA	16181
645	32.1	23.933	5.0	TOBRUK	7553
646	32.133	114.05	5.0	XINYANG	7884
647	32.1667	-110.8833	5.0	TUCSON (DAVIS-MONTHAN AFB)	236
648	32.2167	-98.1833	5.0	STEPHENVILLE	15234
649	32.25	-107.7167	5.0	DEMING AAF	518
650	32.283	-9.233	5.0	SAFI	1179
651	32.317	10.4	5.0	REMADA	9738
652	32.333	-84.833	5.0	FORT BENNING	3790
653	32.3333	-90.2333	5.0	JACKSON (AAB)	400
654	32.35	-104.25	5.0	CARLSBAD AAF	2356
655	32.35	-94.65	5.0	LONGVIEW WSMO	14445
656	32.35	-88.65	5.0	MERIDIAN (KEY FIELD)	2282
657	32.367	-6.4	5.0	BENI-MELLAL	2448
658	32.383	3.817	5.0	GHARDAIA	31999
659	32.383	111.667	5.0	GUANGHUA	3239
660	32.417	15.05	5.0	MISURATA	1073
661	32.43	109.02	5.0	ANKANG	23991
662	32.5	-85.7667	5.0	TUSKEGEE (AAF)	1157
663	32.5	74.5333	5.0	SIALKOT	942
664	32.5	80.067	5.0	SHIQUANHE	10631
665	32.5167	-92.05	5.0	MONROE (SELMAN FIELD)	2178
666	32.683	-4.733	5.0	MIDELT	2966
667	32.717	133.017	5.0	SHIMIZU	5015
668	32.7333	-117.1667	5.0	SAN DIEGO (LINDBERGH FIELD)	248
669	32.883	12.083	5.0	ZUARA	2793
670	32.9	-87.25	5.0	CENTREVILLE WSMO	14447
671	32.9167	-80.6333	5.0	WALTERBORO AAF	499
672	32.933	-112.7	5.0	GILA BEND (AAF)	19204
673	32.967	114.05	5.0	ZHUMADIAN	6626
674	33.033	40.283	5.0	RUTBAH	2392
675	33.3	44.4	5.0	BAGHDAD INT. AIRPORT	14024
676	33.37	43.57	5.0	AL HABBANIYAH	5634
677	33.383	104.917	5.0	WUDU	27511
678	33.417	36.517	5.0	DAMASCUS INT. AIRPO	10082
679	33.45	-94.0	5.0	TEXARKANA	6925
680	33.4667	-82.0333	5.0	AUGUSTA DANIEL FIELD	2266
681	33.48	-90.98	5.0	GREENVILLE	2188
682	33.5	-90.0833	5.0	GREENWOOD AAF	1164
683	33.5	6.783	5.0	EL-OUED	28456
684	33.5333	-0.2833	5.0	MECHERIA	6933
685	33.583	102.967	5.0	RUOERGAI	2991
686	33.6	-114.75	5.0	BLYTHE	2084
687	33.6167	73.1	5.0	ISLAMABAD AIRPORT	7050
688	33.6333	-88.45	5.0	COLUMBUS AAF	401
689	33.683	1.0	5.0	EL-BAYADH	10962
690	33.6833	-78.9333	5.0	MYRTLE BEACH AAF	2003
691	33.7167	-96.6667	5.0	SHERMAN PERRIN FIELD	1179
692	33.783	114.517	5.0	XIHUA	6675
693	33.8	-106.6667	5.0	STALLION SITE	610
694	33.8	99.8	5.0	DARLAG	12064
695	33.817	35.483	5.0	RAFIC HARIRI INTL	12102
696	33.8667	70.0833	5.0	PARACHINAR	2376
697	33.867	10.767	5.0	DJERBA MELLITA	27692
698	33.883	-5.533	5.0	MEKNES	2167
699	33.95	-83.3167	5.0	ATHENS BEN EPPS AP	28581
700	33.95	92.617	5.0	TUOTUOHE	11291
701	33.98	-98.5	5.0	WICHITA FALLS	113
702	34.0	164.0	5.0	OCEAN WEATHER SHIP V	12375
703	34.05	131.05	5.0	OZUKI AB	303
704	34.0803	111.0728	5.0	LUSHI	26483
705	34.15	132.22	5.0	IWAKUNI	2734
706	34.217	-4.0	5.0	TAZA	2441
707	34.217	62.217	5.0	HERAT	1107
708	34.3	-97.0167	5.0	ARDMORE AFB	1195
709	34.3	108.933	5.0	XIAN	36675
710	34.417	8.817	5.0	GAFSA	20537
711	34.583	105.75	5.0	TIANSHUI	6899
712	34.65	-99.2667	5.0	ALTUS AFB (OKLA)	2675
713	34.683	135.517	5.0	OSAKA	7833
714	34.6833	3.25	5.0	DJELFA	9814
715	34.717	10.683	5.0	SFAX EL-MAOU	30654
716	34.7667	-82.3833	5.0	GREENVILLE DONALDSON AFB	1649
717	34.783	-1.95	5.0	OUJDA	7639
718	34.8	5.733	5.0	BISKRA	19871
719	34.85	119.133	5.0	GANYU	7452
720	34.917	98.217	5.0	MADOI	6085
721	34.933	136.583	5.0	YOKKAICHI	4758
722	35.0	-48.0	5.0	OCEAN WEATHER SHIP E	8767
723	35.0333	-85.2	5.0	CHATTANOOGA	8998
724	35.083	128.083	5.0	SACHEON AB	8441
725	35.117	36.75	5.0	HAMA	741
726	35.169	128.934	5.0	GIMHAE INTL AIRPORT	5577
727	35.183	-3.85	5.0	AL HOCEIMA	4040
728	35.2	-80.95	5.0	CHARLOTTE MORRIS FIELD	602
729	35.217	93.083	5.0	WUDAOLIANG	5083
730	35.2667	-113.95	5.0	KINGMAN (AAF)	1831
731	35.3333	-94.3667	5.0	FT SMITH CAMP CHAFFEE	5244
732	35.35	1.467	5.0	TIARET	280
733	35.3833	-86.2333	5.0	TULLAHOMA WILLIAM NORTHERN AAF	537
734	35.4333	133.35	5.0	YONAGO	60127
735	35.533	35.767	5.0	LATTAKIA	458
736	35.633	-0.6	5.0	ORAN-SENIA	38241
737	35.8	140.017	5.0	SHIMOFUSA AB	467
738	35.85	14.483	5.0	LUQA	21963
739	35.867	-78.783	5.0	RALEIGH/RALEIGH-DUR	9591
740	35.9	62.9667	5.0	TAGTABAZAR	13721
741	35.9167	74.3333	5.0	GILGIT	521
742	35.933	39.017	5.0	RAQQA	252
743	35.9667	-116.2667	5.0	SHOSHONE	313
744	36.0	-86.5333	5.0	SMYRNA SEWART AFB	1139
745	36.0333	-102.5333	5.0	DALHART	2180
746	36.05	103.883	5.0	LANZHOU	30960
747	36.05	114.4	5.0	ANYANG	7228
748	36.183	118.15	5.0	YIYUAN	6101
749	36.217	1.333	5.0	CHLEF	3213
750	36.25	-119.95	5.0	LEMOORE	1341
751	36.283	6.617	5.0	CONSTANTINE	21262
752	36.2969	-99.775	5.0	GAGE	586
753	36.3	2.233	5.0	MILIANA	14988
754	36.317	43.15	5.0	MOSUL	884
755	36.333	-97.667	5.0	ENID/VANCE AFB	1147
756	36.333	37.217	5.0	ALEPPO INT. AEROPOR	18332
757	36.4	139.067	5.0	MAEBASHI	5175
758	36.617	128.35	5.0	YECHEON AB	5663
759	36.6667	-121.6167	5.0	SALINAS (AAB)	782
760	36.6667	68.9167	5.0	KUNDUZ	4540
761	36.667	-87.5	5.0	FORT CAMPBELL (AAF)	2026
762	36.683	116.983	5.0	JINAN	33391
763	36.7	119.1167	5.0	WEI HSIEN	254
764	36.75	-104.5	5.0	RATON	5905
765	36.767	126.467	5.0	SEOSAN	566
766	36.833	7.817	5.0	ANNABA	30088
767	36.85	11.083	5.0	KELIBIA	18563
768	36.867	30.733	5.0	ANTALYA	1476
769	36.883	6.9	5.0	SKIKDA	639
770	36.8833	-93.9	5.0	MONETT	18071
771	36.8833	-76.2	5.0	NORFOLK/MUNI (VA)	27148
772	37.017	-7.967	5.0	FARO/AEROPORTO	1831
773	37.05	41.217	5.0	KAMISHLI	136
774	37.0667	-88.7667	5.0	PADUCAH BARKLEY FLD	4390
775	37.1	-113.6	5.0	ST. GEORGE	591
776	37.1	128.8667	5.0	SANGDONG	294
777	37.1808	114.3589	5.0	XINGTAI	26266
778	37.233	9.817	5.0	BIZERTE	7207
779	37.3167	-121.8667	5.0	SAN JOSE/EMSU	188
780	37.317	97.217	5.0	DELINGHA	10750
781	37.3333	-79.2	5.0	LYNCHBURG	4148
782	37.3667	-120.5667	5.0	CASTLE AFB	3294
783	37.367	-118.367	5.0	BISHOP AIRPORT	1144
784	37.4	122.683	5.0	CHENGSHANTOU	15581
785	37.433	-105.867	5.0	ALAMOSA MUNI(AWOS)	921
786	37.467	53.967	5.0	ESENGYLY	36098
787	37.47	15.07	5.0	CATANIA	912
788	37.4833	116.3667	5.0	TE HSIEN/TECHOW	498
789	37.5	-77.333	5.0	RICHMOND/BYRD FIELD	4674
790	37.5	71.5	5.0	KHOROG	28898
791	37.617	120.317	5.0	LONGKOU	8328
792	37.78	12.45	5.0	MARSALA	112
793	37.783	-81.117	5.0	BECKLEY	114
794	37.783	-0.8	5.0	MURCIA/SAN JAVIER	1000
795	37.85	91.65	5.0	MANGYA	1192
796	37.85	95.367	5.0	DA-QAIDAM	5439
797	37.9	-121.2333	5.0	STOCKTON (FIELD)	1204
798	37.917	139.05	5.0	NIIGATA	2033
799	37.93	83.65	5.0	ANDIR	14362
800	37.966	124.63	5.0	BAENGNYEONGDO	8261
801	37.987	58.361	5.0	ASHGABAT KESHI	38470
802	38.0	-71.0	5.0	OCEAN WEATHER SHIP H	3274
803	38.05	-103.52	5.0	LA JUNTA	164
804	38.0667	-117.0833	5.0	TONAPAH APRT (NEV)	3624
805	38.2	15.55	5.0	MESSINA	5442
806	38.25	90.85	5.0	MANGNAI	15030
807	38.267	140.9	5.0	SENDAI	57672
808	38.3667	-82.55	5.0	HUNTINGTON TRI STATE AP	35391
809	38.373	-81.6	5.0	YEAGER	1619
810	38.417	-113.017	5.0	MILFORD MUNICIPAL	774
811	38.433	77.267	5.0	SHACHE	15714
812	38.5167	-122.8	5.0	SANTA ROSA (AAF)	213
813	38.55	68.783	5.0	DUSHANBE	35803
814	38.65	-88.9667	5.0	SALEM LECKRONE AP	15223
815	38.733	48.833	5.0	LANKARAN	33653
816	38.733	115.483	5.0	BAODING	9153
817	38.7333	-93.5667	5.0	KNOBNOSTER SEDALIA AFB	1436
818	38.7667	-87.6167	5.0	LAWRENCEVILLE GEORGE FIELD	1385
819	38.7667	-9.1333	5.0	LISBOA/GAGO COUTINHO	41533
820	38.8	-97.63	5.0	SALINA	3551
821	38.817	-92.217	5.0	COLUMBIA REGIONAL	19320
822	38.817	35.433	5.0	KAYSERI/ERKILET	1942
823	38.833	93.383	5.0	LENGHU	15645
824	38.95	-95.6667	5.0	TOPEKA (FORBES AFB)	1930
825	39.0333	125.7833	5.0	PYONGYANG	29160
826	39.05	-84.667	5.0	CINCINNATI/GREATER	1311
827	39.083	63.6	5.0	CHARDZHEV	36014
828	39.0833	-28.0333	5.0	GRACIOSA/AERODROME	2173
829	39.1	-96.767	5.0	FT RILEY/MARSHALL A	1222
830	39.1	107.983	5.0	OTOG QI	9443
831	39.2	45.417	5.0	NAXCIVAN	914
832	39.2436	9.06	5.0	CAGLIARI ELMAS	48789
833	39.367	-101.7	5.0	GOODLAND/RENNER FIE	8448
834	39.383	111.15	5.0	HEQU	8713
835	39.4333	118.9	5.0	LETING	20578
836	39.55	2.617	5.0	PALMA DE MALLORCA	9948
837	39.6667	118.1167	5.0	TANG SHAN	251
838	39.7167	-104.9	5.0	DENVER (LOWRY FIELD)	878
839	39.783	105.75	5.0	JARTAI	9470
840	39.8	78.567	5.0	BACHU	9060
841	39.8167	-82.9333	5.0	COLUMBUS LOCKBOURNE AFB	1438
842	39.867	4.233	5.0	MENORCA/MAHON	165
843	39.9333	127.55	5.0	HAMHEUNG	11836
844	39.983	46.75	5.0	KHANKANDY	657
845	40.0333	52.9833	5.0	TURKMENBASHI	35133
846	40.083	124.333	5.0	DANDONG	24594
847	40.1	113.333	5.0	DATONG	8658
848	40.12	-103.17	5.0	AKRON	214
849	40.2	-8.417	5.0	COIMBRA	458
850	40.217	69.733	5.0	KHUDJAND	382
851	40.267	97.033	5.0	YUMENZHEN	2942
852	40.3833	-75.9667	5.0	READING AAF	1035
853	40.433	-80.0	5.0	PITTSBURGH/EMSU	544
854	40.5333	50.0	5.0	MASHTAGA	11887
855	40.55	70.95	5.0	KOKAND	7416
856	40.633	87.7	5.0	TIKANLIK	16175
857	40.6667	-89.6833	5.0	PEORIA GTR PEORIA AP	29195
858	40.7053	141.3719	5.0	MISAWA AB	46311
859	40.733	-114.033	5.0	WENDOVER/AF. AUX. F	1089
860	40.75	104.5	5.0	BAYAN MOD	20474
861	40.783	43.833	5.0	GUMRI	147
862	40.7833	114.8833	5.0	ZHANGJIAKOU	23066
863	40.85	35.583	5.0	MERZIFON	1796
864	40.8833	-78.0833	5.0	PHILIPSBURG	5127
865	40.917	72.95	5.0	DZHALAL-ABAD	30741
866	40.933	78.45	5.0	AKQI	5651
867	40.95	-5.5	5.0	SALAMANCA/MATACAN	173
868	40.967	117.917	5.0	CHENGDE	6676
869	40.97	107.17	5.0	XAMBA	1094
870	41.0	-85.2	5.0	FORT WAYNE/BAER FLD	9534
871	41.1167	122.95	5.0	AN SHAN	362
872	41.117	121.067	5.0	JINZHOU	26088
873	41.22	-103.1	5.0	SYDNEY	677
874	41.233	-8.683	5.0	PORTO/PEDRAS RUBRAS	1615
875	41.25	-76.917	5.0	WILLIAMSPORT/LYCOMI	463
876	41.26	80.3	5.0	WEN-SU	9162
877	41.3667	-71.4833	5.0	POINT JUDITH	1724
878	41.433	76.0	5.0	NARYN	13926
879	41.45	31.8	5.0	ZONGULDAK	304
880	41.45	106.383	5.0	HAILS	4738
881	41.5	-88.1667	5.0	JOLIET	7402
882	41.5	-74.1	5.0	NEWBURGH/STEWART AFB	3104
883	41.55	46.667	5.0	ZAKATALA	424
884	41.5667	108.5167	5.0	HALIUT	23054
885	41.633	41.6	5.0	BATUMI	7554
886	41.65	25.367	5.0	KURDJALI	9983
887	41.6833	44.95	5.0	TBILISI/NOVOALEXEYE	30083
888	41.7	-86.3167	5.0	SOUTH BEND ST JOSEPH	612
889	41.717	-4.85	5.0	VALLADOLID/VILLANUB	206
890	41.733	64.617	5.0	TAMDY	24209
891	41.7333	123.5167	5.0	SHENYANG	45359
892	41.75	86.133	5.0	KORLA	21640
893	41.75	103.9667	5.0	PANG-TING-TO-TO-KAI	1057
894	41.7833	95.1333	5.0	XING-XING-XIA	122
895	41.8	12.233	5.0	ROMA FIUMICINO	25186
896	41.833	59.983	5.0	DASHKHOVUZ	40766
897	41.9181	8.7928	5.0	AJACCIO	47208
898	41.95	21.633	5.0	SKOPJE- AIRPORT	2454
899	42.0833	-91.6167	5.0	CEDAR RAPIDS ECHO SI	1310
900	42.4	-96.383	5.0	SIOUX CITY MUNI	9727
901	42.4	112.9	5.0	JURH	11935
902	42.45	-2.333	5.0	LOGRONO/AGONCILLO	349
903	42.583	-5.65	5.0	LEON/VIRGEN DEL CAM	200
904	42.5833	-100.0	5.0	AINSWORTH AAF	1523
905	42.7	-68.3	5.0	ENVIRONM BUOY 44005	574
906	42.8167	-108.7333	5.0	LANDER HUNT FLD AP	34519
907	42.833	74.583	5.0	BISHKEK	24813
908	42.933	89.2	5.0	TURPAN	10824
909	42.9667	-83.75	5.0	FLINT BISHOP AP	29048
910	43.0	1.1	5.0	SAINT GIRONS	158
911	43.017	41.033	5.0	SUKHUMI (AGMS)	37578
912	43.167	-86.25	5.0	MUSKEGON	10171
913	43.2	107.167	5.0	HANBOGD	2539
914	43.23	-75.4	5.0	ROME	8975
915	43.3333	145.5833	5.0	NEMURO	57934
916	43.483	91.633	5.0	SHISANJIANFANG	15467
917	43.517	16.433	5.0	SPLIT/MARJAN	4568
918	43.5833	39.7667	5.0	SOCHI	194
919	43.6	118.067	5.0	LINXI	3300
920	43.633	1.367	5.0	TOULOUSE BLAGNAC	1937
921	43.75	24.883	5.0	TR. MAGURELE	218
922	43.88	-69.93	5.0	BRUNSWICK	965
923	43.917	-0.5	5.0	MONT-DE-MARSAN	166
924	43.9322	-60.0094	5.0	SABLE ISLAND	44361
925	43.9333	-91.2833	5.0	LA CROSSE	9613
926	43.983	119.4	5.0	LINDONG	4651
927	44.0	-41.0	5.0	OCEAN WEATHER SHIP D	9766
928	44.017	89.567	5.0	QITAI	9992
929	44.017	145.867	5.0	JUZHNO-KURILSK	37102
930	44.05	43.03	5.0	PJATIGORSK	230
931	44.117	-123.217	5.0	EUGENE/MAHLON SWEET	5856
932	44.117	-77.533	5.0	TRENTON ARPT	142
933	44.167	80.067	5.0	ZHARKENT	23543
934	44.217	28.633	5.0	CONSTANTA	27610
935	44.2667	-71.3	5.0	MOUNT WASHINGTON	506
936	44.317	23.867	5.0	CRAIOVA	548
937	44.55	50.25	5.0	FORT SHEVCHENKO	1177
938	44.567	129.6	5.0	MUDANJIANG	4789
939	44.583	4.733	5.0	MONTELIMAR	189
940	44.583	117.6	5.0	XI UJIMQIN QI	8443
941	44.617	82.9	5.0	JINGHE	10505
942	44.617	114.15	5.0	NARAN BULAG	14093
943	44.633	22.633	5.0	DROBETA TURNU SEVER	953
944	44.7833	20.5333	5.0	BEOGRAD/SELENO BRD	8769
945	44.9	110.117	5.0	SAINSHAND	17817
946	45.0	-16.0	5.0	OCEAN WEATHER SHIP K	2558
947	45.0	136.6	5.0	TERNEJ	35417
948	45.15	26.817	5.0	BUZAU	652
949	45.15	29.667	5.0	SULINA	178
950	45.367	90.533	5.0	BAYTIK SHAN	19772
951	45.417	-91.767	5.0	RICE LAKE RGNL CARLS	581
952	45.5	28.2	5.0	GALATI	7351
953	45.55	-94.0667	5.0	ST CLOUD MUNI AP	35321
954	45.6	84.85	5.0	KARAMAY	20097
955	45.667	-0.317	5.0	COGNAC	356
956	45.767	106.283	5.0	MANDALGOBI	3030
957	45.867	1.183	5.0	LIMOGES	190
958	45.867	22.9	5.0	DEVA	887
959	45.95	-77.317	5.0	PETAWAWA	1273
960	46.0	18.233	5.0	PECS/POGANY	127
961	46.18	45.35	5.0	YASHKUL	3336
962	46.2	150.5	5.0	URUP	29544
963	46.2667	102.7833	5.0	ARVAIHEER	13261
964	46.374	-117.015	5.0	LEWISTON NEZ PERCE	432
965	46.4	96.25	5.0	ALTAI	14794
966	46.533	24.533	5.0	TG. MURES	1169
967	46.5667	-87.4	5.0	MARQUETTE	8748
968	46.583	26.983	5.0	BACAU	1500
969	46.733	83.0	5.0	TACHENG	22028
970	46.767	-56.167	5.0	SAINT-PIERRE	690
971	46.7778	23.5714	5.0	CLUJ-NAPOCA	38157
972	46.783	61.65	5.0	ARALSKOE MORE	40172
973	46.8	75.083	5.0	BALHASH	36009
974	46.81	85.7489	5.0	HOBOKSAR	26741
975	46.8117	6.9425	5.0	PAYERNE	73319
976	46.817	130.333	5.0	CHIAMUSSU	2815
977	46.833	-92.183	5.0	DULUTH INTL AIRPORT	8808
978	46.85	151.8667	5.0	SIMUSIR	4608
979	46.9	-71.483	5.0	VALCARTIER AIRPORT	2371
980	46.9931	15.4392	5.0	GRAZ-THALERHOF-FLUGHAFEN	10698
981	47.0	-15.0	5.0	WEATHERSHIP K CIRRUS	477
982	47.017	28.867	5.0	KISINEV	37217
983	47.033	21.9	5.0	ORADEA	822
984	47.0333	-120.5167	5.0	ELLENSBURG	10146
985	47.15	-1.6	5.0	NANTES	256
986	47.167	27.633	5.0	IASI	1100
987	47.1833	-119.3167	5.0	MOSES LAKE (LARSON AFB)	344
988	47.2603	11.3439	5.0	INNSBRUCK-FLUGHAFEN	7542
989	47.267	5.083	5.0	DIJON	234
990	47.267	16.633	5.0	SZOMBATHELY	183
991	47.3	-54.0	5.0	ARGENTIA	11299
992	47.383	123.917	5.0	QIQIHAR	17927
993	47.45	101.467	5.0	TSETSERLEG	2069
994	47.567	-59.15	5.0	PORT-AUX-BASQUES	2303
995	47.633	26.25	5.0	SUCEAVA	513
996	47.6667	-117.3333	5.0	SPOKANE (FELTS FIELD)	7917
997	47.6667	-52.75	5.0	SAINT JOHN'S ARPT	30095
998	47.733	130.967	5.0	EKATERINO-NIKOLSKOE	30472
999	47.75	96.85	5.0	ULIASTAI	1923
1000	47.8	3.55	5.0	AUXERRE	185
1001	47.95	-97.4	5.0	GRAND FORKS AFB	517
1002	48.017	91.567	5.0	HOVD	3097
1003	48.02	7.83	5.0	FREIBURG	1516
1004	48.07	5.03	5.0	CHAUMONT	4616
1005	48.0833	114.55	5.0	CHOIBALSAN	11826
1006	48.1333	-123.4167	5.0	PORT ANGELES	3357
1007	48.2353	14.1881	5.0	LINZ/HOERSCHING-FLUGHAFEN	10855
1008	48.354	11.786	5.0	MUNICH/RIEM	20686
1009	48.3667	25.9	5.0	CHERNIVTSI	44140
1010	48.3833	-124.7333	5.0	TATOOSH ISLAND WB	21960
1011	48.55	-109.767	5.0	HAVRE (AMOS)	690
1012	48.633	22.267	5.0	UZHHOROD	40708
1013	48.65	144.75	5.0	M. TERPENIYA (FL)	7763
1014	48.667	116.817	5.0	XIN BARAG YOUQI	12550
1015	48.6833	6.2167	5.0	NANCY/ESSEY	32474
1016	48.7	-8.9167	5.0	ENVIRONM BUOY 62027	215
1017	48.8	103.55	5.0	BULGAN	2639
1018	48.917	106.067	5.0	BARUUNHARAA	2895
1019	49.067	20.25	5.0	POPRAD/TATRY	15541
1020	49.08	16.62	5.0	BRNO REBESOVICE	4516
1021	49.2	-123.167	5.0	VANCOUVER INT. AIRP	14056
1022	49.3	4.033	5.0	REIMS	179
1023	49.6	34.55	5.0	POLTAVA	634
1024	49.633	-112.8	5.0	LETHBRIDGE AWOS	9936
1025	49.7167	-124.9	5.0	COMOX A	104
1026	49.75	10.2	5.0	KITZINGEN AAF	631
1027	49.783	-99.633	5.0	SHILO	6238
1028	49.9031	-98.2842	5.0	PORTAGE SOUTHPORT	554
1029	50.0	-145.0	5.0	OCEAN WEATHER SHIP P	12221
1030	50.0	88.667	5.0	KOS-AGAC	10486
1031	50.017	155.4	5.0	M. VASILYEV	34757
1032	50.033	5.4	5.0	ST-HUBERT	26357
1033	50.1	14.2833	5.0	PRAHA/RUZYNE	8770
1034	50.133	1.833	5.0	ABBEVILLE	116
1035	50.133	65.233	5.0	AMANGELDY	15887
1036	50.28	-64.17	5.0	MINGAN	632
1037	50.28	21.43	5.0	MIELEC	738
1038	50.383	-102.683	5.0	BROADVIEW	8722
1039	50.417	80.3	5.0	SEMIPALATINSK	42269
1040	50.6	137.0333	5.0	KOMSOMOLSK-ON-AMUR	33016
1041	50.7969	4.3581	5.0	UCCLE	42558
1042	51.083	-0.217	5.0	CRAWLEY	37592
1043	51.083	2.65	5.0	KOKSIJDE	311
1044	51.1	-100.05	5.0	DAUPHIN AIRPORT	2648
1045	51.11	13.67	5.0	WAHNSDORF	40165
1046	51.117	-114.017	5.0	CALGARY INTL	15534
1047	51.13	9.28	5.0	FRITZLAR/KASSELER	21333
1048	51.133	-106.583	5.0	ELBOW CS	165
1049	51.1333	71.3667	5.0	CELINOGRAD	167
1050	51.1833	40.7	5.0	KAMENNAYA STEP NO2	6225
1051	51.25	51.4	5.0	URALSK	34602
1052	51.3833	179.25	5.0	AMCHITKA ISLAND	1908
1053	51.4	-3.35	5.0	CARDIFF-WALES ARPT	890
1054	51.517	-109.183	5.0	KINDERSLEY ARPT	914
1055	51.55	12.0667	5.0	OPPIN	3700
1056	51.717	126.65	5.0	HUMA	6620
1057	51.733	6.267	5.0	KALKAR	3052
1058	51.75	-1.583	5.0	BRIZE NORTON	1008
1059	51.85	10.7667	5.0	WERNIGERODE	9806
1060	51.883	-176.65	5.0	ADAK (NAS)	33391
1061	51.9833	177.5667	5.0	KISKA ISLAND	308
1062	52.05	29.25	5.0	MOZYR (AMOS)	6912
1063	52.167	-106.717	5.0	SASKATOON DIEFENBAKE	2309
1064	52.167	4.433	5.0	VALKENBURG	583
1065	52.267	7.433	5.0	NORDHORN	5346
1066	52.267	104.317	5.0	IRKUTSK	39087
1067	52.4167	-4.0	5.0	CAPEL DEWI	6559
1068	52.417	16.85	5.0	POZNAN	31288
1069	52.433	-114.917	5.0	ROCKY MTN HOUSE	1475
1070	52.467	9.7	5.0	HANNOVER	44613
1071	52.483	13.417	5.0	BERLIN/TEMPELHOF	30570
1072	52.5	-20.0	5.0	OCEAN WEATHER SHIP J	2559
1073	52.67	1.68	5.0	HEMSBY	50217
1074	52.733	41.467	5.0	TAMBOV	38381
1075	52.75	-35.5	5.0	OCEAN WEATHER SHIP C	13900
1076	52.767	-108.25	5.0	NORTH BATTLEFORD	2182
1077	52.8	-2.667	5.0	SHAWBURY	561
1078	52.8	173.16	5.0	ATTU ISLAND	3463
1079	53.05	158.33	5.0	NIKOLAEVKA	127
1080	53.067	132.983	5.0	EKIMCHAN	29232
1081	53.167	-0.517	5.0	WADDINGTON	992
1082	53.2	-70.9	5.0	NITCHEQUON	15444
1083	53.217	-105.667	5.0	PRINCE ALBERT ARPT	9605
1084	53.25	4.917	5.0	VLIELAND	6803
1085	53.38	-167.9	5.0	UMNAK ISLAND	2799
1086	53.55	-2.917	5.0	AUGHTON	43285
1087	53.6167	109.6333	5.0	BARGUZIN	6508
1088	53.7333	87.1833	5.0	ABAGUR	181
1089	53.833	-89.867	5.0	TROUT LAKE	15743
1090	53.85	-94.65	5.0	ISLAND LAKE ARPT	4067
1091	53.883	-122.667	5.0	PRINCE GEORGE	30854
1092	53.9	-166.53	5.0	DUTCH HARBOR	2953
1093	54.0	123.967	5.0	SKOVORODINO	31293
1094	54.2	16.1833	5.0	KOSZALIN	1537
1095	54.3	-1.533	5.0	LEEMING	777
1096	54.4667	113.5833	5.0	BAGDARIN	52127
1097	54.8	105.167	5.0	ZHIGALOVO	35584
1098	54.9333	73.4	5.0	OMSK	59051
1099	55.283	-114.783	5.0	SLAVE LAKE AIRPORT	13183
1100	55.317	-3.2	5.0	ESKDALEMUIR	233
1101	55.35	-131.65	5.0	KETCHIKAN	5932
1102	55.417	-1.6	5.0	BOULMER	13127
1103	55.6075	49.2942	5.0	KAZAN	52427
1104	56.0	92.883	5.0	KRASNOYARSK	40900
1105	56.2933	9.1139	5.0	FLYVESTATION KARUP	5675
1106	56.45	138.15	5.0	AYAN	39966
1107	56.483	21.017	5.0	LIEPAJA	26905
1108	56.5	-51.0	5.0	OCEAN WEATHER SHIP B	11583
1109	56.5422	3.2236	5.0	EKOFISK	15135
1110	56.65	-111.217	5.0	FORT MCMURRAY ARPT	11470
1111	56.8	60.6	5.0	SWERDLOWSK	171
1112	56.917	23.967	5.0	RIGA	47749
1113	57.1	9.867	5.0	FLYVESTATION AALBOR	4824
1114	57.2	-2.217	5.0	ABERDEEN/DYCE AIRPO	421
1115	57.58	39.58	5.0	JAROSLAVL	529
1116	57.65	-3.567	5.0	KINLOSS	767
1117	57.65	18.35	5.0	VISBY AEROLOGISKA STATION	28914
1118	57.817	28.333	5.0	PSKOV	39213
1119	58.217	-6.317	5.0	STORNOWAY	52782
1120	58.8742	5.665	5.0	STAVANGER/SOLA	44297
1121	59.0	-19.0	5.0	OCEAN WEATHER SHIP I	2647
1122	59.35	17.95	5.0	STOCKHOLM/BROMMA	41574
1123	60.2	-166.1	5.0	NUNIVAK AAF	100
1124	60.3167	24.9667	5.0	HELSINKI/SEUTALA	4544
1125	60.35	166.0	5.0	KORF	42069
1126	60.3667	120.4167	5.0	OLEKMINSK	49772
1127	60.38	5.33	5.0	BERGEN	179
1128	60.4833	-145.5	5.0	CORDOVA	2276
1129	60.8139	23.4975	5.0	JOKIOINEN OBSERVATORY	60413
1130	61.267	108.2	5.0	ERBOGACEN	35974
1131	61.95	160.8667	5.0	GIZIGA	28015
1132	62.0	-33.0	5.0	OCEAN WEATHER SHIP A	7562
1133	62.1	42.9	5.0	SENKURSK	255
1134	62.1167	-163.75	5.0	MOUNTAIN VILLAGE	147
1135	62.3975	25.6708	5.0	JYVASKYLA AIRPORT	54064
1136	62.7833	148.1333	5.0	SUSUMAN	12807
1137	62.85	149.76	5.0	SHTURMOVOY	2661
1138	62.97	-141.96	5.0	NORTHWAY	12371
1139	63.017	179.283	5.0	BERINGOVSKAJA	25831
1140	63.183	14.5	5.0	OSTERSUND/FROSON	16859
1141	63.3333	-149.15	5.0	SUMMIT	2843
1142	63.43	-51.18	5.0	MARRAK POINT	353
1143	63.7056	9.6117	5.0	ORLAND III	40241
1144	63.85	-171.6	5.0	GAMBELL	8490
1145	63.9	-160.7833	5.0	UNALAKLEET	1191
1146	64.0	-145.733	5.0	FT GREELY/ALLEN AAF	1398
1147	64.2	-83.3667	5.0	CORAL HARBOUR UA	45390
1148	64.383	-173.233	5.0	BUHTA PROVIDENJA	27529
1149	64.683	170.417	5.0	MARKOVO	33706
1150	64.7167	-156.9	5.0	GALENA	571
1151	64.7833	177.5667	5.0	ANADYR	38190
1152	64.917	77.817	5.0	TARKO-SALE	33211
1153	65.5433	22.1144	5.0	LULEA-KALLAX	41162
1154	65.6167	-168.05	5.0	WALES	863
1155	65.7333	150.9	5.0	ZYRYANKA	35043
1156	65.93	-36.68	5.0	IKATEQ	111
1157	66.0	2.0	5.0	OCEAN WEATHER SHIP M	2031
1158	66.167	-169.833	5.0	MYS UELEN	30932
1159	66.567	-145.267	5.0	FORT YUKON	133
1160	67.0	-50.8	5.0	KANGERLUSSUAK	3155
1161	67.2669	14.3586	5.0	BODO VI	38387
1162	67.47	86.57	5.0	IGARKA	13709
1163	68.23	-135.0	5.0	AKLAVIK	7053
1164	68.47	17.5	5.0	NARVIK	128
1165	68.47	73.6	5.0	MYS KAMENNY	29022
1166	68.5	112.4333	5.0	OLENEK	41890
1167	68.65	43.3	5.0	KANIN NOS	4393
1168	69.3153	16.1308	5.0	ANDOYA	3633
1169	69.3667	-152.1333	5.0	UMIAT	611
1170	69.4	86.17	5.0	DUDINKA	5076
1171	69.783	61.783	5.0	AMDERMA	34229
1172	69.9333	167.9667	5.0	AJON ISLAND	9137
1173	70.1333	-143.6333	5.0	BARTER ISLAND WSO AP	25677
1174	70.42	-21.97	5.0	KAP TOBIN	18381
1175	70.45	-68.55	5.0	CLYDE RIVER	13851
1176	70.9397	-8.6678	5.0	JAN MAYEN	48594
1177	70.967	-178.65	5.0	OSTROV VRANGELYA	29474
1178	71.317	-156.617	5.0	SANDIA LAB. D	523
1179	71.9772	102.4664	5.0	HATANGA	34969
1180	72.0	-125.27	5.0	SACHS HARBOUR	22298
1181	73.0	-85.3	5.0	ARCTIC BAY (NWT)	7539
1182	73.2	143.533	5.0	MYS SHALAUROVA	27652
1183	73.33	70.03	5.0	IM POPOVA	11828
1184	74.5039	19.0011	5.0	BJORNOYA	46944
1185	74.67	112.93	5.0	OSTROV PREOBRAZHENIA	28488
1186	76.15	152.83	5.0	OSTROV ZOHOVA	20328
1187	76.1833	62.5667	5.0	RUSSKAJA GAVAN	246
1188	76.25	-119.35	5.0	MOULD BAY	34676
1189	76.533	-68.75	5.0	PITUFFIK	50379
1190	77.23	-62.33	5.0	THULE	119
1191	77.5	82.23	5.0	OSTROV UEDINENIA	24206
1192	77.72	104.28	5.0	MYS CHELIUSKINA	657
1193	78.0667	13.6333	5.0	ISFJORD RADIO	1297
1194	78.8	-103.5	5.0	ISACHSEN	21510
1195	79.5	76.98	5.0	OSTROV VIZE	26148
1196	80.05	18.3	5.0	KINNVIKA STATION	259
1197	81.6	-16.67	5.0	NORD	10981
1198	-78.35	-163.025	5.6	LITTLE AMERICA,LITTLE AMERICA	1819
1199	-77.85	-39.95835	5.6	GENERAL BELGRANO,ELLSWORTH IGY	3920
1200	-43.6315	172.285	5.6	RAKAIA,CHRISTCHURCH	44077
1201	-36.63467924528302	174.74754716981133	5.9	MT TAMAHUNGA,AUCKLAND AIRPORT,AUCKLAND	40740
1202	-24.6085	25.91685	5.6	GABORONE,SERETSE KHAMA INTERNATIONAL AI	6466
1203	-22.52485	17.283499999999997	5.6	WINDHOEK,HOSEA KUTAKO INTL A	20028
1204	-21.11275	55.5058	5.6	ST. PIERRE/FONDS,SAINT-DENIS/GILLOT (REUNION)	30468
1205	-17.9585	25.833500000000004	5.6	VICTORIA FALLS,LIVINGSTONE	14079
1206	-17.87515	31.074850000000005	5.6	HARARE (KUTSAGA),HARARE (BELVEDERE)	19508
1207	-17.725	168.3	5.6	VILA (EFATE),BAUERFIELD (EFATE)	20259
1208	-13.771499999999998	33.73350000000001	5.6	LILONGWE INTL AIRPO,LILONGWE	15098
1209	-11.6665	33.81699999999999	5.6	MZIMBA,MZUZU	8106
1210	-8.525	126.4835	5.6	KOMORO,BAU CAU	6939
1211	-7.649850000000001	110.5915	5.6	ADISUCIPTO/JOGYAKAR,SURAKARTA/ADISUMARM	6614
1212	-6.725	107.625	5.6	BANDUNG/HUSEIN,KALIJATI	3518
1213	-5.19165	-80.6	5.6	PIURA,PIURA GRUP7	1436
1214	-4.375	15.3415	5.6	KINSHASA/NDJILI,KINSHASA/BINZA	1037
1215	-3.7581499999999997	-73.275	5.6	IQUITOS,MORONA	1396
1216	-0.23349999999999999	35.008500000000005	5.6	KERICHO,KISUMU	10864
1217	0.7499999999999999	35.15	5.6	ELDORET,KITALE	11263
1218	3.1085000000000003	101.6	5.6	PETALING JAYA,KUALA LUMPUR SUBANG	34224
1219	6.541499999999999	3.3581499999999997	5.6	LAGOS/OSHODI,LAGOS/IKEJA	4663
1220	9.4335	6.766499999999999	5.6	ABUJA,MINNA	1412
1221	10.541999999999998	-71.69149999999999	5.6	LA CANADA,MARACAIBO-LA CHINIT	1487
1222	10.807311320754717	106.94964716981131	5.9	BIEN HOA (VVBH),BARIA (PHUOC LE),AN LOC	1812
1223	13.825	100.5835	5.6	BANGKOK METROPOLIS,DON MUANG	59253
1224	13.983350000000002	108.33335	5.6	AN KHE (VVAK),PLEIKU AB	922
1225	14.208350000000001	-87.43334999999999	5.6	TEGUCIGALPA,SOTO CANO AB	5791
1226	14.457650000000001	-11.43665	5.6	KAYES,KAYES/DAG-DAG	28913
1227	14.765	-17.283350000000002	5.6	DAKAR/YOFF,THIES	76177
1228	15.140811320754716	120.40096226415095	5.9	CROW VALLEY GUNNERY,SUBIC BAY WEATHER,CLARK AB	40252
1229	15.45	44.1915	5.6	SANAA,SANA'A (CIV/MIL)	2841
1230	15.616499999999998	73.72349999999999	5.6	GOA/DABOLIM AIRPORT,VENGURLA	2023
1231	16.68459811320755	107.26820566037736	5.9	DONG HA,HUE/PHU BAI,QUANG TRI	2118
1232	17.66345	102.68820000000001	5.6	UDON THANI,VIENTIANE	50356
1233	18.375	-67.1333	5.6	MAYAGUEZ,AGUADILLA RAMEY AFB	6815
1234	22.2335	120.5915	5.6	467590,DONGGANG (=595530)	26550
1235	22.7165	-12.5915	5.6	FORT GOURAUD,ZOUERATE	12816
1236	23.119033962264147	120.35684905660378	5.9	CHIAYI (TW-AFB),PINGTUNG SOUTH(AFB),TAINAN (TW-AFB)	23974
1237	24.0835	114.60815	5.6	HEYUAN,LIANPING	23767
1238	24.3665	118.258	5.6	CHIANGYANG,CHINMEM/SHATOU(AFB)	10508
1239	25.050150000000002	121.37485	5.6	TAIBEI,TAOYUAN AB	48226
1240	25.5	28.993499999999994	5.6	DAKHLA,AL-DAKHLA	7513
1241	25.93365	32.723349999999996	5.6	LUXOR,SOUTH OF VALLEY UNIVERSITY	11210
1242	26.5257	-80.09970000000001	5.6	BOCA RATON (AAF),WEST PALM BEACH INTL AP	15396
1243	26.6	88.54169999999999	5.6	JALPAIGURI,SILIGURI	21141
1244	26.608299999999996	-81.78335	5.6	FORT MYERS (PAIGE FIELD),FORT MYERS (BUCKINGHAM AAF)	1286
1245	26.483490566037734	127.7478679245283	5.9	IEJIMA AUXILIARY AB,NAHA,KADENA AB	71318
1246	27.558349999999997	-81.34984999999999	5.6	SEBRING HENDRICKS FIELD,AVON PARK GUNNERY R	13029
1247	27.524196226415096	-82.49558867924529	5.9	TAMPA MACDILL FIELD,VENICE (AAF),SARASOTA AAF	2510
1248	28.351499999999998	28.898500000000002	5.6	BAHARIA,AL-WAHAT AL-BAHRIYA	7028
1249	28.80835	-97.01669999999999	5.6	VICTORIA (ALOE AAF),VICTORIA RGNL AP	19942
1250	28.641509433962266	-81.54464528301887	5.9	LEESBURG (AAF),ORLANDO (PINECASTLE AAF),ORLANDO (AAB)	3240
1251	29.158299999999997	-89.38335	5.6	BURRWOOD,BOOTHVILLE WSCMO CIT	27347
1252	30.2	-89.8083	5.6	NEW ORLEANS (AAB),NASA MISS. TEST	1504
1253	29.877277358490566	-85.37631132075471	5.9	PANAMA CITY (TYNDALL FIELD),CAPE SAN BLAS SITE D 3,APALACHICOLA MUNI	16111
1254	30.357999999999997	-9.492	5.6	AGADIR AL MASSIRA,AGADIR INEZGANNE	17056
1255	30.47428301886792	-86.67775094339622	5.9	EGLIN AFB RANGE NO.,PENSACOLA FOREST SHERMAN NAS,HURLBURT FIELD (AF)	4240
1256	30.64835	-96.51500000000001	5.6	BRYAN,COLLEGE STATION (BRYAN AFB)	2651
1257	30.93315	-93.19985	5.6	DE RIDDER (AFB),FORT POLK (ARMY)	2376
1258	31.05	-83.45	5.6	VALDOSTA MOODY AFB,MOULTRIE SPENCE FIELD	3706
1259	31.100941509433966	-85.16823018867925	5.9	DOTHAN (NAPIER FIELD),MARIANNA (AAF),BAINBRIDGE AAF	3917
1260	31.32418867924528	-92.454	5.9	ALEXANDRIA (ESLER FIELD),CLAIBORNE RNG (AFS),ALEXANDRIA	5329
1261	31.524849999999997	-109.97484999999999	5.6	DOUGLAS (AAF),FORT HUACHUCA	11003
1262	31.589999999999996	-84.10164999999999	5.6	ALBANY,ALBANY TURNER FIELD	1030
1263	31.625149999999998	-97.14185	5.6	WACO RGNL,WACO (JAMES CONNALLY AFB)	11745
1264	31.58529811320755	34.769871698113214	5.9	BEER-SHEVA,ASHDOD NORTH,BEER-YA AQOV TO 401790	6343
1265	31.94185	-81.38315	5.6	FORT STEWART RESERV,SAVANNAH HUNTER AFB	5591
1266	32.26649999999999	35.9165	5.6	AMMAN AIRPORT,IRBED	2006
1267	32.375	-86.61665	5.6	SELMA CRAIG AFB,MONTGOMERY (GUNTER FIELD)	2757
1268	32.66665	-83.625	5.6	WARNER ROBINS ROBINS AFB,MACON COCHRAN FIELD	3363
1269	32.791650000000004	13.225	5.6	TRIPOLI INTL ARPT,WHEELUS	36796
1270	32.7915	22.232999999999997	5.6	DERNA,SHAHAT	6120
1271	32.84185	-116.04985000000002	5.6	EL CENTRO NAF,MOUNT LAGUNA	1966
1272	33.033500000000004	130.1085	5.6	NAGASAKI AIRPORT,SAGA AIRPORT	1005
1273	33.26345	126.2064	5.6	MOESULPO AB,GOSAN	38973
1274	33.35	-104.53315	5.6	ROSWELL/INDUSTRIAL,ROSWELL	11787
1275	33.61665000000001	-102.025	5.6	REESE AFB,LUBBOCK/MUNI (TEX)	3650
1276	33.7333	-116.35835000000002	5.6	THERMAL (AAF),PALM SPRINGS (AAF)	1759
1277	34.075	-77.95835	5.6	OAK ISLAND,WILMINGTON (NEW HANOVER AP)	2682
1278	33.931603773584904	-80.65039245283019	5.9	SHAW AFB/SUMTER,POINSETT RANGE,COLUMBIA AAB	7611
1279	34.066500000000005	134.6165	5.6	KOMATSUSHIMA AB,TOKUSHIMA AB	5729
1280	34.175	-6.68335	5.6	RABAT,KENITRA PORT LYAUTEY	12678
1281	34.34165	-117.3083	5.6	SAN BERNARDINO (NORTON AFB),VICTORVILLE (GEORGE AFB)	4168
1282	34.15835	-119.09169999999999	5.6	POINT MUGU/NAS,OXNARD (FLIGHT STRIP)	17670
1283	34.34165	-103.55834999999999	5.6	MELROSE GUNNERY RAN,CLOVIS AAF	2278
1284	34.63334999999999	-86.98330000000001	5.6	REDSTONE ARSENAL,COURTLAND (AAF)	4074
1285	34.67515	137.95999999999998	5.6	OMAEZAKI,HAMAMATSU AB	41615
1286	34.775	-120.5085	5.6	SOUTH VANDENBERG AF,SANTA MARIA/PUBLIC (CAL)	16004
1287	34.9665	-79.14984999999999	5.6	LAURINBURG (MAXTON AAB),FORT BRAGG/SIMMONS	2213
1288	35.1315	139.7515	5.6	TATEYAMA AB,YOKOSUKA	1947
1289	34.87252830188679	33.13415094339623	5.9	ATHALASSA,AKROTIRI,EPISKOPI	57136
1290	35.27385	-116.35664999999999	5.6	BAKER,BICYCLE LAKE (AAF)	2252
1291	35.46685	-75.725	5.6	CAPE HATTERAS WB BLDG,DARE COUNTY GUNNERY	48399
1292	35.3	-117.2665	5.6	CUDDLEBACK GUNNERY,SUPERIOR VALLEY GUN	6790
1293	35.48350000000001	8.4	5.6	TEBESSA,THALA	16947
1294	35.376747169811324	-119.17891509433962	5.9	BAKERSFIELD (MINTER FIELD),TAFT (GARDNER FIELD),BAKERSFIELD	9417
1295	35.7085	10.425	5.6	KAIROUAN,MONASTIR-SKANES	45397
1296	35.9415	-5.625	5.6	TANGER (AERODROME),GIBRALTAR	52989
1297	35.933499999999995	-89.675	5.6	DYERSBURG AAF,BLYTHEVILLE AFB	2196
1298	35.9415	129.0335	5.6	DAEGU AB,POHANG AB	6547
1299	36.45	5.1585	5.6	SETIF,BEJAIA-AEROPORT	17970
1300	36.716499999999996	8.775	5.6	JENDOUBA,TABARKA	24747
1301	36.6665	127.4665	5.6	CHEONGJU,CHEONGJU INTL AIRPO	6428
1302	36.966499999999996	67.2335	5.6	MAZAR-I-SHARIF,TERMEZ	22278
1303	37.66775	127.84290000000001	5.6	WONJU AB,CHUNCHEON	6742
1304	37.47428301886792	126.90662264150944	5.9	GIMPO INTL AIRPORT,SV RI SAN,SEOUL AB	23474
1305	38.0004	128.75735	5.6	GANGNEUNG AB,SOKCHO	16895
1306	38.57334999999999	-76.94	5.6	DAHLGREN,CAMP SPRINGS (ANDREWS AFB)	3534
1307	38.75834999999999	-121.18499999999999	5.6	SACRAMENTO (MATHER AFB),AUBURN	548
1308	38.885000000000005	-98.96834999999999	5.6	RUSSELL,VICTORIA (WALKER AAF)	1573
1309	38.715792452830186	-104.72005660377359	5.9	AIR FORCE ACADEMY,PUEBLO MEMORIAL(AW),FORT CARSON/BUTTS	11440
1310	39.55815	109.86665	5.6	CHASAKOCHI,DONGSHENG	27085
1311	40.22610754716982	-122.1679245283019	5.9	REDDING (AAF),CHICO MUNI,RED BLUFF MUNICIPAL	7410
1312	40.666999999999994	46.783500000000004	5.6	EVLAKH AIRPORT,GANDJA	982
1313	40.36294716981132	-73.99728867924527	5.9	NEW YORK JFK AP,LAKEHURST,SPRING LAKE BELMAR	30692
1314	41.058350000000004	-72.325	5.6	WESTHAMPTON SUFFOLK COUNTY AAF,FISHERS ISLAND FORT H G WRIGHT	993
1315	41.15	-111.9917	5.6	OGDEN (HILL AFB),OGDEN	7026
1316	41.9393	-1.2615500000000002	5.6	ZARAGOZA/BASE AEREA,BARDENAS REALES	24597
1317	41.98335	-103.20829999999998	5.6	SCOTTSBLUFF AAF,ALLIANCE AAF	1598
1318	42.06665	-72.60830000000001	5.6	WINDSOR LOCKS/BRADLEY FIELD,CHICOPEE FALLS (WESTOVER AFB)	4577
1319	41.72514150943396	-70.16981320754716	5.9	NORTH TRURO,NANTUCKET MEM AP,FALMOUTH OTIS AFB	24582
1320	42.15015	-76.0415	5.6	BINGHAMTON,BINGHAMTON/BROOME C	9283
1321	42.2	42.833000000000006	5.6	SAKARA,KUTAISI	571
1322	42.275	-83.38329999999999	5.6	YPSILANTI,DETROIT METRO.	11811
1323	42.616499999999995	-92.44149999999999	5.6	WATERLOO,WAVERLY	1548
1324	42.91685	-106.40014999999998	5.6	CASPER WYO,CASPER/NATRONA COUN	11626
1325	42.66037924528302	-71.30563584905661	5.9	MANCHESTER (GRENIER FIELD),CAMBRIDGE MIT,BEDFORD HANSCOM AP	2003
1326	43.533500000000004	6.975	5.6	SAINT-RAPHAEL,NICE	667
1327	43.575	-1.3	5.6	BIARRITZ,DAX	1383
1328	43.58315	-119.0	5.6	BURNS MUNI (AMOS),BURNS	9056
1329	44.864850000000004	34.3661	5.6	SIMFEROPOL,KRYMSKA	44073
1330	45.17682641509435	-83.16989056603775	5.9	ENVIRONM BUOY 45003,ALPENA,ALPENA/PHELPS COLLI	9906
1331	45.641999999999996	-73.583	5.6	MONTREAL/TRUDEAU INT,LASSOMPTION CDA	17931
1332	45.6	25.558	5.6	PREDEAL,BRASOV-GHIMBAV	1501
1333	45.7217	5.0139	5.6	LYON-BRON,LYON-ST EXUPERY	45954
1334	45.967	21.2835	5.6	TIMISOARA,ARAD	8037
1335	45.80800000000001	24.508	5.6	SIBIU,FAGARAS	967
1336	46.0318	12.89125	5.6	AVIANO,UDINE/CAMPOFORMIDO	59580
1337	46.36	121.705	5.6	ULANHOT,TE-PO-SU-K/-MIAO	13962
1338	46.9585	2.04185	5.6	CHATEAUROUX,BOURGES	8557
1339	47.69199999999999	23.191499999999998	5.6	BAIA MARE,SATU MARE	2659
1340	48.0415	9.075	5.6	NEUHAUSEN OB ECK,SIGMARINGEN	21411
1341	48.1665	-103.60814999999998	5.6	WILLISTON,WILLISTON/SLOULIN F	6802
1342	49.5415	11.5585	5.6	FEUCHT(USA-AF),GRAFENWOEHR	4679
1343	49.8	6.935	5.6	BAUMHOLDER (USA-AF),BITBURG	5102
1344	49.85	-97.18315	5.6	WINNIPEG UA,WINNIPEG INT.AIRPOR	16919
1345	50.0869	-119.34164999999999	5.6	KELOWNA UA,VERNON AUTO	32630
1346	50.09647169811321	8.711471698113208	5.9	HANAU,LANGEN,WIESBADEN	10990
1347	50.3165	-104.68350000000001	5.6	BRATT'S LAKE UA,REGINA INTL	6506
1348	51.05	7.36665	5.6	KOLN/BONN,LUDENSCHEID	2763
1349	51.83585000000001	0.89695	5.6	SHOEBURYNESS,WATTISHAM	11190
1350	53.492000000000004	-113.525	5.6	EDMONTON INTL ARPT,EDMONTON NAMAO ARPT	10372
1351	53.461349999999996	7.555099999999999	5.6	EMDEN-FLUGPLATZ,JEVER	47267
1352	54.50815	9.75	5.6	KEIL/HOLTENAU,EGGEBECK	18072
1353	54.5835	-110.1665	5.6	COLD LAKE,PRIMROSE LAKE	6241
1354	54.565	-6.15835	5.6	LONG KESH,BELFAST/ALDERGROVE ARPT	52711
1355	55.70015000000001	12.59985	5.6	KOBENHAVN/KASTRUP,JAEGERSBORG	49140
1356	56.408	-2.867	5.6	LEUCHARS,SHANWELL	38226
1357	57.95	11.9665	5.6	GOTEBURG/TORSLANDA,TORPABRON	20845
1358	59.9415	30.508500000000005	5.6	LENINGRAD/CHOSSEYNOR,ST.PETERSBURG (VOEJKOVO)	59928
1359	60.0714	10.9012	5.6	OSLO-BLINDERN,OSLO/GARDERMOEN	28660
1360	61.25834999999999	-149.725	5.6	ANCHORAGE ELMENDORF FIELD,FT. RICHARDSON/BRYANT AHP	1195
1361	68.225	-166.275	5.6	CAPE THOMPSON,POINT HOPE	525
1362	-0.20425	37.275000000000006	6.2	EMBU,NYERI,NANUYKI,MERU	7361
1363	21.449925	-157.93335	6.2	BARBERS POINT NAS,HONOLULU INTL,KANEOHE BAY (MCAF),KAHUKU AAB	35506
1364	32.74175	-106.34592500000001	6.2	WHITE SANDS TEST RG,FRYE SITE,HOLLOMAN AFB,WHITE SANDS MISSILE	21207
1365	33.309569351927806	-111.88993970467598	6.5	COOLIDGE (AAF),CHANDLER (WILLIAMS FIELD),PHOENIX (LUKE FIELD),PHOENIX/SKY HARBOR,WFO PHOENIX	16616
1366	33.684174999999996	-117.95407499999999	6.2	CAMP PENDLETON,CA SANTA ANA/ORANGE COUNTY AAF,LOMITA (AAF),LONG BEACH	8921
1367	36.7259	-116.002875	6.2	INDIAN SPRINGS GUNN,MERCURY DESERT ROCK AP,JACKASS FLATS,YUCCA FLATS TEST 21	40991
1368	39.196650000000005	-85.86667500000001	6.2	MADISON JEFFERSON PRVGR,SEYMOUR FREEMAN FIELD,COLUMBUS,INDIANAPOLIS STOUT FIELD	4583
1369	39.55622372436424	-75.40662173913043	6.5	ATLANTIC CITY U-A,PHILADELPHIA INTL,ABERDEEN PRVGR,DOVER (AAF),WILMINGTON (NEW CASTLE AAB)	28197
1370	47.366675	-122.49165000000002	6.2	OLYMPIA MUN I AP,TACOMA (MCCHORD AFB),SEATTLE-TACOMA INTL,EVERETT (PAINE FIELD)	20528
